$GPGGA,105520.356,5702.717,N,00955.374,E,1,12,1.0,0.0,M,0.0,M,,*65
$GPGSA,A,3,01,02,03,04,05,06,07,08,09,10,11,12,1.0,1.0,1.0*30
$GPRMC,105520.356,A,5702.717,N,00955.374,E,001.1,180.0,141218,000.0,W*77
$GPGGA,105523.959,5702.716,N,00955.374,E,1,12,1.0,0.0,M,0.0,M,,*62
$GPGSA,A,3,01,02,03,04,05,06,07,08,09,10,11,12,1.0,1.0,1.0*30
$GPRMC,105523.959,A,5702.716,N,00955.374,E,001.1,180.0,141218,000.0,W*70
$GPGGA,105527.563,5702.715,N,00955.374,E,1,12,1.0,0.0,M,0.0,M,,*60
$GPGSA,A,3,01,02,03,04,05,06,07,08,09,10,11,12,1.0,1.0,1.0*30
$GPRMC,105527.563,A,5702.715,N,00955.374,E,001.1,180.0,141218,000.0,W*72
$GPGGA,105531.166,5702.714,N,00955.374,E,1,12,1.0,0.0,M,0.0,M,,*67
$GPGSA,A,3,01,02,03,04,05,06,07,08,09,10,11,12,1.0,1.0,1.0*30
$GPRMC,105531.166,A,5702.714,N,00955.374,E,001.1,180.0,141218,000.0,W*75
$GPGGA,105534.770,5702.713,N,00955.374,E,1,12,1.0,0.0,M,0.0,M,,*64
$GPGSA,A,3,01,02,03,04,05,06,07,08,09,10,11,12,1.0,1.0,1.0*30
$GPRMC,105534.770,A,5702.713,N,00955.374,E,001.1,180.0,141218,000.0,W*76
$GPGGA,105538.374,5702.712,N,00955.374,E,1,12,1.0,0.0,M,0.0,M,,*69
$GPGSA,A,3,01,02,03,04,05,06,07,08,09,10,11,12,1.0,1.0,1.0*30
$GPRMC,105538.374,A,5702.712,N,00955.374,E,001.1,180.0,141218,000.0,W*7B
$GPGGA,105541.977,5702.711,N,00955.374,E,1,12,1.0,0.0,M,0.0,M,,*6D
$GPGSA,A,3,01,02,03,04,05,06,07,08,09,10,11,12,1.0,1.0,1.0*30
$GPRMC,105541.977,A,5702.711,N,00955.374,E,003.2,253.5,141218,000.0,W*76
$GPGGA,105545.581,5702.709,N,00955.369,E,1,12,1.0,0.0,M,0.0,M,,*69
$GPGSA,A,3,01,02,03,04,05,06,07,08,09,10,11,12,1.0,1.0,1.0*30
$GPRMC,105545.581,A,5702.709,N,00955.369,E,004.9,268.4,141218,000.0,W*77
$GPGGA,105549.184,5702.709,N,00955.360,E,1,12,1.0,0.0,M,0.0,M,,*6D
$GPGSA,A,3,01,02,03,04,05,06,07,08,09,10,11,12,1.0,1.0,1.0*30
$GPRMC,105549.184,A,5702.709,N,00955.360,E,009.2,265.6,141218,000.0,W*7A
$GPGGA,105552.788,5702.708,N,00955.343,E,1,12,1.0,0.0,M,0.0,M,,*6D
$GPGSA,A,3,01,02,03,04,05,06,07,08,09,10,11,12,1.0,1.0,1.0*30
$GPRMC,105552.788,A,5702.708,N,00955.343,E,014.6,269.7,141218,000.0,W*7F
$GPGGA,105556.392,5702.708,N,00955.316,E,1,12,1.0,0.0,M,0.0,M,,*66
$GPGSA,A,3,01,02,03,04,05,06,07,08,09,10,11,12,1.0,1.0,1.0*30
$GPRMC,105556.392,A,5702.708,N,00955.316,E,014.6,267.5,141218,000.0,W*78
$GPGGA,105559.995,5702.706,N,00955.289,E,1,12,1.0,0.0,M,0.0,M,,*6D
$GPGSA,A,3,01,02,03,04,05,06,07,08,09,10,11,12,1.0,1.0,1.0*30
$GPRMC,105559.995,A,5702.706,N,00955.289,E,015.1,270.0,141218,000.0,W*76
$GPGGA,105603.599,5702.706,N,00955.262,E,1,12,1.0,0.0,M,0.0,M,,*64
$GPGSA,A,3,01,02,03,04,05,06,07,08,09,10,11,12,1.0,1.0,1.0*30
$GPRMC,105603.599,A,5702.706,N,00955.262,E,010.2,279.6,141218,000.0,W*76
$GPGGA,105607.202,5702.709,N,00955.244,E,1,12,1.0,0.0,M,0.0,M,,*6E
$GPGSA,A,3,01,02,03,04,05,06,07,08,09,10,11,12,1.0,1.0,1.0*30
$GPRMC,105607.202,A,5702.709,N,00955.244,E,004.3,352.7,141218,000.0,W*71
$GPGGA,105610.806,5702.714,N,00955.243,E,1,12,1.0,0.0,M,0.0,M,,*6D
$GPGSA,A,3,01,02,03,04,05,06,07,08,09,10,11,12,1.0,1.0,1.0*30
$GPRMC,105610.806,A,5702.714,N,00955.243,E,004.3,352.7,141218,000.0,W*72
$GPGGA,105614.410,5702.718,N,00955.243,E,1,12,1.0,0.0,M,0.0,M,,*6E
$GPGSA,A,3,01,02,03,04,05,06,07,08,09,10,11,12,1.0,1.0,1.0*30
$GPRMC,105614.410,A,5702.718,N,00955.243,E,010.2,026.4,141218,000.0,W*76
$GPGGA,105618.013,5702.728,N,00955.248,E,1,12,1.0,0.0,M,0.0,M,,*6D
$GPGSA,A,3,01,02,03,04,05,06,07,08,09,10,11,12,1.0,1.0,1.0*30
$GPRMC,105618.013,A,5702.728,N,00955.248,E,010.2,026.4,141218,000.0,W*75
$GPGGA,105621.617,5702.738,N,00955.252,E,1,12,1.0,0.0,M,0.0,M,,*6F
$GPGSA,A,3,01,02,03,04,05,06,07,08,09,10,11,12,1.0,1.0,1.0*30
$GPRMC,105621.617,A,5702.738,N,00955.252,E,015.6,032.9,141218,000.0,W*7E
$GPGGA,105625.220,5702.753,N,00955.262,E,1,12,1.0,0.0,M,0.0,M,,*65
$GPGSA,A,3,01,02,03,04,05,06,07,08,09,10,11,12,1.0,1.0,1.0*30
$GPRMC,105625.220,A,5702.753,N,00955.262,E,018.9,034.9,141218,000.0,W*70
$GPGGA,105628.824,5702.770,N,00955.274,E,1,12,1.0,0.0,M,0.0,M,,*60
$GPGSA,A,3,01,02,03,04,05,06,07,08,09,10,11,12,1.0,1.0,1.0*30
$GPRMC,105628.824,A,5702.770,N,00955.274,E,012.4,293.1,141218,000.0,W*75
$GPGGA,105632.428,5702.778,N,00955.256,E,1,12,1.0,0.0,M,0.0,M,,*63
$GPGSA,A,3,01,02,03,04,05,06,07,08,09,10,11,12,1.0,1.0,1.0*30
$GPRMC,105632.428,A,5702.778,N,00955.256,E,019.4,284.7,141218,000.0,W*7D
$GPGGA,105636.031,5702.786,N,00955.224,E,1,12,1.0,0.0,M,0.0,M,,*6F
$GPGSA,A,3,01,02,03,04,05,06,07,08,09,10,11,12,1.0,1.0,1.0*30
$GPRMC,105636.031,A,5702.786,N,00955.224,E,022.7,283.2,141218,000.0,W*78
$GPGGA,105639.635,5702.795,N,00955.186,E,1,12,1.0,0.0,M,0.0,M,,*6B
$GPGSA,A,3,01,02,03,04,05,06,07,08,09,10,11,12,1.0,1.0,1.0*30
$GPRMC,105639.635,A,5702.795,N,00955.186,E,023.2,288.1,141218,000.0,W*70
$GPGGA,105643.238,5702.807,N,00955.149,E,1,12,1.0,0.0,M,0.0,M,,*68
$GPGSA,A,3,01,02,03,04,05,06,07,08,09,10,11,12,1.0,1.0,1.0*30
$GPRMC,105643.238,A,5702.807,N,00955.149,E,022.1,291.4,141218,000.0,W*7C
$GPGGA,105646.842,5702.820,N,00955.116,E,1,12,1.0,0.0,M,0.0,M,,*65
$GPGSA,A,3,01,02,03,04,05,06,07,08,09,10,11,12,1.0,1.0,1.0*30
$GPRMC,105646.842,A,5702.820,N,00955.116,E,022.1,287.4,141218,000.0,W*76
$GPGGA,105650.446,5702.831,N,00955.081,E,1,12,1.0,0.0,M,0.0,M,,*65
$GPGSA,A,3,01,02,03,04,05,06,07,08,09,10,11,12,1.0,1.0,1.0*30
$GPRMC,105650.446,A,5702.831,N,00955.081,E,022.7,283.3,141218,000.0,W*73
$GPGGA,105654.049,5702.840,N,00955.043,E,1,12,1.0,0.0,M,0.0,M,,*62
$GPGSA,A,3,01,02,03,04,05,06,07,08,09,10,11,12,1.0,1.0,1.0*30
$GPRMC,105654.049,A,5702.840,N,00955.043,E,021.0,290.3,141218,000.0,W*72
$GPGGA,105657.653,5702.852,N,00955.011,E,1,12,1.0,0.0,M,0.0,M,,*68
$GPGSA,A,3,01,02,03,04,05,06,07,08,09,10,11,12,1.0,1.0,1.0*30
$GPRMC,105657.653,A,5702.852,N,00955.011,E,018.9,283.0,141218,000.0,W*7A
$GPGGA,105701.256,5702.859,N,00954.979,E,1,12,1.0,0.0,M,0.0,M,,*66
$GPGSA,A,3,01,02,03,04,05,06,07,08,09,10,11,12,1.0,1.0,1.0*30
$GPRMC,105701.256,A,5702.859,N,00954.979,E,014.0,289.3,141218,000.0,W*78
$GPGGA,105704.860,5702.867,N,00954.957,E,1,12,1.0,0.0,M,0.0,M,,*6D
$GPGSA,A,3,01,02,03,04,05,06,07,08,09,10,11,12,1.0,1.0,1.0*30
$GPRMC,105704.860,A,5702.867,N,00954.957,E,011.3,286.2,141218,000.0,W*7B
$GPGGA,105708.464,5702.872,N,00954.939,E,1,12,1.0,0.0,M,0.0,M,,*65
$GPGSA,A,3,01,02,03,04,05,06,07,08,09,10,11,12,1.0,1.0,1.0*30
$GPRMC,105708.464,A,5702.872,N,00954.939,E,005.9,328.6,141218,000.0,W*7D
$GPGGA,105712.067,5702.878,N,00954.935,E,1,12,1.0,0.0,M,0.0,M,,*6F
$GPGSA,A,3,01,02,03,04,05,06,07,08,09,10,11,12,1.0,1.0,1.0*30
$GPRMC,105712.067,A,5702.878,N,00954.935,E,004.9,046.8,141218,000.0,W*73
$GPGGA,105715.671,5702.882,N,00954.940,E,1,12,1.0,0.0,M,0.0,M,,*6E
$GPGSA,A,3,01,02,03,04,05,06,07,08,09,10,11,12,1.0,1.0,1.0*30
$GPRMC,105715.671,A,5702.882,N,00954.940,E,004.3,025.9,141218,000.0,W*7C
$GPGGA,105719.274,5702.886,N,00954.942,E,1,12,1.0,0.0,M,0.0,M,,*65
$GPGSA,A,3,01,02,03,04,05,06,07,08,09,10,11,12,1.0,1.0,1.0*30
$GPRMC,105719.274,A,5702.886,N,00954.942,E,004.3,025.9,141218,000.0,W*77
$GPGGA,105722.878,5702.890,N,00954.944,E,1,12,1.0,0.0,M,0.0,M,,*6A
$GPGSA,A,3,01,02,03,04,05,06,07,08,09,10,11,12,1.0,1.0,1.0*30
$GPRMC,105722.878,A,5702.890,N,00954.944,E,004.3,025.9,141218,000.0,W*78
$GPGGA,105726.482,5702.894,N,00954.946,E,1,12,1.0,0.0,M,0.0,M,,*61
$GPGSA,A,3,01,02,03,04,05,06,07,08,09,10,11,12,1.0,1.0,1.0*30
$GPRMC,105726.482,A,5702.894,N,00954.946,E,004.3,025.9,141218,000.0,W*73
$GPGGA,105730.085,5702.899,N,00954.948,E,1,12,1.0,0.0,M,0.0,M,,*66
$GPGSA,A,3,01,02,03,04,05,06,07,08,09,10,11,12,1.0,1.0,1.0*30
$GPRMC,105730.085,A,5702.899,N,00954.948,E,004.3,025.9,141218,000.0,W*74
$GPGGA,105733.689,5702.903,N,00954.950,E,1,12,1.0,0.0,M,0.0,M,,*64
$GPGSA,A,3,01,02,03,04,05,06,07,08,09,10,11,12,1.0,1.0,1.0*30
$GPRMC,105733.689,A,5702.903,N,00954.950,E,004.3,025.9,141218,000.0,W*76
$GPGGA,105737.292,5702.907,N,00954.952,E,1,12,1.0,0.0,M,0.0,M,,*68
$GPGSA,A,3,01,02,03,04,05,06,07,08,09,10,11,12,1.0,1.0,1.0*30
$GPRMC,105737.292,A,5702.907,N,00954.952,E,004.3,025.9,141218,000.0,W*7A
$GPGGA,105740.896,5702.911,N,00954.954,E,1,12,1.0,0.0,M,0.0,M,,*67
$GPGSA,A,3,01,02,03,04,05,06,07,08,09,10,11,12,1.0,1.0,1.0*30
$GPRMC,105740.896,A,5702.911,N,00954.954,E,004.3,025.9,141218,000.0,W*75
$GPGGA,105744.500,5702.915,N,00954.956,E,1,12,1.0,0.0,M,0.0,M,,*67
$GPGSA,A,3,01,02,03,04,05,06,07,08,09,10,11,12,1.0,1.0,1.0*30
$GPRMC,105744.500,A,5702.915,N,00954.956,E,004.3,025.9,141218,000.0,W*75
$GPGGA,105748.103,5702.919,N,00954.958,E,1,12,1.0,0.0,M,0.0,M,,*6E
$GPGSA,A,3,01,02,03,04,05,06,07,08,09,10,11,12,1.0,1.0,1.0*30
$GPRMC,105748.103,A,5702.919,N,00954.958,E,004.3,025.9,141218,000.0,W*7C
$GPGGA,105751.707,5702.924,N,00954.960,E,1,12,1.0,0.0,M,0.0,M,,*61
$GPGSA,A,3,01,02,03,04,05,06,07,08,09,10,11,12,1.0,1.0,1.0*30
$GPRMC,105751.707,A,5702.924,N,00954.960,E,004.3,025.9,141218,000.0,W*73
$GPGGA,105755.310,5702.928,N,00954.962,E,1,12,1.0,0.0,M,0.0,M,,*69
$GPGSA,A,3,01,02,03,04,05,06,07,08,09,10,11,12,1.0,1.0,1.0*30
$GPRMC,105755.310,A,5702.928,N,00954.962,E,004.3,025.9,141218,000.0,W*7B
$GPGGA,105758.914,5702.932,N,00954.964,E,1,12,1.0,0.0,M,0.0,M,,*67
$GPGSA,A,3,01,02,03,04,05,06,07,08,09,10,11,12,1.0,1.0,1.0*30
$GPRMC,105758.914,A,5702.932,N,00954.964,E,004.3,025.9,141218,000.0,W*75
$GPGGA,105802.518,5702.936,N,00954.966,E,1,12,1.0,0.0,M,0.0,M,,*61
$GPGSA,A,3,01,02,03,04,05,06,07,08,09,10,11,12,1.0,1.0,1.0*30
$GPRMC,105802.518,A,5702.936,N,00954.966,E,004.3,025.9,141218,000.0,W*73
$GPGGA,105806.121,5702.940,N,00954.968,E,1,12,1.0,0.0,M,0.0,M,,*64
$GPGSA,A,3,01,02,03,04,05,06,07,08,09,10,11,12,1.0,1.0,1.0*30
$GPRMC,105806.121,A,5702.940,N,00954.968,E,004.3,025.9,141218,000.0,W*76
$GPGGA,105809.725,5702.945,N,00954.970,E,1,12,1.0,0.0,M,0.0,M,,*65
$GPGSA,A,3,01,02,03,04,05,06,07,08,09,10,11,12,1.0,1.0,1.0*30
$GPRMC,105809.725,A,5702.945,N,00954.970,E,004.3,025.9,141218,000.0,W*77
$GPGGA,105813.328,5702.949,N,00954.972,E,1,12,1.0,0.0,M,0.0,M,,*69
$GPGSA,A,3,01,02,03,04,05,06,07,08,09,10,11,12,1.0,1.0,1.0*30
$GPRMC,105813.328,A,5702.949,N,00954.972,E,004.3,025.9,141218,000.0,W*7B
$GPGGA,105816.932,5702.953,N,00954.974,E,1,12,1.0,0.0,M,0.0,M,,*60
$GPGSA,A,3,01,02,03,04,05,06,07,08,09,10,11,12,1.0,1.0,1.0*30
$GPRMC,105816.932,A,5702.953,N,00954.974,E,004.3,025.9,141218,000.0,W*72
$GPGGA,105820.536,5702.957,N,00954.976,E,1,12,1.0,0.0,M,0.0,M,,*6B
$GPGSA,A,3,01,02,03,04,05,06,07,08,09,10,11,12,1.0,1.0,1.0*30
$GPRMC,105820.536,A,5702.957,N,00954.976,E,004.3,025.9,141218,000.0,W*79
$GPGGA,105824.139,5702.961,N,00954.978,E,1,12,1.0,0.0,M,0.0,M,,*6F
$GPGSA,A,3,01,02,03,04,05,06,07,08,09,10,11,12,1.0,1.0,1.0*30
$GPRMC,105824.139,A,5702.961,N,00954.978,E,004.3,025.9,141218,000.0,W*7D
$GPGGA,105827.743,5702.965,N,00954.980,E,1,12,1.0,0.0,M,0.0,M,,*64
$GPGSA,A,3,01,02,03,04,05,06,07,08,09,10,11,12,1.0,1.0,1.0*30
$GPRMC,105827.743,A,5702.965,N,00954.980,E,004.9,009.5,141218,000.0,W*7E
$GPGGA,105831.346,5702.970,N,00954.981,E,1,12,1.0,0.0,M,0.0,M,,*67
$GPGSA,A,3,01,02,03,04,05,06,07,08,09,10,11,12,1.0,1.0,1.0*30
$GPRMC,105831.346,A,5702.970,N,00954.981,E,004.9,009.5,141218,000.0,W*7D
$GPGGA,105834.950,5702.975,N,00954.982,E,1,12,1.0,0.0,M,0.0,M,,*69
$GPGSA,A,3,01,02,03,04,05,06,07,08,09,10,11,12,1.0,1.0,1.0*30
$GPRMC,105834.950,A,5702.975,N,00954.982,E,004.9,009.5,141218,000.0,W*73
$GPGGA,105838.554,5702.980,N,00954.983,E,1,12,1.0,0.0,M,0.0,M,,*66
$GPGSA,A,3,01,02,03,04,05,06,07,08,09,10,11,12,1.0,1.0,1.0*30
$GPRMC,105838.554,A,5702.980,N,00954.983,E,004.9,009.5,141218,000.0,W*7C
$GPGGA,105842.157,5702.985,N,00954.984,E,1,12,1.0,0.0,M,0.0,M,,*6E
$GPGSA,A,3,01,02,03,04,05,06,07,08,09,10,11,12,1.0,1.0,1.0*30
$GPRMC,105842.157,A,5702.985,N,00954.984,E,004.9,009.5,141218,000.0,W*74
$GPGGA,105845.761,5702.990,N,00954.984,E,1,12,1.0,0.0,M,0.0,M,,*6E
$GPGSA,A,3,01,02,03,04,05,06,07,08,09,10,11,12,1.0,1.0,1.0*30
$GPRMC,105845.761,A,5702.990,N,00954.984,E,004.9,009.5,141218,000.0,W*74
$GPGGA,105849.365,5702.994,N,00954.985,E,1,12,1.0,0.0,M,0.0,M,,*67
$GPGSA,A,3,01,02,03,04,05,06,07,08,09,10,11,12,1.0,1.0,1.0*30
$GPRMC,105849.365,A,5702.994,N,00954.985,E,004.9,009.5,141218,000.0,W*7D
$GPGGA,105852.968,5702.999,N,00954.986,E,1,12,1.0,0.0,M,0.0,M,,*64
$GPGSA,A,3,01,02,03,04,05,06,07,08,09,10,11,12,1.0,1.0,1.0*30
$GPRMC,105852.968,A,5702.999,N,00954.986,E,004.9,009.5,141218,000.0,W*7E
$GPGGA,105856.572,5703.004,N,00954.987,E,1,12,1.0,0.0,M,0.0,M,,*6A
$GPGSA,A,3,01,02,03,04,05,06,07,08,09,10,11,12,1.0,1.0,1.0*30
$GPRMC,105856.572,A,5703.004,N,00954.987,E,004.9,009.5,141218,000.0,W*70
$GPGGA,105900.175,5703.009,N,00954.988,E,1,12,1.0,0.0,M,0.0,M,,*69
$GPGSA,A,3,01,02,03,04,05,06,07,08,09,10,11,12,1.0,1.0,1.0*30
$GPRMC,105900.175,A,5703.009,N,00954.988,E,004.9,009.5,141218,000.0,W*73
$GPGGA,105903.779,5703.014,N,00954.988,E,1,12,1.0,0.0,M,0.0,M,,*6C
$GPGSA,A,3,01,02,03,04,05,06,07,08,09,10,11,12,1.0,1.0,1.0*30
$GPRMC,105903.779,A,5703.014,N,00954.988,E,004.9,009.5,141218,000.0,W*76
$GPGGA,105907.383,5703.019,N,00954.989,E,1,12,1.0,0.0,M,0.0,M,,*65
$GPGSA,A,3,01,02,03,04,05,06,07,08,09,10,11,12,1.0,1.0,1.0*30
$GPRMC,105907.383,A,5703.019,N,00954.989,E,004.9,009.5,141218,000.0,W*7F
$GPGGA,105910.986,5703.023,N,00954.990,E,1,12,1.0,0.0,M,0.0,M,,*6D
$GPGSA,A,3,01,02,03,04,05,06,07,08,09,10,11,12,1.0,1.0,1.0*30
$GPRMC,105910.986,A,5703.023,N,00954.990,E,005.4,012.9,141218,000.0,W*7D
$GPGGA,105914.590,5703.029,N,00954.991,E,1,12,1.0,0.0,M,0.0,M,,*69
$GPGSA,A,3,01,02,03,04,05,06,07,08,09,10,11,12,1.0,1.0,1.0*30
$GPRMC,105914.590,A,5703.029,N,00954.991,E,005.4,012.9,141218,000.0,W*79
$GPGGA,105918.193,5703.034,N,00954.993,E,1,12,1.0,0.0,M,0.0,M,,*6C
$GPGSA,A,3,01,02,03,04,05,06,07,08,09,10,11,12,1.0,1.0,1.0*30
$GPRMC,105918.193,A,5703.034,N,00954.993,E,005.4,012.9,141218,000.0,W*7C
$GPGGA,105921.797,5703.039,N,00954.994,E,1,12,1.0,0.0,M,0.0,M,,*6E
$GPGSA,A,3,01,02,03,04,05,06,07,08,09,10,11,12,1.0,1.0,1.0*30
$GPRMC,105921.797,A,5703.039,N,00954.994,E,005.4,012.9,141218,000.0,W*7E
$GPGGA,105925.401,5703.045,N,00954.995,E,1,12,1.0,0.0,M,0.0,M,,*6C
$GPGSA,A,3,01,02,03,04,05,06,07,08,09,10,11,12,1.0,1.0,1.0*30
$GPRMC,105925.401,A,5703.045,N,00954.995,E,005.4,012.9,141218,000.0,W*7C
$GPGGA,105929.004,5703.050,N,00954.996,E,1,12,1.0,0.0,M,0.0,M,,*66
$GPGSA,A,3,01,02,03,04,05,06,07,08,09,10,11,12,1.0,1.0,1.0*30
$GPRMC,105929.004,A,5703.050,N,00954.996,E,005.4,012.9,141218,000.0,W*76
$GPGGA,105932.608,5703.056,N,00954.997,E,1,12,1.0,0.0,M,0.0,M,,*61
$GPGSA,A,3,01,02,03,04,05,06,07,08,09,10,11,12,1.0,1.0,1.0*30
$GPRMC,105932.608,A,5703.056,N,00954.997,E,003.2,024.4,141218,000.0,W*79
$GPGGA,105936.211,5703.059,N,00954.999,E,1,12,1.0,0.0,M,0.0,M,,*68
$GPGSA,A,3,01,02,03,04,05,06,07,08,09,10,11,12,1.0,1.0,1.0*30
$GPRMC,105936.211,A,5703.059,N,00954.999,E,003.2,024.4,141218,000.0,W*70
$GPGGA,105939.815,5703.062,N,00955.000,E,1,12,1.0,0.0,M,0.0,M,,*69
$GPGSA,A,3,01,02,03,04,05,06,07,08,09,10,11,12,1.0,1.0,1.0*30
$GPRMC,105939.815,A,5703.062,N,00955.000,E,003.2,024.4,141218,000.0,W*71
$GPGGA,105943.419,5703.065,N,00955.002,E,1,12,1.0,0.0,M,0.0,M,,*61
$GPGSA,A,3,01,02,03,04,05,06,07,08,09,10,11,12,1.0,1.0,1.0*30
$GPRMC,105943.419,A,5703.065,N,00955.002,E,003.2,024.4,141218,000.0,W*79
$GPGGA,105947.022,5703.068,N,00955.003,E,1,12,1.0,0.0,M,0.0,M,,*65
$GPGSA,A,3,01,02,03,04,05,06,07,08,09,10,11,12,1.0,1.0,1.0*30
$GPRMC,105947.022,A,5703.068,N,00955.003,E,003.2,024.4,141218,000.0,W*7D
$GPGGA,105950.626,5703.071,N,00955.005,E,1,12,1.0,0.0,M,0.0,M,,*6F
$GPGSA,A,3,01,02,03,04,05,06,07,08,09,10,11,12,1.0,1.0,1.0*30
$GPRMC,105950.626,A,5703.071,N,00955.005,E,003.2,024.4,141218,000.0,W*77
$GPGGA,105954.229,5703.074,N,00955.006,E,1,12,1.0,0.0,M,0.0,M,,*66
$GPGSA,A,3,01,02,03,04,05,06,07,08,09,10,11,12,1.0,1.0,1.0*30
$GPRMC,105954.229,A,5703.074,N,00955.006,E,003.2,024.4,141218,000.0,W*7E
$GPGGA,105957.833,5703.078,N,00955.008,E,1,12,1.0,0.0,M,0.0,M,,*66
$GPGSA,A,3,01,02,03,04,05,06,07,08,09,10,11,12,1.0,1.0,1.0*30
$GPRMC,105957.833,A,5703.078,N,00955.008,E,003.2,024.4,141218,000.0,W*7E
$GPGGA,110001.437,5703.081,N,00955.009,E,1,12,1.0,0.0,M,0.0,M,,*67
$GPGSA,A,3,01,02,03,04,05,06,07,08,09,10,11,12,1.0,1.0,1.0*30
$GPRMC,110001.437,A,5703.081,N,00955.009,E,005.9,025.0,141218,000.0,W*77
$GPGGA,110005.040,5703.086,N,00955.012,E,1,12,1.0,0.0,M,0.0,M,,*6A
$GPGSA,A,3,01,02,03,04,05,06,07,08,09,10,11,12,1.0,1.0,1.0*30
$GPRMC,110005.040,A,5703.086,N,00955.012,E,005.9,025.0,141218,000.0,W*7A
$GPGGA,110008.644,5703.092,N,00955.014,E,1,12,1.0,0.0,M,0.0,M,,*66
$GPGSA,A,3,01,02,03,04,05,06,07,08,09,10,11,12,1.0,1.0,1.0*30
$GPRMC,110008.644,A,5703.092,N,00955.014,E,005.9,025.0,141218,000.0,W*76
$GPGGA,110012.247,5703.098,N,00955.017,E,1,12,1.0,0.0,M,0.0,M,,*63
$GPGSA,A,3,01,02,03,04,05,06,07,08,09,10,11,12,1.0,1.0,1.0*30
$GPRMC,110012.247,A,5703.098,N,00955.017,E,005.9,025.0,141218,000.0,W*73
$GPGGA,110015.851,5703.104,N,00955.020,E,1,12,1.0,0.0,M,0.0,M,,*69
$GPGSA,A,3,01,02,03,04,05,06,07,08,09,10,11,12,1.0,1.0,1.0*30
$GPRMC,110015.851,A,5703.104,N,00955.020,E,005.9,025.0,141218,000.0,W*79
$GPGGA,110019.455,5703.109,N,00955.022,E,1,12,1.0,0.0,M,0.0,M,,*62
$GPGSA,A,3,01,02,03,04,05,06,07,08,09,10,11,12,1.0,1.0,1.0*30
$GPRMC,110019.455,A,5703.109,N,00955.022,E,007.0,033.9,141218,000.0,W*77
$GPGGA,110023.058,5703.116,N,00955.027,E,1,12,1.0,0.0,M,0.0,M,,*69
$GPGSA,A,3,01,02,03,04,05,06,07,08,09,10,11,12,1.0,1.0,1.0*30
$GPRMC,110023.058,A,5703.116,N,00955.027,E,007.0,033.9,141218,000.0,W*7C
$GPGGA,110026.662,5703.123,N,00955.031,E,1,12,1.0,0.0,M,0.0,M,,*62
$GPGSA,A,3,01,02,03,04,05,06,07,08,09,10,11,12,1.0,1.0,1.0*30
$GPRMC,110026.662,A,5703.123,N,00955.031,E,007.0,033.9,141218,000.0,W*77
$GPGGA,110030.265,5703.129,N,00955.036,E,1,12,1.0,0.0,M,0.0,M,,*6B
$GPGSA,A,3,01,02,03,04,05,06,07,08,09,10,11,12,1.0,1.0,1.0*30
$GPRMC,110030.265,A,5703.129,N,00955.036,E,007.0,033.9,141218,000.0,W*7E
$GPGGA,110033.869,5703.136,N,00955.040,E,1,12,1.0,0.0,M,0.0,M,,*61
$GPGSA,A,3,01,02,03,04,05,06,07,08,09,10,11,12,1.0,1.0,1.0*30
$GPRMC,110033.869,A,5703.136,N,00955.040,E,007.0,033.9,141218,000.0,W*74
$GPGGA,110037.473,5703.142,N,00955.045,E,1,12,1.0,0.0,M,0.0,M,,*64
$GPGSA,A,3,01,02,03,04,05,06,07,08,09,10,11,12,1.0,1.0,1.0*30
$GPRMC,110037.473,A,5703.142,N,00955.045,E,007.0,033.9,141218,000.0,W*71
$GPGGA,110041.076,5703.149,N,00955.049,E,1,12,1.0,0.0,M,0.0,M,,*63
$GPGSA,A,3,01,02,03,04,05,06,07,08,09,10,11,12,1.0,1.0,1.0*30
$GPRMC,110041.076,A,5703.149,N,00955.049,E,011.9,041.1,141218,000.0,W*75
$GPGGA,110044.680,5703.160,N,00955.058,E,1,12,1.0,0.0,M,0.0,M,,*62
$GPGSA,A,3,01,02,03,04,05,06,07,08,09,10,11,12,1.0,1.0,1.0*30
$GPRMC,110044.680,A,5703.160,N,00955.058,E,011.9,041.1,141218,000.0,W*74
$GPGGA,110048.283,5703.170,N,00955.068,E,1,12,1.0,0.0,M,0.0,M,,*6B
$GPGSA,A,3,01,02,03,04,05,06,07,08,09,10,11,12,1.0,1.0,1.0*30
$GPRMC,110048.283,A,5703.170,N,00955.068,E,015.1,042.2,141218,000.0,W*71
$GPGGA,110051.887,5703.184,N,00955.080,E,1,12,1.0,0.0,M,0.0,M,,*60
$GPGSA,A,3,01,02,03,04,05,06,07,08,09,10,11,12,1.0,1.0,1.0*30
$GPRMC,110051.887,A,5703.184,N,00955.080,E,018.9,048.6,141218,000.0,W*71
$GPGGA,110055.491,5703.200,N,00955.098,E,1,12,1.0,0.0,M,0.0,M,,*69
$GPGSA,A,3,01,02,03,04,05,06,07,08,09,10,11,12,1.0,1.0,1.0*30
$GPRMC,110055.491,A,5703.200,N,00955.098,E,022.7,045.7,141218,000.0,W*73
$GPGGA,110059.094,5703.220,N,00955.119,E,1,12,1.0,0.0,M,0.0,M,,*6E
$GPGSA,A,3,01,02,03,04,05,06,07,08,09,10,11,12,1.0,1.0,1.0*30
$GPRMC,110059.094,A,5703.220,N,00955.119,E,027.0,044.4,141218,000.0,W*74
$GPGGA,110102.698,5703.244,N,00955.142,E,1,12,1.0,0.0,M,0.0,M,,*67
$GPGSA,A,3,01,02,03,04,05,06,07,08,09,10,11,12,1.0,1.0,1.0*30
$GPRMC,110102.698,A,5703.244,N,00955.142,E,026.4,051.8,141218,000.0,W*70
$GPGGA,110106.301,5703.265,N,00955.170,E,1,12,1.0,0.0,M,0.0,M,,*64
$GPGSA,A,3,01,02,03,04,05,06,07,08,09,10,11,12,1.0,1.0,1.0*30
$GPRMC,110106.301,A,5703.265,N,00955.170,E,026.4,045.3,141218,000.0,W*7D
$GPGGA,110109.905,5703.288,N,00955.193,E,1,12,1.0,0.0,M,0.0,M,,*6B
$GPGSA,A,3,01,02,03,04,05,06,07,08,09,10,11,12,1.0,1.0,1.0*30
$GPRMC,110109.905,A,5703.288,N,00955.193,E,028.0,048.3,141218,000.0,W*75
$GPGGA,110113.509,5703.312,N,00955.220,E,1,12,1.0,0.0,M,0.0,M,,*69
$GPGSA,A,3,01,02,03,04,05,06,07,08,09,10,11,12,1.0,1.0,1.0*30
$GPRMC,110113.509,A,5703.312,N,00955.220,E,027.5,046.9,141218,000.0,W*79
$GPGGA,110117.112,5703.336,N,00955.246,E,1,12,1.0,0.0,M,0.0,M,,*65
$GPGSA,A,3,01,02,03,04,05,06,07,08,09,10,11,12,1.0,1.0,1.0*30
$GPRMC,110117.112,A,5703.336,N,00955.246,E,025.4,050.1,141218,000.0,W*79
$GPGGA,110120.716,5703.357,N,00955.271,E,1,12,1.0,0.0,M,0.0,M,,*60
$GPGSA,A,3,01,02,03,04,05,06,07,08,09,10,11,12,1.0,1.0,1.0*30
$GPRMC,110120.716,A,5703.357,N,00955.271,E,025.9,044.1,141218,000.0,W*74
$GPGGA,110124.319,5703.380,N,00955.294,E,1,12,1.0,0.0,M,0.0,M,,*6E
$GPGSA,A,3,01,02,03,04,05,06,07,08,09,10,11,12,1.0,1.0,1.0*30
$GPRMC,110124.319,A,5703.380,N,00955.294,E,022.1,050.4,141218,000.0,W*75
$GPGGA,110127.923,5703.399,N,00955.316,E,1,12,1.0,0.0,M,0.0,M,,*6D
$GPGSA,A,3,01,02,03,04,05,06,07,08,09,10,11,12,1.0,1.0,1.0*30
$GPRMC,110127.923,A,5703.399,N,00955.316,E,020.0,044.4,141218,000.0,W*70
$GPGGA,110131.527,5703.416,N,00955.333,E,1,12,1.0,0.0,M,0.0,M,,*65
$GPGSA,A,3,01,02,03,04,05,06,07,08,09,10,11,12,1.0,1.0,1.0*30
$GPRMC,110131.527,A,5703.416,N,00955.333,E,016.7,041.8,141218,000.0,W*73
$GPGGA,110135.130,5703.431,N,00955.347,E,1,12,1.0,0.0,M,0.0,M,,*65
$GPGSA,A,3,01,02,03,04,05,06,07,08,09,10,11,12,1.0,1.0,1.0*30
$GPRMC,110135.130,A,5703.431,N,00955.347,E,014.6,359.5,141218,000.0,W*77
$GPGGA,110138.734,5703.446,N,00955.347,E,1,12,1.0,0.0,M,0.0,M,,*6A
$GPGSA,A,3,01,02,03,04,05,06,07,08,09,10,11,12,1.0,1.0,1.0*30
$GPRMC,110138.734,A,5703.446,N,00955.347,E,014.6,308.0,141218,000.0,W*79
$GPGGA,110142.337,5703.458,N,00955.331,E,1,12,1.0,0.0,M,0.0,M,,*6E
$GPGSA,A,3,01,02,03,04,05,06,07,08,09,10,11,12,1.0,1.0,1.0*30
$GPRMC,110142.337,A,5703.458,N,00955.331,E,014.0,295.1,141218,000.0,W*7F
$GPGGA,110145.941,5703.467,N,00955.312,E,1,12,1.0,0.0,M,0.0,M,,*6F
$GPGSA,A,3,01,02,03,04,05,06,07,08,09,10,11,12,1.0,1.0,1.0*30
$GPRMC,110145.941,A,5703.467,N,00955.312,E,019.4,284.1,141218,000.0,W*77
$GPGGA,110149.545,5703.475,N,00955.279,E,1,12,1.0,0.0,M,0.0,M,,*64
$GPGSA,A,3,01,02,03,04,05,06,07,08,09,10,11,12,1.0,1.0,1.0*30
$GPRMC,110149.545,A,5703.475,N,00955.279,E,024.3,287.3,141218,000.0,W*74
$GPGGA,110153.148,5703.487,N,00955.241,E,1,12,1.0,0.0,M,0.0,M,,*60
$GPGSA,A,3,01,02,03,04,05,06,07,08,09,10,11,12,1.0,1.0,1.0*30
$GPRMC,110153.148,A,5703.487,N,00955.241,E,029.7,288.5,141218,000.0,W*70
$GPGGA,110156.752,5703.503,N,00955.194,E,1,12,1.0,0.0,M,0.0,M,,*6E
$GPGSA,A,3,01,02,03,04,05,06,07,08,09,10,11,12,1.0,1.0,1.0*30
$GPRMC,110156.752,A,5703.503,N,00955.194,E,029.7,299.7,141218,000.0,W*7C
$GPGGA,110200.355,5703.524,N,00955.156,E,1,12,1.0,0.0,M,0.0,M,,*66
$GPGSA,A,3,01,02,03,04,05,06,07,08,09,10,11,12,1.0,1.0,1.0*30
$GPRMC,110200.355,A,5703.524,N,00955.156,E,031.3,319.5,141218,000.0,W*72
$GPGGA,110203.959,5703.552,N,00955.132,E,1,12,1.0,0.0,M,0.0,M,,*60
$GPGSA,A,3,01,02,03,04,05,06,07,08,09,10,11,12,1.0,1.0,1.0*30
$GPRMC,110203.959,A,5703.552,N,00955.132,E,027.5,332.9,141218,000.0,W*70
$GPGGA,110207.563,5703.579,N,00955.118,E,1,12,1.0,0.0,M,0.0,M,,*60
$GPGSA,A,3,01,02,03,04,05,06,07,08,09,10,11,12,1.0,1.0,1.0*30
$GPRMC,110207.563,A,5703.579,N,00955.118,E,027.0,322.9,141218,000.0,W*74
$GPGGA,110211.166,5703.604,N,00955.099,E,1,12,1.0,0.0,M,0.0,M,,*67
$GPGSA,A,3,01,02,03,04,05,06,07,08,09,10,11,12,1.0,1.0,1.0*30
$GPRMC,110211.166,A,5703.604,N,00955.099,E,027.0,301.0,141218,000.0,W*7B
$GPGGA,110214.770,5703.624,N,00955.066,E,1,12,1.0,0.0,M,0.0,M,,*61
$GPGSA,A,3,01,02,03,04,05,06,07,08,09,10,11,12,1.0,1.0,1.0*30
$GPRMC,110214.770,A,5703.624,N,00955.066,E,024.8,289.8,141218,000.0,W*7F
$GPGGA,110218.374,5703.637,N,00955.028,E,1,12,1.0,0.0,M,0.0,M,,*65
$GPGSA,A,3,01,02,03,04,05,06,07,08,09,10,11,12,1.0,1.0,1.0*30
$GPRMC,110218.374,A,5703.637,N,00955.028,E,024.8,289.8,141218,000.0,W*7B
$GPGGA,110221.977,5703.651,N,00954.990,E,1,12,1.0,0.0,M,0.0,M,,*6D
$GPGSA,A,3,01,02,03,04,05,06,07,08,09,10,11,12,1.0,1.0,1.0*30
$GPRMC,110221.977,A,5703.651,N,00954.990,E,025.4,287.7,141218,000.0,W*7F
$GPGGA,110225.581,5703.664,N,00954.949,E,1,12,1.0,0.0,M,0.0,M,,*6E
$GPGSA,A,3,01,02,03,04,05,06,07,08,09,10,11,12,1.0,1.0,1.0*30
$GPRMC,110225.581,A,5703.664,N,00954.949,E,026.4,291.5,141218,000.0,W*7A
$GPGGA,110229.184,5703.679,N,00954.910,E,1,12,1.0,0.0,M,0.0,M,,*63
$GPGSA,A,3,01,02,03,04,05,06,07,08,09,10,11,12,1.0,1.0,1.0*30
$GPRMC,110229.184,A,5703.679,N,00954.910,E,026.4,288.9,141218,000.0,W*73
$GPGGA,110232.788,5703.693,N,00954.869,E,1,12,1.0,0.0,M,0.0,M,,*68
$GPGSA,A,3,01,02,03,04,05,06,07,08,09,10,11,12,1.0,1.0,1.0*30
$GPRMC,110232.788,A,5703.693,N,00954.869,E,028.6,287.5,141218,000.0,W*77
$GPGGA,110236.392,5703.708,N,00954.823,E,1,12,1.0,0.0,M,0.0,M,,*6E
$GPGSA,A,3,01,02,03,04,05,06,07,08,09,10,11,12,1.0,1.0,1.0*30
$GPRMC,110236.392,A,5703.708,N,00954.823,E,022.7,290.8,141218,000.0,W*71
$GPGGA,110239.995,5703.721,N,00954.789,E,1,12,1.0,0.0,M,0.0,M,,*68
$GPGSA,A,3,01,02,03,04,05,06,07,08,09,10,11,12,1.0,1.0,1.0*30
$GPRMC,110239.995,A,5703.721,N,00954.789,E,018.3,289.9,141218,000.0,W*73
$GPGGA,110243.599,5703.731,N,00954.761,E,1,12,1.0,0.0,M,0.0,M,,*62
$GPGSA,A,3,01,02,03,04,05,06,07,08,09,10,11,12,1.0,1.0,1.0*30
$GPRMC,110243.599,A,5703.731,N,00954.761,E,012.4,290.8,141218,000.0,W*7D
$GPGGA,110247.202,5703.738,N,00954.742,E,1,12,1.0,0.0,M,0.0,M,,*6B
$GPGSA,A,3,01,02,03,04,05,06,07,08,09,10,11,12,1.0,1.0,1.0*30
$GPRMC,110247.202,A,5703.738,N,00954.742,E,007.0,294.2,141218,000.0,W*7A
$GPGGA,110250.806,5703.742,N,00954.732,E,1,12,1.0,0.0,M,0.0,M,,*69
$GPGSA,A,3,01,02,03,04,05,06,07,08,09,10,11,12,1.0,1.0,1.0*30
$GPRMC,110250.806,A,5703.742,N,00954.732,E,007.0,294.2,141218,000.0,W*78
$GPGGA,110254.410,5703.747,N,00954.722,E,1,12,1.0,0.0,M,0.0,M,,*62
$GPGSA,A,3,01,02,03,04,05,06,07,08,09,10,11,12,1.0,1.0,1.0*30
$GPRMC,110254.410,A,5703.747,N,00954.722,E,007.0,357.7,141218,000.0,W*78
$GPGGA,110258.013,5703.754,N,00954.722,E,1,12,1.0,0.0,M,0.0,M,,*6B
$GPGSA,A,3,01,02,03,04,05,06,07,08,09,10,11,12,1.0,1.0,1.0*30
$GPRMC,110258.013,A,5703.754,N,00954.722,E,008.6,019.6,141218,000.0,W*70
$GPGGA,110301.617,5703.762,N,00954.725,E,1,12,1.0,0.0,M,0.0,M,,*66
$GPGSA,A,3,01,02,03,04,05,06,07,08,09,10,11,12,1.0,1.0,1.0*30
$GPRMC,110301.617,A,5703.762,N,00954.725,E,008.1,344.6,141218,000.0,W*71
$GPGGA,110305.220,5703.770,N,00954.723,E,1,12,1.0,0.0,M,0.0,M,,*67
$GPGSA,A,3,01,02,03,04,05,06,07,08,09,10,11,12,1.0,1.0,1.0*30
$GPRMC,110305.220,A,5703.770,N,00954.723,E,008.1,344.6,141218,000.0,W*70
$GPGGA,110308.824,5703.778,N,00954.721,E,1,12,1.0,0.0,M,0.0,M,,*6E
$GPGSA,A,3,01,02,03,04,05,06,07,08,09,10,11,12,1.0,1.0,1.0*30
$GPRMC,110308.824,A,5703.778,N,00954.721,E,014.0,299.0,141218,000.0,W*72
$GPGGA,110312.428,5703.788,N,00954.702,E,1,12,1.0,0.0,M,0.0,M,,*6B
$GPGSA,A,3,01,02,03,04,05,06,07,08,09,10,11,12,1.0,1.0,1.0*30
$GPRMC,110312.428,A,5703.788,N,00954.702,E,018.9,297.8,141218,000.0,W*74
$GPGGA,110316.031,5703.801,N,00954.677,E,1,12,1.0,0.0,M,0.0,M,,*6E
$GPGSA,A,3,01,02,03,04,05,06,07,08,09,10,11,12,1.0,1.0,1.0*30
$GPRMC,110316.031,A,5703.801,N,00954.677,E,023.7,306.0,141218,000.0,W*76
$GPGGA,110319.635,5703.820,N,00954.651,E,1,12,1.0,0.0,M,0.0,M,,*64
$GPGSA,A,3,01,02,03,04,05,06,07,08,09,10,11,12,1.0,1.0,1.0*30
$GPRMC,110319.635,A,5703.820,N,00954.651,E,023.7,306.0,141218,000.0,W*7C
$GPGGA,110323.238,5703.839,N,00954.625,E,1,12,1.0,0.0,M,0.0,M,,*6F
$GPGSA,A,3,01,02,03,04,05,06,07,08,09,10,11,12,1.0,1.0,1.0*30
$GPRMC,110323.238,A,5703.839,N,00954.625,E,025.4,293.7,141218,000.0,W*78
$GPGGA,110326.842,5703.855,N,00954.589,E,1,12,1.0,0.0,M,0.0,M,,*62
$GPGSA,A,3,01,02,03,04,05,06,07,08,09,10,11,12,1.0,1.0,1.0*30
$GPRMC,110326.842,A,5703.855,N,00954.589,E,028.0,312.0,141218,000.0,W*73
$GPGGA,110330.446,5703.879,N,00954.562,E,1,12,1.0,0.0,M,0.0,M,,*66
$GPGSA,A,3,01,02,03,04,05,06,07,08,09,10,11,12,1.0,1.0,1.0*30
$GPRMC,110330.446,A,5703.879,N,00954.562,E,020.0,316.5,141218,000.0,W*7E
$GPGGA,110334.049,5703.897,N,00954.545,E,1,12,1.0,0.0,M,0.0,M,,*6C
$GPGSA,A,3,01,02,03,04,05,06,07,08,09,10,11,12,1.0,1.0,1.0*30
$GPRMC,110334.049,A,5703.897,N,00954.545,E,011.3,313.3,141218,000.0,W*76
$GPGGA,110337.653,5703.907,N,00954.534,E,1,12,1.0,0.0,M,0.0,M,,*6C
$GPGSA,A,3,01,02,03,04,05,06,07,08,09,10,11,12,1.0,1.0,1.0*30
$GPRMC,110337.653,A,5703.907,N,00954.534,E,007.6,312.2,141218,000.0,W*74
$GPGGA,110341.256,5703.913,N,00954.527,E,1,12,1.0,0.0,M,0.0,M,,*6B
$GPGSA,A,3,01,02,03,04,05,06,07,08,09,10,11,12,1.0,1.0,1.0*30
$GPRMC,110341.256,A,5703.913,N,00954.527,E,007.6,066.8,141218,000.0,W*79
$GPGGA,110344.860,5703.918,N,00954.538,E,1,12,1.0,0.0,M,0.0,M,,*64
$GPGSA,A,3,01,02,03,04,05,06,07,08,09,10,11,12,1.0,1.0,1.0*30
$GPRMC,110344.860,A,5703.918,N,00954.538,E,006.5,073.1,141218,000.0,W*79
$GPGGA,110348.464,5703.921,N,00954.549,E,1,12,1.0,0.0,M,0.0,M,,*6C
$GPGSA,A,3,01,02,03,04,05,06,07,08,09,10,11,12,1.0,1.0,1.0*30
$GPRMC,110348.464,A,5703.921,N,00954.549,E,003.8,337.1,141218,000.0,W*7A
$GPGGA,110352.067,5703.925,N,00954.547,E,1,12,1.0,0.0,M,0.0,M,,*6A
$GPGSA,A,3,01,02,03,04,05,06,07,08,09,10,11,12,1.0,1.0,1.0*30
$GPRMC,110352.067,A,5703.925,N,00954.547,E,003.8,337.1,141218,000.0,W*7C
$GPGGA,110355.671,5703.928,N,00954.545,E,1,12,1.0,0.0,M,0.0,M,,*63
$GPGSA,A,3,01,02,03,04,05,06,07,08,09,10,11,12,1.0,1.0,1.0*30
$GPRMC,110355.671,A,5703.928,N,00954.545,E,001.6,316.0,141218,000.0,W*7B
$GPGGA,110359.274,5703.930,N,00954.544,E,1,12,1.0,0.0,M,0.0,M,,*66
$GPGSA,A,3,01,02,03,04,05,06,07,08,09,10,11,12,1.0,1.0,1.0*30
$GPRMC,110359.274,A,5703.930,N,00954.544,E,001.6,316.0,141218,000.0,W*7E
$GPGGA,110402.878,5703.931,N,00954.543,E,1,12,1.0,0.0,M,0.0,M,,*6F
$GPGSA,A,3,01,02,03,04,05,06,07,08,09,10,11,12,1.0,1.0,1.0*30
$GPRMC,110402.878,A,5703.931,N,00954.543,E,000.5,308.3,141218,000.0,W*79
$GPGGA,110406.482,5703.932,N,00954.542,E,1,12,1.0,0.0,M,0.0,M,,*60
$GPGSA,A,3,01,02,03,04,05,06,07,08,09,10,11,12,1.0,1.0,1.0*30
$GPRMC,110406.482,A,5703.932,N,00954.542,E,000.5,308.3,141218,000.0,W*76
$GPGGA,110410.085,5703.932,N,00954.542,E,1,12,1.0,0.0,M,0.0,M,,*64
$GPGSA,A,3,01,02,03,04,05,06,07,08,09,10,11,12,1.0,1.0,1.0*30
$GPRMC,110410.085,A,5703.932,N,00954.542,E,000.5,308.3,141218,000.0,W*72
$GPGGA,110413.689,5703.932,N,00954.541,E,1,12,1.0,0.0,M,0.0,M,,*6E
$GPGSA,A,3,01,02,03,04,05,06,07,08,09,10,11,12,1.0,1.0,1.0*30
$GPRMC,110413.689,A,5703.932,N,00954.541,E,000.5,308.3,141218,000.0,W*78
$GPGGA,110417.292,5703.933,N,00954.540,E,1,12,1.0,0.0,M,0.0,M,,*64
$GPGSA,A,3,01,02,03,04,05,06,07,08,09,10,11,12,1.0,1.0,1.0*30
$GPRMC,110417.292,A,5703.933,N,00954.540,E,000.5,308.3,141218,000.0,W*72
