$GPGGA,083117.119,5702.548,N,00955.141,E,1,12,1.0,0.0,M,0.0,M,,*6F
$GPGSA,A,3,01,02,03,04,05,06,07,08,09,10,11,12,1.0,1.0,1.0*30
$GPRMC,083117.119,A,5702.548,N,00955.141,E,027.0,271.3,191218,000.0,W*7B
$GPGGA,083118.119,5702.548,N,00955.127,E,1,12,1.0,0.0,M,0.0,M,,*60
$GPGSA,A,3,01,02,03,04,05,06,07,08,09,10,11,12,1.0,1.0,1.0*30
$GPRMC,083118.119,A,5702.548,N,00955.127,E,027.0,271.3,191218,000.0,W*74
$GPGGA,083119.119,5702.549,N,00955.113,E,1,12,1.0,0.0,M,0.0,M,,*67
$GPGSA,A,3,01,02,03,04,05,06,07,08,09,10,11,12,1.0,1.0,1.0*30
$GPRMC,083119.119,A,5702.549,N,00955.113,E,027.0,271.3,191218,000.0,W*73
$GPGGA,083120.119,5702.549,N,00955.099,E,1,12,1.0,0.0,M,0.0,M,,*6E
$GPGSA,A,3,01,02,03,04,05,06,07,08,09,10,11,12,1.0,1.0,1.0*30
$GPRMC,083120.119,A,5702.549,N,00955.099,E,027.0,298.9,191218,000.0,W*77
$GPGGA,083121.119,5702.554,N,00955.090,E,1,12,1.0,0.0,M,0.0,M,,*6A
$GPGSA,A,3,01,02,03,04,05,06,07,08,09,10,11,12,1.0,1.0,1.0*30
$GPRMC,083121.119,A,5702.554,N,00955.090,E,027.0,298.9,191218,000.0,W*73
$GPGGA,083122.119,5702.560,N,00955.080,E,1,12,1.0,0.0,M,0.0,M,,*6F
$GPGSA,A,3,01,02,03,04,05,06,07,08,09,10,11,12,1.0,1.0,1.0*30
$GPRMC,083122.119,A,5702.560,N,00955.080,E,027.0,326.4,191218,000.0,W*7F
$GPGGA,083123.119,5702.567,N,00955.075,E,1,12,1.0,0.0,M,0.0,M,,*63
$GPGSA,A,3,01,02,03,04,05,06,07,08,09,10,11,12,1.0,1.0,1.0*30
$GPRMC,083123.119,A,5702.567,N,00955.075,E,027.0,326.4,191218,000.0,W*73
$GPGGA,083124.119,5702.574,N,00955.071,E,1,12,1.0,0.0,M,0.0,M,,*62
$GPGSA,A,3,01,02,03,04,05,06,07,08,09,10,11,12,1.0,1.0,1.0*30
$GPRMC,083124.119,A,5702.574,N,00955.071,E,027.0,326.4,191218,000.0,W*72
$GPGGA,083125.119,5702.581,N,00955.066,E,1,12,1.0,0.0,M,0.0,M,,*6F
$GPGSA,A,3,01,02,03,04,05,06,07,08,09,10,11,12,1.0,1.0,1.0*30
$GPRMC,083125.119,A,5702.581,N,00955.066,E,027.0,326.4,191218,000.0,W*7F
$GPGGA,083126.119,5702.588,N,00955.061,E,1,12,1.0,0.0,M,0.0,M,,*62
$GPGSA,A,3,01,02,03,04,05,06,07,08,09,10,11,12,1.0,1.0,1.0*30
$GPRMC,083126.119,A,5702.588,N,00955.061,E,027.0,326.4,191218,000.0,W*72
$GPGGA,083127.119,5702.595,N,00955.057,E,1,12,1.0,0.0,M,0.0,M,,*6A
$GPGSA,A,3,01,02,03,04,05,06,07,08,09,10,11,12,1.0,1.0,1.0*30
$GPRMC,083127.119,A,5702.595,N,00955.057,E,027.0,326.4,191218,000.0,W*7A
$GPGGA,083128.119,5702.602,N,00955.052,E,1,12,1.0,0.0,M,0.0,M,,*6D
$GPGSA,A,3,01,02,03,04,05,06,07,08,09,10,11,12,1.0,1.0,1.0*30
$GPRMC,083128.119,A,5702.602,N,00955.052,E,027.0,326.4,191218,000.0,W*7D
$GPGGA,083129.119,5702.609,N,00955.047,E,1,12,1.0,0.0,M,0.0,M,,*63
$GPGSA,A,3,01,02,03,04,05,06,07,08,09,10,11,12,1.0,1.0,1.0*30
$GPRMC,083129.119,A,5702.609,N,00955.047,E,027.0,315.0,191218,000.0,W*77
$GPGGA,083130.119,5702.616,N,00955.041,E,1,12,1.0,0.0,M,0.0,M,,*63
$GPGSA,A,3,01,02,03,04,05,06,07,08,09,10,11,12,1.0,1.0,1.0*30
$GPRMC,083130.119,A,5702.616,N,00955.041,E,027.0,315.0,191218,000.0,W*77
$GPGGA,083131.119,5702.622,N,00955.034,E,1,12,1.0,0.0,M,0.0,M,,*67
$GPGSA,A,3,01,02,03,04,05,06,07,08,09,10,11,12,1.0,1.0,1.0*30
$GPRMC,083131.119,A,5702.622,N,00955.034,E,027.0,315.0,191218,000.0,W*73
$GPGGA,083132.119,5702.629,N,00955.027,E,1,12,1.0,0.0,M,0.0,M,,*6D
$GPGSA,A,3,01,02,03,04,05,06,07,08,09,10,11,12,1.0,1.0,1.0*30
$GPRMC,083132.119,A,5702.629,N,00955.027,E,027.0,315.0,191218,000.0,W*79
$GPGGA,083133.119,5702.635,N,00955.021,E,1,12,1.0,0.0,M,0.0,M,,*67
$GPGSA,A,3,01,02,03,04,05,06,07,08,09,10,11,12,1.0,1.0,1.0*30
$GPRMC,083133.119,A,5702.635,N,00955.021,E,027.0,315.0,191218,000.0,W*73
$GPGGA,083134.119,5702.642,N,00955.014,E,1,12,1.0,0.0,M,0.0,M,,*66
$GPGSA,A,3,01,02,03,04,05,06,07,08,09,10,11,12,1.0,1.0,1.0*30
$GPRMC,083134.119,A,5702.642,N,00955.014,E,027.0,315.0,191218,000.0,W*72
$GPGGA,083135.119,5702.649,N,00955.008,E,1,12,1.0,0.0,M,0.0,M,,*61
$GPGSA,A,3,01,02,03,04,05,06,07,08,09,10,11,12,1.0,1.0,1.0*30
$GPRMC,083135.119,A,5702.649,N,00955.008,E,027.0,315.0,191218,000.0,W*75
$GPGGA,083136.119,5702.655,N,00955.001,E,1,12,1.0,0.0,M,0.0,M,,*66
$GPGSA,A,3,01,02,03,04,05,06,07,08,09,10,11,12,1.0,1.0,1.0*30
$GPRMC,083136.119,A,5702.655,N,00955.001,E,027.0,315.0,191218,000.0,W*72
$GPGGA,083137.119,5702.662,N,00954.994,E,1,12,1.0,0.0,M,0.0,M,,*67
$GPGSA,A,3,01,02,03,04,05,06,07,08,09,10,11,12,1.0,1.0,1.0*30
$GPRMC,083137.119,A,5702.662,N,00954.994,E,027.0,315.0,191218,000.0,W*73
$GPGGA,083138.119,5702.668,N,00954.988,E,1,12,1.0,0.0,M,0.0,M,,*6F
$GPGSA,A,3,01,02,03,04,05,06,07,08,09,10,11,12,1.0,1.0,1.0*30
$GPRMC,083138.119,A,5702.668,N,00954.988,E,027.0,315.0,191218,000.0,W*7B
$GPGGA,083139.119,5702.675,N,00954.981,E,1,12,1.0,0.0,M,0.0,M,,*6B
$GPGSA,A,3,01,02,03,04,05,06,07,08,09,10,11,12,1.0,1.0,1.0*30
$GPRMC,083139.119,A,5702.675,N,00954.981,E,027.0,315.0,191218,000.0,W*7F
$GPGGA,083140.119,5702.681,N,00954.974,E,1,12,1.0,0.0,M,0.0,M,,*64
$GPGSA,A,3,01,02,03,04,05,06,07,08,09,10,11,12,1.0,1.0,1.0*30
$GPRMC,083140.119,A,5702.681,N,00954.974,E,027.0,315.0,191218,000.0,W*70
$GPGGA,083141.119,5702.688,N,00954.968,E,1,12,1.0,0.0,M,0.0,M,,*61
$GPGSA,A,3,01,02,03,04,05,06,07,08,09,10,11,12,1.0,1.0,1.0*30
$GPRMC,083141.119,A,5702.688,N,00954.968,E,027.0,315.0,191218,000.0,W*75
$GPGGA,083142.119,5702.695,N,00954.961,E,1,12,1.0,0.0,M,0.0,M,,*67
$GPGSA,A,3,01,02,03,04,05,06,07,08,09,10,11,12,1.0,1.0,1.0*30
$GPRMC,083142.119,A,5702.695,N,00954.961,E,027.0,315.0,191218,000.0,W*73
$GPGGA,083143.119,5702.701,N,00954.955,E,1,12,1.0,0.0,M,0.0,M,,*6D
$GPGSA,A,3,01,02,03,04,05,06,07,08,09,10,11,12,1.0,1.0,1.0*30
$GPRMC,083143.119,A,5702.701,N,00954.955,E,027.0,315.0,191218,000.0,W*79
$GPGGA,083144.119,5702.708,N,00954.948,E,1,12,1.0,0.0,M,0.0,M,,*6F
$GPGSA,A,3,01,02,03,04,05,06,07,08,09,10,11,12,1.0,1.0,1.0*30
$GPRMC,083144.119,A,5702.708,N,00954.948,E,027.0,315.0,191218,000.0,W*7B
$GPGGA,083145.119,5702.714,N,00954.941,E,1,12,1.0,0.0,M,0.0,M,,*6A
$GPGSA,A,3,01,02,03,04,05,06,07,08,09,10,11,12,1.0,1.0,1.0*30
$GPRMC,083145.119,A,5702.714,N,00954.941,E,027.0,315.0,191218,000.0,W*7E
$GPGGA,083146.119,5702.721,N,00954.935,E,1,12,1.0,0.0,M,0.0,M,,*6C
$GPGSA,A,3,01,02,03,04,05,06,07,08,09,10,11,12,1.0,1.0,1.0*30
$GPRMC,083146.119,A,5702.721,N,00954.935,E,027.0,315.0,191218,000.0,W*78
$GPGGA,083147.119,5702.727,N,00954.928,E,1,12,1.0,0.0,M,0.0,M,,*67
$GPGSA,A,3,01,02,03,04,05,06,07,08,09,10,11,12,1.0,1.0,1.0*30
$GPRMC,083147.119,A,5702.727,N,00954.928,E,027.0,315.0,191218,000.0,W*73
$GPGGA,083148.119,5702.734,N,00954.922,E,1,12,1.0,0.0,M,0.0,M,,*60
$GPGSA,A,3,01,02,03,04,05,06,07,08,09,10,11,12,1.0,1.0,1.0*30
$GPRMC,083148.119,A,5702.734,N,00954.922,E,027.0,315.0,191218,000.0,W*74
$GPGGA,083149.119,5702.741,N,00954.915,E,1,12,1.0,0.0,M,0.0,M,,*67
$GPGSA,A,3,01,02,03,04,05,06,07,08,09,10,11,12,1.0,1.0,1.0*30
$GPRMC,083149.119,A,5702.741,N,00954.915,E,027.0,315.0,191218,000.0,W*73
$GPGGA,083150.119,5702.747,N,00954.908,E,1,12,1.0,0.0,M,0.0,M,,*65
$GPGSA,A,3,01,02,03,04,05,06,07,08,09,10,11,12,1.0,1.0,1.0*30
$GPRMC,083150.119,A,5702.747,N,00954.908,E,027.0,315.0,191218,000.0,W*71
$GPGGA,083151.119,5702.754,N,00954.902,E,1,12,1.0,0.0,M,0.0,M,,*6C
$GPGSA,A,3,01,02,03,04,05,06,07,08,09,10,11,12,1.0,1.0,1.0*30
$GPRMC,083151.119,A,5702.754,N,00954.902,E,027.0,315.0,191218,000.0,W*78
$GPGGA,083152.119,5702.760,N,00954.895,E,1,12,1.0,0.0,M,0.0,M,,*67
$GPGSA,A,3,01,02,03,04,05,06,07,08,09,10,11,12,1.0,1.0,1.0*30
$GPRMC,083152.119,A,5702.760,N,00954.895,E,027.0,315.0,191218,000.0,W*73
$GPGGA,083153.119,5702.767,N,00954.889,E,1,12,1.0,0.0,M,0.0,M,,*6C
$GPGSA,A,3,01,02,03,04,05,06,07,08,09,10,11,12,1.0,1.0,1.0*30
$GPRMC,083153.119,A,5702.767,N,00954.889,E,027.0,315.0,191218,000.0,W*78
$GPGGA,083154.119,5702.773,N,00954.882,E,1,12,1.0,0.0,M,0.0,M,,*65
$GPGSA,A,3,01,02,03,04,05,06,07,08,09,10,11,12,1.0,1.0,1.0*30
$GPRMC,083154.119,A,5702.773,N,00954.882,E,027.0,315.0,191218,000.0,W*71
$GPGGA,083155.119,5702.780,N,00954.875,E,1,12,1.0,0.0,M,0.0,M,,*60
$GPGSA,A,3,01,02,03,04,05,06,07,08,09,10,11,12,1.0,1.0,1.0*30
$GPRMC,083155.119,A,5702.780,N,00954.875,E,027.0,315.0,191218,000.0,W*74
$GPGGA,083156.119,5702.787,N,00954.869,E,1,12,1.0,0.0,M,0.0,M,,*69
$GPGSA,A,3,01,02,03,04,05,06,07,08,09,10,11,12,1.0,1.0,1.0*30
$GPRMC,083156.119,A,5702.787,N,00954.869,E,027.0,315.0,191218,000.0,W*7D
$GPGGA,083157.119,5702.793,N,00954.862,E,1,12,1.0,0.0,M,0.0,M,,*66
$GPGSA,A,3,01,02,03,04,05,06,07,08,09,10,11,12,1.0,1.0,1.0*30
$GPRMC,083157.119,A,5702.793,N,00954.862,E,048.6,300.3,191218,000.0,W*7A
$GPGGA,083158.119,5702.803,N,00954.845,E,1,12,1.0,0.0,M,0.0,M,,*6A
$GPGSA,A,3,01,02,03,04,05,06,07,08,09,10,11,12,1.0,1.0,1.0*30
$GPRMC,083158.119,A,5702.803,N,00954.845,E,048.6,046.8,191218,000.0,W*7C
$GPGGA,083159.119,5702.815,N,00954.858,E,1,12,1.0,0.0,M,0.0,M,,*60
$GPGSA,A,3,01,02,03,04,05,06,07,08,09,10,11,12,1.0,1.0,1.0*30
$GPRMC,083159.119,A,5702.815,N,00954.858,E,048.6,058.8,191218,000.0,W*79
$GPGGA,083200.119,5702.825,N,00954.874,E,1,12,1.0,0.0,M,0.0,M,,*62
$GPGSA,A,3,01,02,03,04,05,06,07,08,09,10,11,12,1.0,1.0,1.0*30
$GPRMC,083200.119,A,5702.825,N,00954.874,E,021.4,049.0,191218,000.0,W*7E
$GPGGA,083201.119,5702.830,N,00954.880,E,1,12,1.0,0.0,M,0.0,M,,*6C
$GPGSA,A,3,01,02,03,04,05,06,07,08,09,10,11,12,1.0,1.0,1.0*30
$GPRMC,083201.119,A,5702.830,N,00954.880,E,021.4,049.0,191218,000.0,W*70
$GPGGA,083202.119,5702.835,N,00954.886,E,1,12,1.0,0.0,M,0.0,M,,*6C
$GPGSA,A,3,01,02,03,04,05,06,07,08,09,10,11,12,1.0,1.0,1.0*30
$GPRMC,083202.119,A,5702.835,N,00954.886,E,021.4,049.0,191218,000.0,W*70
$GPGGA,083203.119,5702.840,N,00954.892,E,1,12,1.0,0.0,M,0.0,M,,*6A
$GPGSA,A,3,01,02,03,04,05,06,07,08,09,10,11,12,1.0,1.0,1.0*30
$GPRMC,083203.119,A,5702.840,N,00954.892,E,021.4,049.0,191218,000.0,W*76
$GPGGA,083204.119,5702.845,N,00954.897,E,1,12,1.0,0.0,M,0.0,M,,*6D
$GPGSA,A,3,01,02,03,04,05,06,07,08,09,10,11,12,1.0,1.0,1.0*30
$GPRMC,083204.119,A,5702.845,N,00954.897,E,021.4,049.0,191218,000.0,W*71
$GPGGA,083205.119,5702.850,N,00954.903,E,1,12,1.0,0.0,M,0.0,M,,*64
$GPGSA,A,3,01,02,03,04,05,06,07,08,09,10,11,12,1.0,1.0,1.0*30
$GPRMC,083205.119,A,5702.850,N,00954.903,E,021.4,049.0,191218,000.0,W*78
$GPGGA,083206.119,5702.855,N,00954.909,E,1,12,1.0,0.0,M,0.0,M,,*68
$GPGSA,A,3,01,02,03,04,05,06,07,08,09,10,11,12,1.0,1.0,1.0*30
$GPRMC,083206.119,A,5702.855,N,00954.909,E,021.4,049.0,191218,000.0,W*74
$GPGGA,083207.119,5702.860,N,00954.915,E,1,12,1.0,0.0,M,0.0,M,,*62
$GPGSA,A,3,01,02,03,04,05,06,07,08,09,10,11,12,1.0,1.0,1.0*30
$GPRMC,083207.119,A,5702.860,N,00954.915,E,021.4,049.0,191218,000.0,W*7E
$GPGGA,083208.119,5702.865,N,00954.921,E,1,12,1.0,0.0,M,0.0,M,,*6F
$GPGSA,A,3,01,02,03,04,05,06,07,08,09,10,11,12,1.0,1.0,1.0*30
$GPRMC,083208.119,A,5702.865,N,00954.921,E,021.4,049.0,191218,000.0,W*73
$GPGGA,083209.119,5702.870,N,00954.927,E,1,12,1.0,0.0,M,0.0,M,,*6C
$GPGSA,A,3,01,02,03,04,05,06,07,08,09,10,11,12,1.0,1.0,1.0*30
$GPRMC,083209.119,A,5702.870,N,00954.927,E,021.4,044.8,191218,000.0,W*75
$GPGGA,083210.119,5702.875,N,00954.932,E,1,12,1.0,0.0,M,0.0,M,,*65
$GPGSA,A,3,01,02,03,04,05,06,07,08,09,10,11,12,1.0,1.0,1.0*30
$GPRMC,083210.119,A,5702.875,N,00954.932,E,021.4,044.8,191218,000.0,W*7C
$GPGGA,083211.119,5702.880,N,00954.937,E,1,12,1.0,0.0,M,0.0,M,,*6B
$GPGSA,A,3,01,02,03,04,05,06,07,08,09,10,11,12,1.0,1.0,1.0*30
$GPRMC,083211.119,A,5702.880,N,00954.937,E,021.4,027.3,191218,000.0,W*7C
$GPGGA,083212.119,5702.886,N,00954.940,E,1,12,1.0,0.0,M,0.0,M,,*6E
$GPGSA,A,3,01,02,03,04,05,06,07,08,09,10,11,12,1.0,1.0,1.0*30
$GPRMC,083212.119,A,5702.886,N,00954.940,E,021.4,027.3,191218,000.0,W*79
$GPGGA,083213.119,5702.892,N,00954.943,E,1,12,1.0,0.0,M,0.0,M,,*69
$GPGSA,A,3,01,02,03,04,05,06,07,08,09,10,11,12,1.0,1.0,1.0*30
$GPRMC,083213.119,A,5702.892,N,00954.943,E,021.4,027.3,191218,000.0,W*7E
$GPGGA,083214.119,5702.898,N,00954.946,E,1,12,1.0,0.0,M,0.0,M,,*61
$GPGSA,A,3,01,02,03,04,05,06,07,08,09,10,11,12,1.0,1.0,1.0*30
$GPRMC,083214.119,A,5702.898,N,00954.946,E,021.4,027.3,191218,000.0,W*76
$GPGGA,083215.119,5702.903,N,00954.949,E,1,12,1.0,0.0,M,0.0,M,,*6C
$GPGSA,A,3,01,02,03,04,05,06,07,08,09,10,11,12,1.0,1.0,1.0*30
$GPRMC,083215.119,A,5702.903,N,00954.949,E,021.4,027.3,191218,000.0,W*7B
$GPGGA,083216.119,5702.909,N,00954.952,E,1,12,1.0,0.0,M,0.0,M,,*6F
$GPGSA,A,3,01,02,03,04,05,06,07,08,09,10,11,12,1.0,1.0,1.0*30
$GPRMC,083216.119,A,5702.909,N,00954.952,E,021.4,027.3,191218,000.0,W*78
$GPGGA,083217.119,5702.915,N,00954.955,E,1,12,1.0,0.0,M,0.0,M,,*64
$GPGSA,A,3,01,02,03,04,05,06,07,08,09,10,11,12,1.0,1.0,1.0*30
$GPRMC,083217.119,A,5702.915,N,00954.955,E,021.4,027.3,191218,000.0,W*73
$GPGGA,083218.119,5702.920,N,00954.958,E,1,12,1.0,0.0,M,0.0,M,,*60
$GPGSA,A,3,01,02,03,04,05,06,07,08,09,10,11,12,1.0,1.0,1.0*30
$GPRMC,083218.119,A,5702.920,N,00954.958,E,021.4,027.3,191218,000.0,W*77
$GPGGA,083219.119,5702.926,N,00954.961,E,1,12,1.0,0.0,M,0.0,M,,*6D
$GPGSA,A,3,01,02,03,04,05,06,07,08,09,10,11,12,1.0,1.0,1.0*30
$GPRMC,083219.119,A,5702.926,N,00954.961,E,021.4,027.3,191218,000.0,W*7A
$GPGGA,083220.119,5702.932,N,00954.964,E,1,12,1.0,0.0,M,0.0,M,,*67
$GPGSA,A,3,01,02,03,04,05,06,07,08,09,10,11,12,1.0,1.0,1.0*30
$GPRMC,083220.119,A,5702.932,N,00954.964,E,021.4,027.3,191218,000.0,W*70
$GPGGA,083221.119,5702.938,N,00954.967,E,1,12,1.0,0.0,M,0.0,M,,*6F
$GPGSA,A,3,01,02,03,04,05,06,07,08,09,10,11,12,1.0,1.0,1.0*30
$GPRMC,083221.119,A,5702.938,N,00954.967,E,021.4,027.3,191218,000.0,W*78
$GPGGA,083222.119,5702.943,N,00954.970,E,1,12,1.0,0.0,M,0.0,M,,*66
$GPGSA,A,3,01,02,03,04,05,06,07,08,09,10,11,12,1.0,1.0,1.0*30
$GPRMC,083222.119,A,5702.943,N,00954.970,E,021.4,027.3,191218,000.0,W*71
$GPGGA,083223.119,5702.949,N,00954.973,E,1,12,1.0,0.0,M,0.0,M,,*6E
$GPGSA,A,3,01,02,03,04,05,06,07,08,09,10,11,12,1.0,1.0,1.0*30
$GPRMC,083223.119,A,5702.949,N,00954.973,E,021.4,012.4,191218,000.0,W*78
$GPGGA,083224.119,5702.955,N,00954.974,E,1,12,1.0,0.0,M,0.0,M,,*63
$GPGSA,A,3,01,02,03,04,05,06,07,08,09,10,11,12,1.0,1.0,1.0*30
$GPRMC,083224.119,A,5702.955,N,00954.974,E,021.4,012.4,191218,000.0,W*75
$GPGGA,083225.119,5702.961,N,00954.975,E,1,12,1.0,0.0,M,0.0,M,,*64
$GPGSA,A,3,01,02,03,04,05,06,07,08,09,10,11,12,1.0,1.0,1.0*30
$GPRMC,083225.119,A,5702.961,N,00954.975,E,021.4,012.4,191218,000.0,W*72
$GPGGA,083226.119,5702.967,N,00954.976,E,1,12,1.0,0.0,M,0.0,M,,*62
$GPGSA,A,3,01,02,03,04,05,06,07,08,09,10,11,12,1.0,1.0,1.0*30
$GPRMC,083226.119,A,5702.967,N,00954.976,E,021.4,012.4,191218,000.0,W*74
$GPGGA,083227.119,5702.973,N,00954.978,E,1,12,1.0,0.0,M,0.0,M,,*68
$GPGSA,A,3,01,02,03,04,05,06,07,08,09,10,11,12,1.0,1.0,1.0*30
$GPRMC,083227.119,A,5702.973,N,00954.978,E,021.4,012.4,191218,000.0,W*7E
$GPGGA,083228.119,5702.978,N,00954.979,E,1,12,1.0,0.0,M,0.0,M,,*6D
$GPGSA,A,3,01,02,03,04,05,06,07,08,09,10,11,12,1.0,1.0,1.0*30
$GPRMC,083228.119,A,5702.978,N,00954.979,E,021.4,012.4,191218,000.0,W*7B
$GPGGA,083229.119,5702.984,N,00954.980,E,1,12,1.0,0.0,M,0.0,M,,*69
$GPGSA,A,3,01,02,03,04,05,06,07,08,09,10,11,12,1.0,1.0,1.0*30
$GPRMC,083229.119,A,5702.984,N,00954.980,E,021.4,012.4,191218,000.0,W*7F
$GPGGA,083230.119,5702.990,N,00954.982,E,1,12,1.0,0.0,M,0.0,M,,*66
$GPGSA,A,3,01,02,03,04,05,06,07,08,09,10,11,12,1.0,1.0,1.0*30
$GPRMC,083230.119,A,5702.990,N,00954.982,E,021.4,012.4,191218,000.0,W*70
$GPGGA,083231.119,5702.996,N,00954.983,E,1,12,1.0,0.0,M,0.0,M,,*60
$GPGSA,A,3,01,02,03,04,05,06,07,08,09,10,11,12,1.0,1.0,1.0*30
$GPRMC,083231.119,A,5702.996,N,00954.983,E,021.4,012.4,191218,000.0,W*76
$GPGGA,083232.119,5703.002,N,00954.984,E,1,12,1.0,0.0,M,0.0,M,,*61
$GPGSA,A,3,01,02,03,04,05,06,07,08,09,10,11,12,1.0,1.0,1.0*30
$GPRMC,083232.119,A,5703.002,N,00954.984,E,021.4,012.4,191218,000.0,W*77
$GPGGA,083233.119,5703.008,N,00954.986,E,1,12,1.0,0.0,M,0.0,M,,*68
$GPGSA,A,3,01,02,03,04,05,06,07,08,09,10,11,12,1.0,1.0,1.0*30
$GPRMC,083233.119,A,5703.008,N,00954.986,E,021.4,012.4,191218,000.0,W*7E
$GPGGA,083234.119,5703.014,N,00954.987,E,1,12,1.0,0.0,M,0.0,M,,*63
$GPGSA,A,3,01,02,03,04,05,06,07,08,09,10,11,12,1.0,1.0,1.0*30
$GPRMC,083234.119,A,5703.014,N,00954.987,E,021.4,012.4,191218,000.0,W*75
$GPGGA,083235.119,5703.020,N,00954.988,E,1,12,1.0,0.0,M,0.0,M,,*6A
$GPGSA,A,3,01,02,03,04,05,06,07,08,09,10,11,12,1.0,1.0,1.0*30
$GPRMC,083235.119,A,5703.020,N,00954.988,E,021.4,012.4,191218,000.0,W*7C
$GPGGA,083236.119,5703.026,N,00954.990,E,1,12,1.0,0.0,M,0.0,M,,*66
$GPGSA,A,3,01,02,03,04,05,06,07,08,09,10,11,12,1.0,1.0,1.0*30
$GPRMC,083236.119,A,5703.026,N,00954.990,E,021.4,012.4,191218,000.0,W*70
$GPGGA,083237.119,5703.031,N,00954.991,E,1,12,1.0,0.0,M,0.0,M,,*60
$GPGSA,A,3,01,02,03,04,05,06,07,08,09,10,11,12,1.0,1.0,1.0*30
$GPRMC,083237.119,A,5703.031,N,00954.991,E,021.4,021.9,191218,000.0,W*7B
$GPGGA,083238.119,5703.037,N,00954.993,E,1,12,1.0,0.0,M,0.0,M,,*6B
$GPGSA,A,3,01,02,03,04,05,06,07,08,09,10,11,12,1.0,1.0,1.0*30
$GPRMC,083238.119,A,5703.037,N,00954.993,E,021.4,021.9,191218,000.0,W*70
$GPGGA,083239.119,5703.043,N,00954.995,E,1,12,1.0,0.0,M,0.0,M,,*6F
$GPGSA,A,3,01,02,03,04,05,06,07,08,09,10,11,12,1.0,1.0,1.0*30
$GPRMC,083239.119,A,5703.043,N,00954.995,E,021.4,021.9,191218,000.0,W*74
$GPGGA,083240.119,5703.049,N,00954.998,E,1,12,1.0,0.0,M,0.0,M,,*66
$GPGSA,A,3,01,02,03,04,05,06,07,08,09,10,11,12,1.0,1.0,1.0*30
$GPRMC,083240.119,A,5703.049,N,00954.998,E,021.4,021.9,191218,000.0,W*7D
$GPGGA,083241.119,5703.055,N,00955.000,E,1,12,1.0,0.0,M,0.0,M,,*63
$GPGSA,A,3,01,02,03,04,05,06,07,08,09,10,11,12,1.0,1.0,1.0*30
$GPRMC,083241.119,A,5703.055,N,00955.000,E,021.4,021.9,191218,000.0,W*78
$GPGGA,083242.119,5703.060,N,00955.003,E,1,12,1.0,0.0,M,0.0,M,,*65
$GPGSA,A,3,01,02,03,04,05,06,07,08,09,10,11,12,1.0,1.0,1.0*30
$GPRMC,083242.119,A,5703.060,N,00955.003,E,021.4,021.9,191218,000.0,W*7E
$GPGGA,083243.119,5703.066,N,00955.005,E,1,12,1.0,0.0,M,0.0,M,,*64
$GPGSA,A,3,01,02,03,04,05,06,07,08,09,10,11,12,1.0,1.0,1.0*30
$GPRMC,083243.119,A,5703.066,N,00955.005,E,021.4,021.9,191218,000.0,W*7F
$GPGGA,083244.119,5703.072,N,00955.007,E,1,12,1.0,0.0,M,0.0,M,,*64
$GPGSA,A,3,01,02,03,04,05,06,07,08,09,10,11,12,1.0,1.0,1.0*30
$GPRMC,083244.119,A,5703.072,N,00955.007,E,021.4,021.9,191218,000.0,W*7F
$GPGGA,083245.119,5703.078,N,00955.010,E,1,12,1.0,0.0,M,0.0,M,,*69
$GPGSA,A,3,01,02,03,04,05,06,07,08,09,10,11,12,1.0,1.0,1.0*30
$GPRMC,083245.119,A,5703.078,N,00955.010,E,021.4,021.9,191218,000.0,W*72
$GPGGA,083246.119,5703.084,N,00955.012,E,1,12,1.0,0.0,M,0.0,M,,*6B
$GPGSA,A,3,01,02,03,04,05,06,07,08,09,10,11,12,1.0,1.0,1.0*30
$GPRMC,083246.119,A,5703.084,N,00955.012,E,021.4,021.9,191218,000.0,W*70
$GPGGA,083247.119,5703.089,N,00955.014,E,1,12,1.0,0.0,M,0.0,M,,*61
$GPGSA,A,3,01,02,03,04,05,06,07,08,09,10,11,12,1.0,1.0,1.0*30
$GPRMC,083247.119,A,5703.089,N,00955.014,E,021.4,021.9,191218,000.0,W*7A
$GPGGA,083248.119,5703.095,N,00955.017,E,1,12,1.0,0.0,M,0.0,M,,*60
$GPGSA,A,3,01,02,03,04,05,06,07,08,09,10,11,12,1.0,1.0,1.0*30
$GPRMC,083248.119,A,5703.095,N,00955.017,E,021.4,021.9,191218,000.0,W*7B
$GPGGA,083249.119,5703.101,N,00955.019,E,1,12,1.0,0.0,M,0.0,M,,*63
$GPGSA,A,3,01,02,03,04,05,06,07,08,09,10,11,12,1.0,1.0,1.0*30
$GPRMC,083249.119,A,5703.101,N,00955.019,E,021.4,021.9,191218,000.0,W*78
$GPGGA,083250.119,5703.107,N,00955.021,E,1,12,1.0,0.0,M,0.0,M,,*66
$GPGSA,A,3,01,02,03,04,05,06,07,08,09,10,11,12,1.0,1.0,1.0*30
$GPRMC,083250.119,A,5703.107,N,00955.021,E,021.4,021.9,191218,000.0,W*7D
$GPGGA,083251.119,5703.113,N,00955.024,E,1,12,1.0,0.0,M,0.0,M,,*67
$GPGSA,A,3,01,02,03,04,05,06,07,08,09,10,11,12,1.0,1.0,1.0*30
$GPRMC,083251.119,A,5703.113,N,00955.024,E,021.4,034.7,191218,000.0,W*76
$GPGGA,083252.119,5703.118,N,00955.027,E,1,12,1.0,0.0,M,0.0,M,,*6C
$GPGSA,A,3,01,02,03,04,05,06,07,08,09,10,11,12,1.0,1.0,1.0*30
$GPRMC,083252.119,A,5703.118,N,00955.027,E,021.4,034.7,191218,000.0,W*7D
$GPGGA,083253.119,5703.124,N,00955.031,E,1,12,1.0,0.0,M,0.0,M,,*65
$GPGSA,A,3,01,02,03,04,05,06,07,08,09,10,11,12,1.0,1.0,1.0*30
$GPRMC,083253.119,A,5703.124,N,00955.031,E,021.4,034.7,191218,000.0,W*74
$GPGGA,083254.119,5703.129,N,00955.035,E,1,12,1.0,0.0,M,0.0,M,,*6B
$GPGSA,A,3,01,02,03,04,05,06,07,08,09,10,11,12,1.0,1.0,1.0*30
$GPRMC,083254.119,A,5703.129,N,00955.035,E,021.4,034.7,191218,000.0,W*7A
$GPGGA,083255.119,5703.135,N,00955.039,E,1,12,1.0,0.0,M,0.0,M,,*6B
$GPGSA,A,3,01,02,03,04,05,06,07,08,09,10,11,12,1.0,1.0,1.0*30
$GPRMC,083255.119,A,5703.135,N,00955.039,E,021.4,034.7,191218,000.0,W*7A
$GPGGA,083256.119,5703.140,N,00955.043,E,1,12,1.0,0.0,M,0.0,M,,*67
$GPGSA,A,3,01,02,03,04,05,06,07,08,09,10,11,12,1.0,1.0,1.0*30
$GPRMC,083256.119,A,5703.140,N,00955.043,E,021.4,034.7,191218,000.0,W*76
$GPGGA,083257.119,5703.146,N,00955.047,E,1,12,1.0,0.0,M,0.0,M,,*64
$GPGSA,A,3,01,02,03,04,05,06,07,08,09,10,11,12,1.0,1.0,1.0*30
$GPRMC,083257.119,A,5703.146,N,00955.047,E,021.4,034.7,191218,000.0,W*75
$GPGGA,083258.119,5703.151,N,00955.051,E,1,12,1.0,0.0,M,0.0,M,,*6A
$GPGSA,A,3,01,02,03,04,05,06,07,08,09,10,11,12,1.0,1.0,1.0*30
$GPRMC,083258.119,A,5703.151,N,00955.051,E,021.4,034.7,191218,000.0,W*7B
$GPGGA,083259.119,5703.157,N,00955.055,E,1,12,1.0,0.0,M,0.0,M,,*69
$GPGSA,A,3,01,02,03,04,05,06,07,08,09,10,11,12,1.0,1.0,1.0*30
$GPRMC,083259.119,A,5703.157,N,00955.055,E,016.1,046.7,191218,000.0,W*7C
$GPGGA,083300.119,5703.161,N,00955.059,E,1,12,1.0,0.0,M,0.0,M,,*6D
$GPGSA,A,3,01,02,03,04,05,06,07,08,09,10,11,12,1.0,1.0,1.0*30
$GPRMC,083300.119,A,5703.161,N,00955.059,E,016.1,046.7,191218,000.0,W*78
$GPGGA,083301.119,5703.165,N,00955.063,E,1,12,1.0,0.0,M,0.0,M,,*61
$GPGSA,A,3,01,02,03,04,05,06,07,08,09,10,11,12,1.0,1.0,1.0*30
$GPRMC,083301.119,A,5703.165,N,00955.063,E,016.1,046.7,191218,000.0,W*74
$GPGGA,083302.119,5703.169,N,00955.067,E,1,12,1.0,0.0,M,0.0,M,,*6A
$GPGSA,A,3,01,02,03,04,05,06,07,08,09,10,11,12,1.0,1.0,1.0*30
$GPRMC,083302.119,A,5703.169,N,00955.067,E,016.1,046.7,191218,000.0,W*7F
$GPGGA,083303.119,5703.172,N,00955.071,E,1,12,1.0,0.0,M,0.0,M,,*66
$GPGSA,A,3,01,02,03,04,05,06,07,08,09,10,11,12,1.0,1.0,1.0*30
$GPRMC,083303.119,A,5703.172,N,00955.071,E,016.1,046.7,191218,000.0,W*73
$GPGGA,083304.119,5703.176,N,00955.075,E,1,12,1.0,0.0,M,0.0,M,,*61
$GPGSA,A,3,01,02,03,04,05,06,07,08,09,10,11,12,1.0,1.0,1.0*30
$GPRMC,083304.119,A,5703.176,N,00955.075,E,016.1,046.7,191218,000.0,W*74
$GPGGA,083305.119,5703.180,N,00955.079,E,1,12,1.0,0.0,M,0.0,M,,*65
$GPGSA,A,3,01,02,03,04,05,06,07,08,09,10,11,12,1.0,1.0,1.0*30
$GPRMC,083305.119,A,5703.180,N,00955.079,E,016.1,046.7,191218,000.0,W*70
$GPGGA,083306.119,5703.184,N,00955.083,E,1,12,1.0,0.0,M,0.0,M,,*67
$GPGSA,A,3,01,02,03,04,05,06,07,08,09,10,11,12,1.0,1.0,1.0*30
$GPRMC,083306.119,A,5703.184,N,00955.083,E,016.1,046.7,191218,000.0,W*72
$GPGGA,083307.119,5703.188,N,00955.088,E,1,12,1.0,0.0,M,0.0,M,,*61
$GPGSA,A,3,01,02,03,04,05,06,07,08,09,10,11,12,1.0,1.0,1.0*30
$GPRMC,083307.119,A,5703.188,N,00955.088,E,016.1,046.7,191218,000.0,W*74
$GPGGA,083308.119,5703.192,N,00955.092,E,1,12,1.0,0.0,M,0.0,M,,*6E
$GPGSA,A,3,01,02,03,04,05,06,07,08,09,10,11,12,1.0,1.0,1.0*30
$GPRMC,083308.119,A,5703.192,N,00955.092,E,016.1,046.7,191218,000.0,W*7B
$GPGGA,083309.119,5703.196,N,00955.096,E,1,12,1.0,0.0,M,0.0,M,,*6F
$GPGSA,A,3,01,02,03,04,05,06,07,08,09,10,11,12,1.0,1.0,1.0*30
$GPRMC,083309.119,A,5703.196,N,00955.096,E,016.1,046.7,191218,000.0,W*7A
$GPGGA,083310.119,5703.200,N,00955.100,E,1,12,1.0,0.0,M,0.0,M,,*65
$GPGSA,A,3,01,02,03,04,05,06,07,08,09,10,11,12,1.0,1.0,1.0*30
$GPRMC,083310.119,A,5703.200,N,00955.100,E,016.1,046.7,191218,000.0,W*70
$GPGGA,083311.119,5703.203,N,00955.104,E,1,12,1.0,0.0,M,0.0,M,,*63
$GPGSA,A,3,01,02,03,04,05,06,07,08,09,10,11,12,1.0,1.0,1.0*30
$GPRMC,083311.119,A,5703.203,N,00955.104,E,016.1,046.7,191218,000.0,W*76
$GPGGA,083312.119,5703.207,N,00955.108,E,1,12,1.0,0.0,M,0.0,M,,*68
$GPGSA,A,3,01,02,03,04,05,06,07,08,09,10,11,12,1.0,1.0,1.0*30
$GPRMC,083312.119,A,5703.207,N,00955.108,E,016.1,046.7,191218,000.0,W*7D
$GPGGA,083313.119,5703.211,N,00955.112,E,1,12,1.0,0.0,M,0.0,M,,*65
$GPGSA,A,3,01,02,03,04,05,06,07,08,09,10,11,12,1.0,1.0,1.0*30
$GPRMC,083313.119,A,5703.211,N,00955.112,E,016.1,046.7,191218,000.0,W*70
$GPGGA,083314.119,5703.215,N,00955.117,E,1,12,1.0,0.0,M,0.0,M,,*63
$GPGSA,A,3,01,02,03,04,05,06,07,08,09,10,11,12,1.0,1.0,1.0*30
$GPRMC,083314.119,A,5703.215,N,00955.117,E,016.1,046.7,191218,000.0,W*76
$GPGGA,083315.119,5703.219,N,00955.121,E,1,12,1.0,0.0,M,0.0,M,,*6B
$GPGSA,A,3,01,02,03,04,05,06,07,08,09,10,11,12,1.0,1.0,1.0*30
$GPRMC,083315.119,A,5703.219,N,00955.121,E,016.1,046.7,191218,000.0,W*7E
$GPGGA,083316.119,5703.223,N,00955.125,E,1,12,1.0,0.0,M,0.0,M,,*65
$GPGSA,A,3,01,02,03,04,05,06,07,08,09,10,11,12,1.0,1.0,1.0*30
$GPRMC,083316.119,A,5703.223,N,00955.125,E,016.1,046.7,191218,000.0,W*70
$GPGGA,083317.119,5703.227,N,00955.129,E,1,12,1.0,0.0,M,0.0,M,,*6C
$GPGSA,A,3,01,02,03,04,05,06,07,08,09,10,11,12,1.0,1.0,1.0*30
$GPRMC,083317.119,A,5703.227,N,00955.129,E,016.1,046.7,191218,000.0,W*79
$GPGGA,083318.119,5703.231,N,00955.133,E,1,12,1.0,0.0,M,0.0,M,,*6F
$GPGSA,A,3,01,02,03,04,05,06,07,08,09,10,11,12,1.0,1.0,1.0*30
$GPRMC,083318.119,A,5703.231,N,00955.133,E,016.1,046.7,191218,000.0,W*7A
$GPGGA,083319.119,5703.234,N,00955.137,E,1,12,1.0,0.0,M,0.0,M,,*6F
$GPGSA,A,3,01,02,03,04,05,06,07,08,09,10,11,12,1.0,1.0,1.0*30
$GPRMC,083319.119,A,5703.234,N,00955.137,E,016.1,046.7,191218,000.0,W*7A
$GPGGA,083320.119,5703.238,N,00955.141,E,1,12,1.0,0.0,M,0.0,M,,*68
$GPGSA,A,3,01,02,03,04,05,06,07,08,09,10,11,12,1.0,1.0,1.0*30
$GPRMC,083320.119,A,5703.238,N,00955.141,E,016.1,046.7,191218,000.0,W*7D
$GPGGA,083321.119,5703.242,N,00955.145,E,1,12,1.0,0.0,M,0.0,M,,*60
$GPGSA,A,3,01,02,03,04,05,06,07,08,09,10,11,12,1.0,1.0,1.0*30
$GPRMC,083321.119,A,5703.242,N,00955.145,E,016.1,046.7,191218,000.0,W*75
$GPGGA,083322.119,5703.246,N,00955.150,E,1,12,1.0,0.0,M,0.0,M,,*63
$GPGSA,A,3,01,02,03,04,05,06,07,08,09,10,11,12,1.0,1.0,1.0*30
$GPRMC,083322.119,A,5703.246,N,00955.150,E,016.1,046.7,191218,000.0,W*76
$GPGGA,083323.119,5703.250,N,00955.154,E,1,12,1.0,0.0,M,0.0,M,,*61
$GPGSA,A,3,01,02,03,04,05,06,07,08,09,10,11,12,1.0,1.0,1.0*30
$GPRMC,083323.119,A,5703.250,N,00955.154,E,016.1,046.7,191218,000.0,W*74
$GPGGA,083324.119,5703.254,N,00955.158,E,1,12,1.0,0.0,M,0.0,M,,*6E
$GPGSA,A,3,01,02,03,04,05,06,07,08,09,10,11,12,1.0,1.0,1.0*30
$GPRMC,083324.119,A,5703.254,N,00955.158,E,016.1,046.7,191218,000.0,W*7B
$GPGGA,083325.119,5703.258,N,00955.162,E,1,12,1.0,0.0,M,0.0,M,,*6A
$GPGSA,A,3,01,02,03,04,05,06,07,08,09,10,11,12,1.0,1.0,1.0*30
$GPRMC,083325.119,A,5703.258,N,00955.162,E,016.1,046.7,191218,000.0,W*7F
$GPGGA,083326.119,5703.262,N,00955.166,E,1,12,1.0,0.0,M,0.0,M,,*64
$GPGSA,A,3,01,02,03,04,05,06,07,08,09,10,11,12,1.0,1.0,1.0*30
$GPRMC,083326.119,A,5703.262,N,00955.166,E,016.1,046.7,191218,000.0,W*71
$GPGGA,083327.119,5703.265,N,00955.170,E,1,12,1.0,0.0,M,0.0,M,,*65
$GPGSA,A,3,01,02,03,04,05,06,07,08,09,10,11,12,1.0,1.0,1.0*30
$GPRMC,083327.119,A,5703.265,N,00955.170,E,016.1,046.7,191218,000.0,W*70
$GPGGA,083328.119,5703.269,N,00955.174,E,1,12,1.0,0.0,M,0.0,M,,*62
$GPGSA,A,3,01,02,03,04,05,06,07,08,09,10,11,12,1.0,1.0,1.0*30
$GPRMC,083328.119,A,5703.269,N,00955.174,E,016.1,046.7,191218,000.0,W*77
$GPGGA,083329.119,5703.273,N,00955.179,E,1,12,1.0,0.0,M,0.0,M,,*65
$GPGSA,A,3,01,02,03,04,05,06,07,08,09,10,11,12,1.0,1.0,1.0*30
$GPRMC,083329.119,A,5703.273,N,00955.179,E,016.1,046.7,191218,000.0,W*70
$GPGGA,083330.119,5703.277,N,00955.183,E,1,12,1.0,0.0,M,0.0,M,,*6C
$GPGSA,A,3,01,02,03,04,05,06,07,08,09,10,11,12,1.0,1.0,1.0*30
$GPRMC,083330.119,A,5703.277,N,00955.183,E,016.1,046.7,191218,000.0,W*79
$GPGGA,083331.119,5703.281,N,00955.187,E,1,12,1.0,0.0,M,0.0,M,,*60
$GPGSA,A,3,01,02,03,04,05,06,07,08,09,10,11,12,1.0,1.0,1.0*30
$GPRMC,083331.119,A,5703.281,N,00955.187,E,016.1,046.7,191218,000.0,W*75
$GPGGA,083332.119,5703.285,N,00955.191,E,1,12,1.0,0.0,M,0.0,M,,*60
$GPGSA,A,3,01,02,03,04,05,06,07,08,09,10,11,12,1.0,1.0,1.0*30
$GPRMC,083332.119,A,5703.285,N,00955.191,E,016.1,046.7,191218,000.0,W*75
$GPGGA,083333.119,5703.289,N,00955.195,E,1,12,1.0,0.0,M,0.0,M,,*69
$GPGSA,A,3,01,02,03,04,05,06,07,08,09,10,11,12,1.0,1.0,1.0*30
$GPRMC,083333.119,A,5703.289,N,00955.195,E,016.1,046.7,191218,000.0,W*7C
$GPGGA,083334.119,5703.293,N,00955.199,E,1,12,1.0,0.0,M,0.0,M,,*69
$GPGSA,A,3,01,02,03,04,05,06,07,08,09,10,11,12,1.0,1.0,1.0*30
$GPRMC,083334.119,A,5703.293,N,00955.199,E,016.1,046.7,191218,000.0,W*7C
$GPGGA,083335.119,5703.296,N,00955.203,E,1,12,1.0,0.0,M,0.0,M,,*6D
$GPGSA,A,3,01,02,03,04,05,06,07,08,09,10,11,12,1.0,1.0,1.0*30
$GPRMC,083335.119,A,5703.296,N,00955.203,E,016.1,046.7,191218,000.0,W*78
$GPGGA,083336.119,5703.300,N,00955.208,E,1,12,1.0,0.0,M,0.0,M,,*6B
$GPGSA,A,3,01,02,03,04,05,06,07,08,09,10,11,12,1.0,1.0,1.0*30
$GPRMC,083336.119,A,5703.300,N,00955.208,E,016.1,046.7,191218,000.0,W*7E
$GPGGA,083337.119,5703.304,N,00955.212,E,1,12,1.0,0.0,M,0.0,M,,*65
$GPGSA,A,3,01,02,03,04,05,06,07,08,09,10,11,12,1.0,1.0,1.0*30
$GPRMC,083337.119,A,5703.304,N,00955.212,E,016.1,046.7,191218,000.0,W*70
$GPGGA,083338.119,5703.308,N,00955.216,E,1,12,1.0,0.0,M,0.0,M,,*62
$GPGSA,A,3,01,02,03,04,05,06,07,08,09,10,11,12,1.0,1.0,1.0*30
$GPRMC,083338.119,A,5703.308,N,00955.216,E,016.1,046.7,191218,000.0,W*77
$GPGGA,083339.119,5703.312,N,00955.220,E,1,12,1.0,0.0,M,0.0,M,,*6D
$GPGSA,A,3,01,02,03,04,05,06,07,08,09,10,11,12,1.0,1.0,1.0*30
$GPRMC,083339.119,A,5703.312,N,00955.220,E,016.1,046.7,191218,000.0,W*78
$GPGGA,083340.119,5703.316,N,00955.224,E,1,12,1.0,0.0,M,0.0,M,,*63
$GPGSA,A,3,01,02,03,04,05,06,07,08,09,10,11,12,1.0,1.0,1.0*30
$GPRMC,083340.119,A,5703.316,N,00955.224,E,016.1,046.7,191218,000.0,W*76
$GPGGA,083341.119,5703.320,N,00955.228,E,1,12,1.0,0.0,M,0.0,M,,*6B
$GPGSA,A,3,01,02,03,04,05,06,07,08,09,10,11,12,1.0,1.0,1.0*30
$GPRMC,083341.119,A,5703.320,N,00955.228,E,016.1,046.7,191218,000.0,W*7E
$GPGGA,083342.119,5703.324,N,00955.232,E,1,12,1.0,0.0,M,0.0,M,,*67
$GPGSA,A,3,01,02,03,04,05,06,07,08,09,10,11,12,1.0,1.0,1.0*30
$GPRMC,083342.119,A,5703.324,N,00955.232,E,016.1,046.7,191218,000.0,W*72
$GPGGA,083343.119,5703.327,N,00955.236,E,1,12,1.0,0.0,M,0.0,M,,*61
$GPGSA,A,3,01,02,03,04,05,06,07,08,09,10,11,12,1.0,1.0,1.0*30
$GPRMC,083343.119,A,5703.327,N,00955.236,E,016.1,046.7,191218,000.0,W*74
$GPGGA,083344.119,5703.331,N,00955.241,E,1,12,1.0,0.0,M,0.0,M,,*61
$GPGSA,A,3,01,02,03,04,05,06,07,08,09,10,11,12,1.0,1.0,1.0*30
$GPRMC,083344.119,A,5703.331,N,00955.241,E,016.1,046.7,191218,000.0,W*74
$GPGGA,083345.119,5703.335,N,00955.245,E,1,12,1.0,0.0,M,0.0,M,,*60
$GPGSA,A,3,01,02,03,04,05,06,07,08,09,10,11,12,1.0,1.0,1.0*30
$GPRMC,083345.119,A,5703.335,N,00955.245,E,016.1,046.7,191218,000.0,W*75
$GPGGA,083346.119,5703.339,N,00955.249,E,1,12,1.0,0.0,M,0.0,M,,*63
$GPGSA,A,3,01,02,03,04,05,06,07,08,09,10,11,12,1.0,1.0,1.0*30
$GPRMC,083346.119,A,5703.339,N,00955.249,E,016.1,046.7,191218,000.0,W*76
$GPGGA,083347.119,5703.343,N,00955.253,E,1,12,1.0,0.0,M,0.0,M,,*64
$GPGSA,A,3,01,02,03,04,05,06,07,08,09,10,11,12,1.0,1.0,1.0*30
$GPRMC,083347.119,A,5703.343,N,00955.253,E,016.1,046.7,191218,000.0,W*71
$GPGGA,083348.119,5703.347,N,00955.257,E,1,12,1.0,0.0,M,0.0,M,,*6B
$GPGSA,A,3,01,02,03,04,05,06,07,08,09,10,11,12,1.0,1.0,1.0*30
$GPRMC,083348.119,A,5703.347,N,00955.257,E,016.1,046.7,191218,000.0,W*7E
$GPGGA,083349.119,5703.351,N,00955.261,E,1,12,1.0,0.0,M,0.0,M,,*68
$GPGSA,A,3,01,02,03,04,05,06,07,08,09,10,11,12,1.0,1.0,1.0*30
$GPRMC,083349.119,A,5703.351,N,00955.261,E,016.1,046.7,191218,000.0,W*7D
$GPGGA,083350.119,5703.355,N,00955.265,E,1,12,1.0,0.0,M,0.0,M,,*60
$GPGSA,A,3,01,02,03,04,05,06,07,08,09,10,11,12,1.0,1.0,1.0*30
$GPRMC,083350.119,A,5703.355,N,00955.265,E,016.1,046.7,191218,000.0,W*75
$GPGGA,083351.119,5703.358,N,00955.270,E,1,12,1.0,0.0,M,0.0,M,,*68
$GPGSA,A,3,01,02,03,04,05,06,07,08,09,10,11,12,1.0,1.0,1.0*30
$GPRMC,083351.119,A,5703.358,N,00955.270,E,016.1,046.7,191218,000.0,W*7D
$GPGGA,083352.119,5703.362,N,00955.274,E,1,12,1.0,0.0,M,0.0,M,,*66
$GPGSA,A,3,01,02,03,04,05,06,07,08,09,10,11,12,1.0,1.0,1.0*30
$GPRMC,083352.119,A,5703.362,N,00955.274,E,016.1,046.7,191218,000.0,W*73
$GPGGA,083353.119,5703.366,N,00955.278,E,1,12,1.0,0.0,M,0.0,M,,*6F
$GPGSA,A,3,01,02,03,04,05,06,07,08,09,10,11,12,1.0,1.0,1.0*30
$GPRMC,083353.119,A,5703.366,N,00955.278,E,016.1,046.7,191218,000.0,W*7A
$GPGGA,083354.119,5703.370,N,00955.282,E,1,12,1.0,0.0,M,0.0,M,,*6A
$GPGSA,A,3,01,02,03,04,05,06,07,08,09,10,11,12,1.0,1.0,1.0*30
$GPRMC,083354.119,A,5703.370,N,00955.282,E,016.1,046.7,191218,000.0,W*7F
$GPGGA,083355.119,5703.374,N,00955.286,E,1,12,1.0,0.0,M,0.0,M,,*6B
$GPGSA,A,3,01,02,03,04,05,06,07,08,09,10,11,12,1.0,1.0,1.0*30
$GPRMC,083355.119,A,5703.374,N,00955.286,E,016.1,046.7,191218,000.0,W*7E
$GPGGA,083356.119,5703.378,N,00955.290,E,1,12,1.0,0.0,M,0.0,M,,*63
$GPGSA,A,3,01,02,03,04,05,06,07,08,09,10,11,12,1.0,1.0,1.0*30
$GPRMC,083356.119,A,5703.378,N,00955.290,E,016.1,046.7,191218,000.0,W*76
$GPGGA,083357.119,5703.382,N,00955.294,E,1,12,1.0,0.0,M,0.0,M,,*63
$GPGSA,A,3,01,02,03,04,05,06,07,08,09,10,11,12,1.0,1.0,1.0*30
$GPRMC,083357.119,A,5703.382,N,00955.294,E,016.1,046.7,191218,000.0,W*76
$GPGGA,083358.119,5703.386,N,00955.298,E,1,12,1.0,0.0,M,0.0,M,,*64
$GPGSA,A,3,01,02,03,04,05,06,07,08,09,10,11,12,1.0,1.0,1.0*30
$GPRMC,083358.119,A,5703.386,N,00955.298,E,016.1,046.7,191218,000.0,W*71
$GPGGA,083359.119,5703.389,N,00955.303,E,1,12,1.0,0.0,M,0.0,M,,*69
$GPGSA,A,3,01,02,03,04,05,06,07,08,09,10,11,12,1.0,1.0,1.0*30
$GPRMC,083359.119,A,5703.389,N,00955.303,E,016.1,046.7,191218,000.0,W*7C
$GPGGA,083400.119,5703.393,N,00955.307,E,1,12,1.0,0.0,M,0.0,M,,*6D
$GPGSA,A,3,01,02,03,04,05,06,07,08,09,10,11,12,1.0,1.0,1.0*30
$GPRMC,083400.119,A,5703.393,N,00955.307,E,016.1,046.7,191218,000.0,W*78
$GPGGA,083401.119,5703.397,N,00955.311,E,1,12,1.0,0.0,M,0.0,M,,*6F
$GPGSA,A,3,01,02,03,04,05,06,07,08,09,10,11,12,1.0,1.0,1.0*30
$GPRMC,083401.119,A,5703.397,N,00955.311,E,016.1,043.5,191218,000.0,W*7D
$GPGGA,083402.119,5703.401,N,00955.315,E,1,12,1.0,0.0,M,0.0,M,,*60
$GPGSA,A,3,01,02,03,04,05,06,07,08,09,10,11,12,1.0,1.0,1.0*30
$GPRMC,083402.119,A,5703.401,N,00955.315,E,016.1,043.5,191218,000.0,W*72
$GPGGA,083403.119,5703.405,N,00955.318,E,1,12,1.0,0.0,M,0.0,M,,*68
$GPGSA,A,3,01,02,03,04,05,06,07,08,09,10,11,12,1.0,1.0,1.0*30
$GPRMC,083403.119,A,5703.405,N,00955.318,E,016.1,043.5,191218,000.0,W*7A
$GPGGA,083404.119,5703.409,N,00955.322,E,1,12,1.0,0.0,M,0.0,M,,*6A
$GPGSA,A,3,01,02,03,04,05,06,07,08,09,10,11,12,1.0,1.0,1.0*30
$GPRMC,083404.119,A,5703.409,N,00955.322,E,016.1,043.5,191218,000.0,W*78
$GPGGA,083405.119,5703.413,N,00955.326,E,1,12,1.0,0.0,M,0.0,M,,*64
$GPGSA,A,3,01,02,03,04,05,06,07,08,09,10,11,12,1.0,1.0,1.0*30
$GPRMC,083405.119,A,5703.413,N,00955.326,E,016.1,043.5,191218,000.0,W*76
$GPGGA,083406.119,5703.417,N,00955.330,E,1,12,1.0,0.0,M,0.0,M,,*64
$GPGSA,A,3,01,02,03,04,05,06,07,08,09,10,11,12,1.0,1.0,1.0*30
$GPRMC,083406.119,A,5703.417,N,00955.330,E,016.1,043.5,191218,000.0,W*76
$GPGGA,083407.119,5703.421,N,00955.334,E,1,12,1.0,0.0,M,0.0,M,,*64
$GPGSA,A,3,01,02,03,04,05,06,07,08,09,10,11,12,1.0,1.0,1.0*30
$GPRMC,083407.119,A,5703.421,N,00955.334,E,016.1,043.5,191218,000.0,W*76
$GPGGA,083408.119,5703.425,N,00955.337,E,1,12,1.0,0.0,M,0.0,M,,*6C
$GPGSA,A,3,01,02,03,04,05,06,07,08,09,10,11,12,1.0,1.0,1.0*30
$GPRMC,083408.119,A,5703.425,N,00955.337,E,016.1,043.5,191218,000.0,W*7E
$GPGGA,083409.119,5703.429,N,00955.341,E,1,12,1.0,0.0,M,0.0,M,,*60
$GPGSA,A,3,01,02,03,04,05,06,07,08,09,10,11,12,1.0,1.0,1.0*30
$GPRMC,083409.119,A,5703.429,N,00955.341,E,016.1,043.5,191218,000.0,W*72
$GPGGA,083410.119,5703.433,N,00955.345,E,1,12,1.0,0.0,M,0.0,M,,*67
$GPGSA,A,3,01,02,03,04,05,06,07,08,09,10,11,12,1.0,1.0,1.0*30
$GPRMC,083410.119,A,5703.433,N,00955.345,E,016.1,043.5,191218,000.0,W*75
$GPGGA,083411.119,5703.437,N,00955.349,E,1,12,1.0,0.0,M,0.0,M,,*6E
$GPGSA,A,3,01,02,03,04,05,06,07,08,09,10,11,12,1.0,1.0,1.0*30
$GPRMC,083411.119,A,5703.437,N,00955.349,E,016.1,338.3,191218,000.0,W*75
$GPGGA,083412.119,5703.441,N,00955.347,E,1,12,1.0,0.0,M,0.0,M,,*62
$GPGSA,A,3,01,02,03,04,05,06,07,08,09,10,11,12,1.0,1.0,1.0*30
$GPRMC,083412.119,A,5703.441,N,00955.347,E,016.1,338.3,191218,000.0,W*79
$GPGGA,083413.119,5703.446,N,00955.345,E,1,12,1.0,0.0,M,0.0,M,,*66
$GPGSA,A,3,01,02,03,04,05,06,07,08,09,10,11,12,1.0,1.0,1.0*30
$GPRMC,083413.119,A,5703.446,N,00955.345,E,016.1,338.3,191218,000.0,W*7D
$GPGGA,083414.119,5703.450,N,00955.344,E,1,12,1.0,0.0,M,0.0,M,,*67
$GPGSA,A,3,01,02,03,04,05,06,07,08,09,10,11,12,1.0,1.0,1.0*30
$GPRMC,083414.119,A,5703.450,N,00955.344,E,016.1,338.3,191218,000.0,W*7C
$GPGGA,083415.119,5703.454,N,00955.342,E,1,12,1.0,0.0,M,0.0,M,,*64
$GPGSA,A,3,01,02,03,04,05,06,07,08,09,10,11,12,1.0,1.0,1.0*30
$GPRMC,083415.119,A,5703.454,N,00955.342,E,026.8,288.3,191218,000.0,W*7F
$GPGGA,083416.119,5703.458,N,00955.330,E,1,12,1.0,0.0,M,0.0,M,,*6E
$GPGSA,A,3,01,02,03,04,05,06,07,08,09,10,11,12,1.0,1.0,1.0*30
$GPRMC,083416.119,A,5703.458,N,00955.330,E,026.8,288.3,191218,000.0,W*75
$GPGGA,083417.119,5703.462,N,00955.318,E,1,12,1.0,0.0,M,0.0,M,,*6C
$GPGSA,A,3,01,02,03,04,05,06,07,08,09,10,11,12,1.0,1.0,1.0*30
$GPRMC,083417.119,A,5703.462,N,00955.318,E,026.8,288.3,191218,000.0,W*77
$GPGGA,083418.119,5703.466,N,00955.307,E,1,12,1.0,0.0,M,0.0,M,,*69
$GPGSA,A,3,01,02,03,04,05,06,07,08,09,10,11,12,1.0,1.0,1.0*30
$GPRMC,083418.119,A,5703.466,N,00955.307,E,026.8,288.3,191218,000.0,W*72
$GPGGA,083419.119,5703.470,N,00955.295,E,1,12,1.0,0.0,M,0.0,M,,*65
$GPGSA,A,3,01,02,03,04,05,06,07,08,09,10,11,12,1.0,1.0,1.0*30
$GPRMC,083419.119,A,5703.470,N,00955.295,E,026.8,288.3,191218,000.0,W*7E
$GPGGA,083420.119,5703.474,N,00955.283,E,1,12,1.0,0.0,M,0.0,M,,*6C
$GPGSA,A,3,01,02,03,04,05,06,07,08,09,10,11,12,1.0,1.0,1.0*30
$GPRMC,083420.119,A,5703.474,N,00955.283,E,026.8,288.3,191218,000.0,W*77
$GPGGA,083421.119,5703.478,N,00955.272,E,1,12,1.0,0.0,M,0.0,M,,*6F
$GPGSA,A,3,01,02,03,04,05,06,07,08,09,10,11,12,1.0,1.0,1.0*30
$GPRMC,083421.119,A,5703.478,N,00955.272,E,026.8,288.3,191218,000.0,W*74
$GPGGA,083422.119,5703.481,N,00955.260,E,1,12,1.0,0.0,M,0.0,M,,*69
$GPGSA,A,3,01,02,03,04,05,06,07,08,09,10,11,12,1.0,1.0,1.0*30
$GPRMC,083422.119,A,5703.481,N,00955.260,E,026.8,288.3,191218,000.0,W*72
$GPGGA,083423.119,5703.485,N,00955.248,E,1,12,1.0,0.0,M,0.0,M,,*66
$GPGSA,A,3,01,02,03,04,05,06,07,08,09,10,11,12,1.0,1.0,1.0*30
$GPRMC,083423.119,A,5703.485,N,00955.248,E,026.8,288.3,191218,000.0,W*7D
$GPGGA,083424.119,5703.489,N,00955.236,E,1,12,1.0,0.0,M,0.0,M,,*64
$GPGSA,A,3,01,02,03,04,05,06,07,08,09,10,11,12,1.0,1.0,1.0*30
$GPRMC,083424.119,A,5703.489,N,00955.236,E,026.8,288.3,191218,000.0,W*7F
$GPGGA,083425.119,5703.493,N,00955.225,E,1,12,1.0,0.0,M,0.0,M,,*6C
$GPGSA,A,3,01,02,03,04,05,06,07,08,09,10,11,12,1.0,1.0,1.0*30
$GPRMC,083425.119,A,5703.493,N,00955.225,E,026.8,288.3,191218,000.0,W*77
$GPGGA,083426.119,5703.497,N,00955.213,E,1,12,1.0,0.0,M,0.0,M,,*6E
$GPGSA,A,3,01,02,03,04,05,06,07,08,09,10,11,12,1.0,1.0,1.0*30
$GPRMC,083426.119,A,5703.497,N,00955.213,E,026.8,288.3,191218,000.0,W*75
$GPGGA,083427.119,5703.501,N,00955.201,E,1,12,1.0,0.0,M,0.0,M,,*62
$GPGSA,A,3,01,02,03,04,05,06,07,08,09,10,11,12,1.0,1.0,1.0*30
$GPRMC,083427.119,A,5703.501,N,00955.201,E,026.8,288.3,191218,000.0,W*79
$GPGGA,083428.119,5703.505,N,00955.190,E,1,12,1.0,0.0,M,0.0,M,,*62
$GPGSA,A,3,01,02,03,04,05,06,07,08,09,10,11,12,1.0,1.0,1.0*30
$GPRMC,083428.119,A,5703.505,N,00955.190,E,026.8,288.3,191218,000.0,W*79
$GPGGA,083429.119,5703.508,N,00955.178,E,1,12,1.0,0.0,M,0.0,M,,*68
$GPGSA,A,3,01,02,03,04,05,06,07,08,09,10,11,12,1.0,1.0,1.0*30
$GPRMC,083429.119,A,5703.508,N,00955.178,E,026.8,288.3,191218,000.0,W*73
$GPGGA,083430.119,5703.512,N,00955.166,E,1,12,1.0,0.0,M,0.0,M,,*64
$GPGSA,A,3,01,02,03,04,05,06,07,08,09,10,11,12,1.0,1.0,1.0*30
$GPRMC,083430.119,A,5703.512,N,00955.166,E,026.8,288.3,191218,000.0,W*7F
$GPGGA,083431.119,5703.516,N,00955.154,E,1,12,1.0,0.0,M,0.0,M,,*60
$GPGSA,A,3,01,02,03,04,05,06,07,08,09,10,11,12,1.0,1.0,1.0*30
$GPRMC,083431.119,A,5703.516,N,00955.154,E,026.8,288.3,191218,000.0,W*7B
$GPGGA,083432.119,5703.520,N,00955.143,E,1,12,1.0,0.0,M,0.0,M,,*60
$GPGSA,A,3,01,02,03,04,05,06,07,08,09,10,11,12,1.0,1.0,1.0*30
$GPRMC,083432.119,A,5703.520,N,00955.143,E,026.8,327.1,191218,000.0,W*7D
$GPGGA,083433.119,5703.527,N,00955.138,E,1,12,1.0,0.0,M,0.0,M,,*6A
$GPGSA,A,3,01,02,03,04,05,06,07,08,09,10,11,12,1.0,1.0,1.0*30
$GPRMC,083433.119,A,5703.527,N,00955.138,E,026.8,327.1,191218,000.0,W*77
$GPGGA,083434.119,5703.534,N,00955.134,E,1,12,1.0,0.0,M,0.0,M,,*63
$GPGSA,A,3,01,02,03,04,05,06,07,08,09,10,11,12,1.0,1.0,1.0*30
$GPRMC,083434.119,A,5703.534,N,00955.134,E,026.8,327.1,191218,000.0,W*7E
$GPGGA,083435.119,5703.541,N,00955.129,E,1,12,1.0,0.0,M,0.0,M,,*6C
$GPGSA,A,3,01,02,03,04,05,06,07,08,09,10,11,12,1.0,1.0,1.0*30
$GPRMC,083435.119,A,5703.541,N,00955.129,E,026.8,327.1,191218,000.0,W*71
$GPGGA,083436.119,5703.548,N,00955.124,E,1,12,1.0,0.0,M,0.0,M,,*6B
$GPGSA,A,3,01,02,03,04,05,06,07,08,09,10,11,12,1.0,1.0,1.0*30
$GPRMC,083436.119,A,5703.548,N,00955.124,E,026.8,327.1,191218,000.0,W*76
$GPGGA,083437.119,5703.555,N,00955.120,E,1,12,1.0,0.0,M,0.0,M,,*62
$GPGSA,A,3,01,02,03,04,05,06,07,08,09,10,11,12,1.0,1.0,1.0*30
$GPRMC,083437.119,A,5703.555,N,00955.120,E,026.8,327.1,191218,000.0,W*7F
$GPGGA,083438.119,5703.562,N,00955.115,E,1,12,1.0,0.0,M,0.0,M,,*6F
$GPGSA,A,3,01,02,03,04,05,06,07,08,09,10,11,12,1.0,1.0,1.0*30
$GPRMC,083438.119,A,5703.562,N,00955.115,E,026.8,327.1,191218,000.0,W*72
$GPGGA,083439.119,5703.569,N,00955.111,E,1,12,1.0,0.0,M,0.0,M,,*61
$GPGSA,A,3,01,02,03,04,05,06,07,08,09,10,11,12,1.0,1.0,1.0*30
$GPRMC,083439.119,A,5703.569,N,00955.111,E,026.8,327.1,191218,000.0,W*7C
$GPGGA,083440.119,5703.576,N,00955.106,E,1,12,1.0,0.0,M,0.0,M,,*67
$GPGSA,A,3,01,02,03,04,05,06,07,08,09,10,11,12,1.0,1.0,1.0*30
$GPRMC,083440.119,A,5703.576,N,00955.106,E,026.8,327.1,191218,000.0,W*7A
$GPGGA,083441.119,5703.583,N,00955.102,E,1,12,1.0,0.0,M,0.0,M,,*68
$GPGSA,A,3,01,02,03,04,05,06,07,08,09,10,11,12,1.0,1.0,1.0*30
$GPRMC,083441.119,A,5703.583,N,00955.102,E,026.8,327.1,191218,000.0,W*75
$GPGGA,083442.119,5703.590,N,00955.097,E,1,12,1.0,0.0,M,0.0,M,,*64
$GPGSA,A,3,01,02,03,04,05,06,07,08,09,10,11,12,1.0,1.0,1.0*30
$GPRMC,083442.119,A,5703.590,N,00955.097,E,026.8,327.1,191218,000.0,W*79
$GPGGA,083443.119,5703.597,N,00955.093,E,1,12,1.0,0.0,M,0.0,M,,*66
$GPGSA,A,3,01,02,03,04,05,06,07,08,09,10,11,12,1.0,1.0,1.0*30
$GPRMC,083443.119,A,5703.597,N,00955.093,E,026.8,327.1,191218,000.0,W*7B
$GPGGA,083444.119,5703.604,N,00955.088,E,1,12,1.0,0.0,M,0.0,M,,*62
$GPGSA,A,3,01,02,03,04,05,06,07,08,09,10,11,12,1.0,1.0,1.0*30
$GPRMC,083444.119,A,5703.604,N,00955.088,E,026.8,327.1,191218,000.0,W*7F
$GPGGA,083445.119,5703.611,N,00955.083,E,1,12,1.0,0.0,M,0.0,M,,*6C
$GPGSA,A,3,01,02,03,04,05,06,07,08,09,10,11,12,1.0,1.0,1.0*30
$GPRMC,083445.119,A,5703.611,N,00955.083,E,026.8,289.3,191218,000.0,W*76
$GPGGA,083446.119,5703.615,N,00955.072,E,1,12,1.0,0.0,M,0.0,M,,*65
$GPGSA,A,3,01,02,03,04,05,06,07,08,09,10,11,12,1.0,1.0,1.0*30
$GPRMC,083446.119,A,5703.615,N,00955.072,E,026.8,289.3,191218,000.0,W*7F
$GPGGA,083447.119,5703.619,N,00955.060,E,1,12,1.0,0.0,M,0.0,M,,*6B
$GPGSA,A,3,01,02,03,04,05,06,07,08,09,10,11,12,1.0,1.0,1.0*30
$GPRMC,083447.119,A,5703.619,N,00955.060,E,026.8,289.3,191218,000.0,W*71
$GPGGA,083448.119,5703.623,N,00955.049,E,1,12,1.0,0.0,M,0.0,M,,*66
$GPGSA,A,3,01,02,03,04,05,06,07,08,09,10,11,12,1.0,1.0,1.0*30
$GPRMC,083448.119,A,5703.623,N,00955.049,E,026.8,289.3,191218,000.0,W*7C
$GPGGA,083449.119,5703.627,N,00955.037,E,1,12,1.0,0.0,M,0.0,M,,*6A
$GPGSA,A,3,01,02,03,04,05,06,07,08,09,10,11,12,1.0,1.0,1.0*30
$GPRMC,083449.119,A,5703.627,N,00955.037,E,026.8,289.3,191218,000.0,W*70
$GPGGA,083450.119,5703.631,N,00955.026,E,1,12,1.0,0.0,M,0.0,M,,*65
$GPGSA,A,3,01,02,03,04,05,06,07,08,09,10,11,12,1.0,1.0,1.0*30
$GPRMC,083450.119,A,5703.631,N,00955.026,E,026.8,289.3,191218,000.0,W*7F
$GPGGA,083451.119,5703.635,N,00955.014,E,1,12,1.0,0.0,M,0.0,M,,*61
$GPGSA,A,3,01,02,03,04,05,06,07,08,09,10,11,12,1.0,1.0,1.0*30
$GPRMC,083451.119,A,5703.635,N,00955.014,E,026.8,289.3,191218,000.0,W*7B
$GPGGA,083452.119,5703.640,N,00955.003,E,1,12,1.0,0.0,M,0.0,M,,*66
$GPGSA,A,3,01,02,03,04,05,06,07,08,09,10,11,12,1.0,1.0,1.0*30
$GPRMC,083452.119,A,5703.640,N,00955.003,E,026.8,289.3,191218,000.0,W*7C
$GPGGA,083453.119,5703.644,N,00954.991,E,1,12,1.0,0.0,M,0.0,M,,*60
$GPGSA,A,3,01,02,03,04,05,06,07,08,09,10,11,12,1.0,1.0,1.0*30
$GPRMC,083453.119,A,5703.644,N,00954.991,E,026.8,289.3,191218,000.0,W*7A
$GPGGA,083454.119,5703.648,N,00954.980,E,1,12,1.0,0.0,M,0.0,M,,*6B
$GPGSA,A,3,01,02,03,04,05,06,07,08,09,10,11,12,1.0,1.0,1.0*30
$GPRMC,083454.119,A,5703.648,N,00954.980,E,026.8,289.3,191218,000.0,W*71
$GPGGA,083455.119,5703.652,N,00954.968,E,1,12,1.0,0.0,M,0.0,M,,*67
$GPGSA,A,3,01,02,03,04,05,06,07,08,09,10,11,12,1.0,1.0,1.0*30
$GPRMC,083455.119,A,5703.652,N,00954.968,E,026.8,289.3,191218,000.0,W*7D
$GPGGA,083456.119,5703.656,N,00954.957,E,1,12,1.0,0.0,M,0.0,M,,*6C
$GPGSA,A,3,01,02,03,04,05,06,07,08,09,10,11,12,1.0,1.0,1.0*30
$GPRMC,083456.119,A,5703.656,N,00954.957,E,026.8,289.3,191218,000.0,W*76
$GPGGA,083457.119,5703.660,N,00954.945,E,1,12,1.0,0.0,M,0.0,M,,*6B
$GPGSA,A,3,01,02,03,04,05,06,07,08,09,10,11,12,1.0,1.0,1.0*30
$GPRMC,083457.119,A,5703.660,N,00954.945,E,026.8,289.3,191218,000.0,W*71
$GPGGA,083458.119,5703.664,N,00954.934,E,1,12,1.0,0.0,M,0.0,M,,*66
$GPGSA,A,3,01,02,03,04,05,06,07,08,09,10,11,12,1.0,1.0,1.0*30
$GPRMC,083458.119,A,5703.664,N,00954.934,E,026.8,289.3,191218,000.0,W*7C
$GPGGA,083459.119,5703.668,N,00954.922,E,1,12,1.0,0.0,M,0.0,M,,*6C
$GPGSA,A,3,01,02,03,04,05,06,07,08,09,10,11,12,1.0,1.0,1.0*30
$GPRMC,083459.119,A,5703.668,N,00954.922,E,026.8,289.3,191218,000.0,W*76
$GPGGA,083500.119,5703.672,N,00954.911,E,1,12,1.0,0.0,M,0.0,M,,*6A
$GPGSA,A,3,01,02,03,04,05,06,07,08,09,10,11,12,1.0,1.0,1.0*30
$GPRMC,083500.119,A,5703.672,N,00954.911,E,026.8,289.3,191218,000.0,W*70
$GPGGA,083501.119,5703.676,N,00954.899,E,1,12,1.0,0.0,M,0.0,M,,*6E
$GPGSA,A,3,01,02,03,04,05,06,07,08,09,10,11,12,1.0,1.0,1.0*30
$GPRMC,083501.119,A,5703.676,N,00954.899,E,026.8,289.3,191218,000.0,W*74
$GPGGA,083502.119,5703.680,N,00954.888,E,1,12,1.0,0.0,M,0.0,M,,*64
$GPGSA,A,3,01,02,03,04,05,06,07,08,09,10,11,12,1.0,1.0,1.0*30
$GPRMC,083502.119,A,5703.680,N,00954.888,E,026.8,289.3,191218,000.0,W*7E
$GPGGA,083503.119,5703.684,N,00954.876,E,1,12,1.0,0.0,M,0.0,M,,*60
$GPGSA,A,3,01,02,03,04,05,06,07,08,09,10,11,12,1.0,1.0,1.0*30
$GPRMC,083503.119,A,5703.684,N,00954.876,E,026.8,289.3,191218,000.0,W*7A
$GPGGA,083504.119,5703.688,N,00954.864,E,1,12,1.0,0.0,M,0.0,M,,*68
$GPGSA,A,3,01,02,03,04,05,06,07,08,09,10,11,12,1.0,1.0,1.0*30
$GPRMC,083504.119,A,5703.688,N,00954.864,E,026.8,289.3,191218,000.0,W*72
$GPGGA,083505.119,5703.692,N,00954.853,E,1,12,1.0,0.0,M,0.0,M,,*66
$GPGSA,A,3,01,02,03,04,05,06,07,08,09,10,11,12,1.0,1.0,1.0*30
$GPRMC,083505.119,A,5703.692,N,00954.853,E,026.8,289.3,191218,000.0,W*7C
$GPGGA,083506.119,5703.696,N,00954.841,E,1,12,1.0,0.0,M,0.0,M,,*62
$GPGSA,A,3,01,02,03,04,05,06,07,08,09,10,11,12,1.0,1.0,1.0*30
$GPRMC,083506.119,A,5703.696,N,00954.841,E,026.8,289.3,191218,000.0,W*78
$GPGGA,083507.119,5703.700,N,00954.830,E,1,12,1.0,0.0,M,0.0,M,,*6B
$GPGSA,A,3,01,02,03,04,05,06,07,08,09,10,11,12,1.0,1.0,1.0*30
$GPRMC,083507.119,A,5703.700,N,00954.830,E,026.8,289.3,191218,000.0,W*71
$GPGGA,083508.119,5703.704,N,00954.818,E,1,12,1.0,0.0,M,0.0,M,,*6A
$GPGSA,A,3,01,02,03,04,05,06,07,08,09,10,11,12,1.0,1.0,1.0*30
$GPRMC,083508.119,A,5703.704,N,00954.818,E,026.8,289.3,191218,000.0,W*70
$GPGGA,083509.119,5703.708,N,00954.807,E,1,12,1.0,0.0,M,0.0,M,,*69
$GPGSA,A,3,01,02,03,04,05,06,07,08,09,10,11,12,1.0,1.0,1.0*30
$GPRMC,083509.119,A,5703.708,N,00954.807,E,026.8,289.3,191218,000.0,W*73
$GPGGA,083510.119,5703.712,N,00954.795,E,1,12,1.0,0.0,M,0.0,M,,*6E
$GPGSA,A,3,01,02,03,04,05,06,07,08,09,10,11,12,1.0,1.0,1.0*30
$GPRMC,083510.119,A,5703.712,N,00954.795,E,026.8,289.3,191218,000.0,W*74
$GPGGA,083511.119,5703.716,N,00954.784,E,1,12,1.0,0.0,M,0.0,M,,*6B
$GPGSA,A,3,01,02,03,04,05,06,07,08,09,10,11,12,1.0,1.0,1.0*30
$GPRMC,083511.119,A,5703.716,N,00954.784,E,026.8,289.3,191218,000.0,W*71
$GPGGA,083512.119,5703.720,N,00954.772,E,1,12,1.0,0.0,M,0.0,M,,*64
$GPGSA,A,3,01,02,03,04,05,06,07,08,09,10,11,12,1.0,1.0,1.0*30
$GPRMC,083512.119,A,5703.720,N,00954.772,E,026.8,289.3,191218,000.0,W*7E
$GPGGA,083513.119,5703.724,N,00954.761,E,1,12,1.0,0.0,M,0.0,M,,*63
$GPGSA,A,3,01,02,03,04,05,06,07,08,09,10,11,12,1.0,1.0,1.0*30
$GPRMC,083513.119,A,5703.724,N,00954.761,E,026.8,289.3,191218,000.0,W*79
$GPGGA,083514.119,5703.728,N,00954.749,E,1,12,1.0,0.0,M,0.0,M,,*62
$GPGSA,A,3,01,02,03,04,05,06,07,08,09,10,11,12,1.0,1.0,1.0*30
$GPRMC,083514.119,A,5703.728,N,00954.749,E,026.8,289.3,191218,000.0,W*78
$GPGGA,083515.119,5703.732,N,00954.738,E,1,12,1.0,0.0,M,0.0,M,,*6E
$GPGSA,A,3,01,02,03,04,05,06,07,08,09,10,11,12,1.0,1.0,1.0*30
$GPRMC,083515.119,A,5703.732,N,00954.738,E,026.8,289.3,191218,000.0,W*74
$GPGGA,083516.119,5703.736,N,00954.726,E,1,12,1.0,0.0,M,0.0,M,,*66
$GPGSA,A,3,01,02,03,04,05,06,07,08,09,10,11,12,1.0,1.0,1.0*30
$GPRMC,083516.119,A,5703.736,N,00954.726,E,026.8,289.3,191218,000.0,W*7C
$GPGGA,083517.119,5703.740,N,00954.715,E,1,12,1.0,0.0,M,0.0,M,,*66
$GPGSA,A,3,01,02,03,04,05,06,07,08,09,10,11,12,1.0,1.0,1.0*30
$GPRMC,083517.119,A,5703.740,N,00954.715,E,026.8,289.3,191218,000.0,W*7C
$GPGGA,083518.119,5703.744,N,00954.703,E,1,12,1.0,0.0,M,0.0,M,,*6A
$GPGSA,A,3,01,02,03,04,05,06,07,08,09,10,11,12,1.0,1.0,1.0*30
$GPRMC,083518.119,A,5703.744,N,00954.703,E,026.8,289.3,191218,000.0,W*70
$GPGGA,083519.119,5703.748,N,00954.692,E,1,12,1.0,0.0,M,0.0,M,,*6E
$GPGSA,A,3,01,02,03,04,05,06,07,08,09,10,11,12,1.0,1.0,1.0*30
$GPRMC,083519.119,A,5703.748,N,00954.692,E,026.8,289.3,191218,000.0,W*74
$GPGGA,083520.119,5703.752,N,00954.680,E,1,12,1.0,0.0,M,0.0,M,,*6C
$GPGSA,A,3,01,02,03,04,05,06,07,08,09,10,11,12,1.0,1.0,1.0*30
$GPRMC,083520.119,A,5703.752,N,00954.680,E,026.8,289.3,191218,000.0,W*76
$GPGGA,083521.119,5703.756,N,00954.669,E,1,12,1.0,0.0,M,0.0,M,,*6E
$GPGSA,A,3,01,02,03,04,05,06,07,08,09,10,11,12,1.0,1.0,1.0*30
$GPRMC,083521.119,A,5703.756,N,00954.669,E,026.8,289.3,191218,000.0,W*74
$GPGGA,083522.119,5703.760,N,00954.657,E,1,12,1.0,0.0,M,0.0,M,,*65
$GPGSA,A,3,01,02,03,04,05,06,07,08,09,10,11,12,1.0,1.0,1.0*30
$GPRMC,083522.119,A,5703.760,N,00954.657,E,026.8,289.3,191218,000.0,W*7F
$GPGGA,083523.119,5703.764,N,00954.646,E,1,12,1.0,0.0,M,0.0,M,,*60
$GPGSA,A,3,01,02,03,04,05,06,07,08,09,10,11,12,1.0,1.0,1.0*30
$GPRMC,083523.119,A,5703.764,N,00954.646,E,026.8,289.3,191218,000.0,W*7A
$GPGGA,083524.119,5703.768,N,00954.634,E,1,12,1.0,0.0,M,0.0,M,,*6E
$GPGSA,A,3,01,02,03,04,05,06,07,08,09,10,11,12,1.0,1.0,1.0*30
$GPRMC,083524.119,A,5703.768,N,00954.634,E,026.8,289.3,191218,000.0,W*74
$GPGGA,083525.119,5703.772,N,00954.623,E,1,12,1.0,0.0,M,0.0,M,,*62
$GPGSA,A,3,01,02,03,04,05,06,07,08,09,10,11,12,1.0,1.0,1.0*30
$GPRMC,083525.119,A,5703.772,N,00954.623,E,026.8,289.3,191218,000.0,W*78
$GPGGA,083526.119,5703.776,N,00954.611,E,1,12,1.0,0.0,M,0.0,M,,*64
$GPGSA,A,3,01,02,03,04,05,06,07,08,09,10,11,12,1.0,1.0,1.0*30
$GPRMC,083526.119,A,5703.776,N,00954.611,E,026.8,289.3,191218,000.0,W*7E
$GPGGA,083527.119,5703.780,N,00954.599,E,1,12,1.0,0.0,M,0.0,M,,*6F
$GPGSA,A,3,01,02,03,04,05,06,07,08,09,10,11,12,1.0,1.0,1.0*30
$GPRMC,083527.119,A,5703.780,N,00954.599,E,026.8,289.3,191218,000.0,W*75
$GPGGA,083528.119,5703.784,N,00954.588,E,1,12,1.0,0.0,M,0.0,M,,*64
$GPGSA,A,3,01,02,03,04,05,06,07,08,09,10,11,12,1.0,1.0,1.0*30
$GPRMC,083528.119,A,5703.784,N,00954.588,E,026.8,289.3,191218,000.0,W*7E
$GPGGA,083529.119,5703.788,N,00954.576,E,1,12,1.0,0.0,M,0.0,M,,*68
$GPGSA,A,3,01,02,03,04,05,06,07,08,09,10,11,12,1.0,1.0,1.0*30
$GPRMC,083529.119,A,5703.788,N,00954.576,E,026.8,289.3,191218,000.0,W*72
$GPGGA,083530.119,5703.792,N,00954.565,E,1,12,1.0,0.0,M,0.0,M,,*69
$GPGSA,A,3,01,02,03,04,05,06,07,08,09,10,11,12,1.0,1.0,1.0*30
$GPRMC,083530.119,A,5703.792,N,00954.565,E,026.8,289.3,191218,000.0,W*73
$GPGGA,083531.119,5703.796,N,00954.553,E,1,12,1.0,0.0,M,0.0,M,,*69
$GPGSA,A,3,01,02,03,04,05,06,07,08,09,10,11,12,1.0,1.0,1.0*30
$GPRMC,083531.119,A,5703.796,N,00954.553,E,026.8,289.3,191218,000.0,W*73
$GPGGA,083532.119,5703.800,N,00954.542,E,1,12,1.0,0.0,M,0.0,M,,*6A
$GPGSA,A,3,01,02,03,04,05,06,07,08,09,10,11,12,1.0,1.0,1.0*30
$GPRMC,083532.119,A,5703.800,N,00954.542,E,026.8,289.3,191218,000.0,W*70
$GPGGA,083533.119,5703.805,N,00954.530,E,1,12,1.0,0.0,M,0.0,M,,*6B
$GPGSA,A,3,01,02,03,04,05,06,07,08,09,10,11,12,1.0,1.0,1.0*30
$GPRMC,083533.119,A,5703.805,N,00954.530,E,026.8,289.3,191218,000.0,W*71
$GPGGA,083534.119,5703.809,N,00954.519,E,1,12,1.0,0.0,M,0.0,M,,*6B
$GPGSA,A,3,01,02,03,04,05,06,07,08,09,10,11,12,1.0,1.0,1.0*30
$GPRMC,083534.119,A,5703.809,N,00954.519,E,026.8,289.3,191218,000.0,W*71
$GPGGA,083535.119,5703.813,N,00954.507,E,1,12,1.0,0.0,M,0.0,M,,*6E
$GPGSA,A,3,01,02,03,04,05,06,07,08,09,10,11,12,1.0,1.0,1.0*30
$GPRMC,083535.119,A,5703.813,N,00954.507,E,026.8,289.3,191218,000.0,W*74
$GPGGA,083536.119,5703.817,N,00954.496,E,1,12,1.0,0.0,M,0.0,M,,*60
$GPGSA,A,3,01,02,03,04,05,06,07,08,09,10,11,12,1.0,1.0,1.0*30
$GPRMC,083536.119,A,5703.817,N,00954.496,E,026.8,289.3,191218,000.0,W*7A
$GPGGA,083537.119,5703.821,N,00954.484,E,1,12,1.0,0.0,M,0.0,M,,*67
$GPGSA,A,3,01,02,03,04,05,06,07,08,09,10,11,12,1.0,1.0,1.0*30
$GPRMC,083537.119,A,5703.821,N,00954.484,E,026.8,289.3,191218,000.0,W*7D
$GPGGA,083538.119,5703.825,N,00954.473,E,1,12,1.0,0.0,M,0.0,M,,*64
$GPGSA,A,3,01,02,03,04,05,06,07,08,09,10,11,12,1.0,1.0,1.0*30
$GPRMC,083538.119,A,5703.825,N,00954.473,E,026.8,289.3,191218,000.0,W*7E
$GPGGA,083539.119,5703.829,N,00954.461,E,1,12,1.0,0.0,M,0.0,M,,*6A
$GPGSA,A,3,01,02,03,04,05,06,07,08,09,10,11,12,1.0,1.0,1.0*30
$GPRMC,083539.119,A,5703.829,N,00954.461,E,026.8,289.3,191218,000.0,W*70
$GPGGA,083540.119,5703.833,N,00954.450,E,1,12,1.0,0.0,M,0.0,M,,*6D
$GPGSA,A,3,01,02,03,04,05,06,07,08,09,10,11,12,1.0,1.0,1.0*30
$GPRMC,083540.119,A,5703.833,N,00954.450,E,026.8,298.0,191218,000.0,W*74
$GPGGA,083541.119,5703.838,N,00954.440,E,1,12,1.0,0.0,M,0.0,M,,*66
$GPGSA,A,3,01,02,03,04,05,06,07,08,09,10,11,12,1.0,1.0,1.0*30
$GPRMC,083541.119,A,5703.838,N,00954.440,E,026.8,298.0,191218,000.0,W*7F
$GPGGA,083542.119,5703.843,N,00954.430,E,1,12,1.0,0.0,M,0.0,M,,*6E
$GPGSA,A,3,01,02,03,04,05,06,07,08,09,10,11,12,1.0,1.0,1.0*30
$GPRMC,083542.119,A,5703.843,N,00954.430,E,026.8,298.0,191218,000.0,W*77
$GPGGA,083543.119,5703.848,N,00954.420,E,1,12,1.0,0.0,M,0.0,M,,*65
$GPGSA,A,3,01,02,03,04,05,06,07,08,09,10,11,12,1.0,1.0,1.0*30
$GPRMC,083543.119,A,5703.848,N,00954.420,E,026.8,298.0,191218,000.0,W*7C
$GPGGA,083544.119,5703.853,N,00954.410,E,1,12,1.0,0.0,M,0.0,M,,*6B
$GPGSA,A,3,01,02,03,04,05,06,07,08,09,10,11,12,1.0,1.0,1.0*30
$GPRMC,083544.119,A,5703.853,N,00954.410,E,026.8,298.0,191218,000.0,W*72
$GPGGA,083545.119,5703.859,N,00954.401,E,1,12,1.0,0.0,M,0.0,M,,*60
$GPGSA,A,3,01,02,03,04,05,06,07,08,09,10,11,12,1.0,1.0,1.0*30
$GPRMC,083545.119,A,5703.859,N,00954.401,E,026.8,298.0,191218,000.0,W*79
$GPGGA,083546.119,5703.864,N,00954.391,E,1,12,1.0,0.0,M,0.0,M,,*63
$GPGSA,A,3,01,02,03,04,05,06,07,08,09,10,11,12,1.0,1.0,1.0*30
$GPRMC,083546.119,A,5703.864,N,00954.391,E,026.8,298.0,191218,000.0,W*7A
$GPGGA,083547.119,5703.869,N,00954.381,E,1,12,1.0,0.0,M,0.0,M,,*6E
$GPGSA,A,3,01,02,03,04,05,06,07,08,09,10,11,12,1.0,1.0,1.0*30
$GPRMC,083547.119,A,5703.869,N,00954.381,E,026.8,298.0,191218,000.0,W*77
$GPGGA,083548.119,5703.874,N,00954.371,E,1,12,1.0,0.0,M,0.0,M,,*62
$GPGSA,A,3,01,02,03,04,05,06,07,08,09,10,11,12,1.0,1.0,1.0*30
$GPRMC,083548.119,A,5703.874,N,00954.371,E,026.8,298.0,191218,000.0,W*7B
$GPGGA,083549.119,5703.879,N,00954.361,E,1,12,1.0,0.0,M,0.0,M,,*6F
$GPGSA,A,3,01,02,03,04,05,06,07,08,09,10,11,12,1.0,1.0,1.0*30
$GPRMC,083549.119,A,5703.879,N,00954.361,E,026.8,298.0,191218,000.0,W*76
$GPGGA,083550.119,5703.885,N,00954.352,E,1,12,1.0,0.0,M,0.0,M,,*64
$GPGSA,A,3,01,02,03,04,05,06,07,08,09,10,11,12,1.0,1.0,1.0*30
$GPRMC,083550.119,A,5703.885,N,00954.352,E,026.8,298.0,191218,000.0,W*7D
$GPGGA,083551.119,5703.890,N,00954.342,E,1,12,1.0,0.0,M,0.0,M,,*60
$GPGSA,A,3,01,02,03,04,05,06,07,08,09,10,11,12,1.0,1.0,1.0*30
$GPRMC,083551.119,A,5703.890,N,00954.342,E,026.8,298.0,191218,000.0,W*79
$GPGGA,083552.119,5703.895,N,00954.332,E,1,12,1.0,0.0,M,0.0,M,,*61
$GPGSA,A,3,01,02,03,04,05,06,07,08,09,10,11,12,1.0,1.0,1.0*30
$GPRMC,083552.119,A,5703.895,N,00954.332,E,026.8,298.0,191218,000.0,W*78
$GPGGA,083553.119,5703.900,N,00954.322,E,1,12,1.0,0.0,M,0.0,M,,*6C
$GPGSA,A,3,01,02,03,04,05,06,07,08,09,10,11,12,1.0,1.0,1.0*30
$GPRMC,083553.119,A,5703.900,N,00954.322,E,026.8,298.0,191218,000.0,W*75
$GPGGA,083554.119,5703.905,N,00954.312,E,1,12,1.0,0.0,M,0.0,M,,*6D
$GPGSA,A,3,01,02,03,04,05,06,07,08,09,10,11,12,1.0,1.0,1.0*30
$GPRMC,083554.119,A,5703.905,N,00954.312,E,026.8,298.0,191218,000.0,W*74
$GPGGA,083555.119,5703.911,N,00954.303,E,1,12,1.0,0.0,M,0.0,M,,*69
$GPGSA,A,3,01,02,03,04,05,06,07,08,09,10,11,12,1.0,1.0,1.0*30
$GPRMC,083555.119,A,5703.911,N,00954.303,E,026.8,298.0,191218,000.0,W*70
$GPGGA,083556.119,5703.916,N,00954.293,E,1,12,1.0,0.0,M,0.0,M,,*65
$GPGSA,A,3,01,02,03,04,05,06,07,08,09,10,11,12,1.0,1.0,1.0*30
$GPRMC,083556.119,A,5703.916,N,00954.293,E,026.8,298.0,191218,000.0,W*7C
$GPGGA,083557.119,5703.921,N,00954.283,E,1,12,1.0,0.0,M,0.0,M,,*61
$GPGSA,A,3,01,02,03,04,05,06,07,08,09,10,11,12,1.0,1.0,1.0*30
$GPRMC,083557.119,A,5703.921,N,00954.283,E,026.8,298.0,191218,000.0,W*78
$GPGGA,083558.119,5703.926,N,00954.273,E,1,12,1.0,0.0,M,0.0,M,,*66
$GPGSA,A,3,01,02,03,04,05,06,07,08,09,10,11,12,1.0,1.0,1.0*30
$GPRMC,083558.119,A,5703.926,N,00954.273,E,026.8,298.0,191218,000.0,W*7F
$GPGGA,083559.119,5703.931,N,00954.263,E,1,12,1.0,0.0,M,0.0,M,,*60
$GPGSA,A,3,01,02,03,04,05,06,07,08,09,10,11,12,1.0,1.0,1.0*30
$GPRMC,083559.119,A,5703.931,N,00954.263,E,026.8,298.0,191218,000.0,W*79
$GPGGA,083600.119,5703.937,N,00954.253,E,1,12,1.0,0.0,M,0.0,M,,*6A
$GPGSA,A,3,01,02,03,04,05,06,07,08,09,10,11,12,1.0,1.0,1.0*30
$GPRMC,083600.119,A,5703.937,N,00954.253,E,026.8,298.0,191218,000.0,W*73
$GPGGA,083601.119,5703.942,N,00954.244,E,1,12,1.0,0.0,M,0.0,M,,*6F
$GPGSA,A,3,01,02,03,04,05,06,07,08,09,10,11,12,1.0,1.0,1.0*30
$GPRMC,083601.119,A,5703.942,N,00954.244,E,026.8,298.0,191218,000.0,W*76
$GPGGA,083602.119,5703.947,N,00954.234,E,1,12,1.0,0.0,M,0.0,M,,*6E
$GPGSA,A,3,01,02,03,04,05,06,07,08,09,10,11,12,1.0,1.0,1.0*30
$GPRMC,083602.119,A,5703.947,N,00954.234,E,026.8,298.0,191218,000.0,W*77
$GPGGA,083603.119,5703.952,N,00954.224,E,1,12,1.0,0.0,M,0.0,M,,*6A
$GPGSA,A,3,01,02,03,04,05,06,07,08,09,10,11,12,1.0,1.0,1.0*30
$GPRMC,083603.119,A,5703.952,N,00954.224,E,026.8,298.0,191218,000.0,W*73
$GPGGA,083604.119,5703.957,N,00954.214,E,1,12,1.0,0.0,M,0.0,M,,*6B
$GPGSA,A,3,01,02,03,04,05,06,07,08,09,10,11,12,1.0,1.0,1.0*30
$GPRMC,083604.119,A,5703.957,N,00954.214,E,026.8,298.0,191218,000.0,W*72
$GPGGA,083605.119,5703.963,N,00954.204,E,1,12,1.0,0.0,M,0.0,M,,*6C
$GPGSA,A,3,01,02,03,04,05,06,07,08,09,10,11,12,1.0,1.0,1.0*30
$GPRMC,083605.119,A,5703.963,N,00954.204,E,026.8,298.0,191218,000.0,W*75
$GPGGA,083606.119,5703.968,N,00954.195,E,1,12,1.0,0.0,M,0.0,M,,*6F
$GPGSA,A,3,01,02,03,04,05,06,07,08,09,10,11,12,1.0,1.0,1.0*30
$GPRMC,083606.119,A,5703.968,N,00954.195,E,026.8,298.0,191218,000.0,W*76
$GPGGA,083607.119,5703.973,N,00954.185,E,1,12,1.0,0.0,M,0.0,M,,*65
$GPGSA,A,3,01,02,03,04,05,06,07,08,09,10,11,12,1.0,1.0,1.0*30
$GPRMC,083607.119,A,5703.973,N,00954.185,E,026.8,298.0,191218,000.0,W*7C
$GPGGA,083608.119,5703.978,N,00954.175,E,1,12,1.0,0.0,M,0.0,M,,*6E
$GPGSA,A,3,01,02,03,04,05,06,07,08,09,10,11,12,1.0,1.0,1.0*30
$GPRMC,083608.119,A,5703.978,N,00954.175,E,026.8,298.0,191218,000.0,W*77
$GPGGA,083609.119,5703.983,N,00954.165,E,1,12,1.0,0.0,M,0.0,M,,*6A
$GPGSA,A,3,01,02,03,04,05,06,07,08,09,10,11,12,1.0,1.0,1.0*30
$GPRMC,083609.119,A,5703.983,N,00954.165,E,026.8,298.0,191218,000.0,W*73
$GPGGA,083610.119,5703.989,N,00954.155,E,1,12,1.0,0.0,M,0.0,M,,*6B
$GPGSA,A,3,01,02,03,04,05,06,07,08,09,10,11,12,1.0,1.0,1.0*30
$GPRMC,083610.119,A,5703.989,N,00954.155,E,026.8,298.0,191218,000.0,W*72
$GPGGA,083611.119,5703.994,N,00954.146,E,1,12,1.0,0.0,M,0.0,M,,*64
$GPGSA,A,3,01,02,03,04,05,06,07,08,09,10,11,12,1.0,1.0,1.0*30
$GPRMC,083611.119,A,5703.994,N,00954.146,E,026.8,298.0,191218,000.0,W*7D
$GPGGA,083612.119,5703.999,N,00954.136,E,1,12,1.0,0.0,M,0.0,M,,*6D
$GPGSA,A,3,01,02,03,04,05,06,07,08,09,10,11,12,1.0,1.0,1.0*30
$GPRMC,083612.119,A,5703.999,N,00954.136,E,026.8,298.0,191218,000.0,W*74
$GPGGA,083613.119,5704.004,N,00954.126,E,1,12,1.0,0.0,M,0.0,M,,*67
$GPGSA,A,3,01,02,03,04,05,06,07,08,09,10,11,12,1.0,1.0,1.0*30
$GPRMC,083613.119,A,5704.004,N,00954.126,E,026.8,298.0,191218,000.0,W*7E
