$GPGGA,113249.210,5703.118,N,00955.026,E,1,12,1.0,0.0,M,0.0,M,,*65
$GPGSA,A,3,01,02,03,04,05,06,07,08,09,10,11,12,1.0,1.0,1.0*30
$GPRMC,113249.210,A,5703.118,N,00955.026,E,029.2,201.6,111218,000.0,W*77
$GPGGA,113252.543,5703.092,N,00955.016,E,1,12,1.0,0.0,M,0.0,M,,*6E
$GPGSA,A,3,01,02,03,04,05,06,07,08,09,10,11,12,1.0,1.0,1.0*30
$GPRMC,113252.543,A,5703.092,N,00955.016,E,029.2,201.6,111218,000.0,W*7C
$GPGGA,113255.876,5703.065,N,00955.005,E,1,12,1.0,0.0,M,0.0,M,,*68
$GPGSA,A,3,01,02,03,04,05,06,07,08,09,10,11,12,1.0,1.0,1.0*30
$GPRMC,113255.876,A,5703.065,N,00955.005,E,029.2,201.6,111218,000.0,W*7A
$GPGGA,113259.210,5703.039,N,00954.995,E,1,12,1.0,0.0,M,0.0,M,,*66
$GPGSA,A,3,01,02,03,04,05,06,07,08,09,10,11,12,1.0,1.0,1.0*30
$GPRMC,113259.210,A,5703.039,N,00954.995,E,029.2,201.6,111218,000.0,W*74
$GPGGA,113302.543,5703.013,N,00954.984,E,1,12,1.0,0.0,M,0.0,M,,*60
$GPGSA,A,3,01,02,03,04,05,06,07,08,09,10,11,12,1.0,1.0,1.0*30
$GPRMC,113302.543,A,5703.013,N,00954.984,E,029.2,188.1,111218,000.0,W*77
$GPGGA,113305.876,5702.986,N,00954.980,E,1,12,1.0,0.0,M,0.0,M,,*6C
$GPGSA,A,3,01,02,03,04,05,06,07,08,09,10,11,12,1.0,1.0,1.0*30
$GPRMC,113305.876,A,5702.986,N,00954.980,E,029.2,188.1,111218,000.0,W*7B
$GPGGA,113309.210,5702.959,N,00954.977,E,1,12,1.0,0.0,M,0.0,M,,*60
$GPGSA,A,3,01,02,03,04,05,06,07,08,09,10,11,12,1.0,1.0,1.0*30
$GPRMC,113309.210,A,5702.959,N,00954.977,E,029.2,188.1,111218,000.0,W*77
$GPGGA,113312.543,5702.932,N,00954.973,E,1,12,1.0,0.0,M,0.0,M,,*62
$GPGSA,A,3,01,02,03,04,05,06,07,08,09,10,11,12,1.0,1.0,1.0*30
$GPRMC,113312.543,A,5702.932,N,00954.973,E,029.2,218.9,111218,000.0,W*77
$GPGGA,113315.876,5702.907,N,00954.953,E,1,12,1.0,0.0,M,0.0,M,,*6A
$GPGSA,A,3,01,02,03,04,05,06,07,08,09,10,11,12,1.0,1.0,1.0*30
$GPRMC,113315.876,A,5702.907,N,00954.953,E,029.2,218.9,111218,000.0,W*7F
$GPGGA,113319.210,5702.882,N,00954.933,E,1,12,1.0,0.0,M,0.0,M,,*66
$GPGSA,A,3,01,02,03,04,05,06,07,08,09,10,11,12,1.0,1.0,1.0*30
$GPRMC,113319.210,A,5702.882,N,00954.933,E,029.2,218.9,111218,000.0,W*73
$GPGGA,113322.543,5702.858,N,00954.913,E,1,12,1.0,0.0,M,0.0,M,,*6A
$GPGSA,A,3,01,02,03,04,05,06,07,08,09,10,11,12,1.0,1.0,1.0*30
$GPRMC,113322.543,A,5702.858,N,00954.913,E,029.2,229.3,111218,000.0,W*77
$GPGGA,113325.876,5702.835,N,00954.886,E,1,12,1.0,0.0,M,0.0,M,,*60
$GPGSA,A,3,01,02,03,04,05,06,07,08,09,10,11,12,1.0,1.0,1.0*30
$GPRMC,113325.876,A,5702.835,N,00954.886,E,029.2,229.3,111218,000.0,W*7D
$GPGGA,113329.210,5702.812,N,00954.859,E,1,12,1.0,0.0,M,0.0,M,,*61
$GPGSA,A,3,01,02,03,04,05,06,07,08,09,10,11,12,1.0,1.0,1.0*30
$GPRMC,113329.210,A,5702.812,N,00954.859,E,023.3,138.5,111218,000.0,W*72
$GPGGA,113332.543,5702.793,N,00954.877,E,1,12,1.0,0.0,M,0.0,M,,*60
$GPGSA,A,3,01,02,03,04,05,06,07,08,09,10,11,12,1.0,1.0,1.0*30
$GPRMC,113332.543,A,5702.793,N,00954.877,E,023.3,138.5,111218,000.0,W*73
$GPGGA,113335.876,5702.773,N,00954.894,E,1,12,1.0,0.0,M,0.0,M,,*6F
$GPGSA,A,3,01,02,03,04,05,06,07,08,09,10,11,12,1.0,1.0,1.0*30
$GPRMC,113335.876,A,5702.773,N,00954.894,E,023.3,138.5,111218,000.0,W*7C
$GPGGA,113339.210,5702.754,N,00954.911,E,1,12,1.0,0.0,M,0.0,M,,*60
$GPGSA,A,3,01,02,03,04,05,06,07,08,09,10,11,12,1.0,1.0,1.0*30
$GPRMC,113339.210,A,5702.754,N,00954.911,E,023.3,138.5,111218,000.0,W*73
$GPGGA,113342.543,5702.735,N,00954.929,E,1,12,1.0,0.0,M,0.0,M,,*61
$GPGSA,A,3,01,02,03,04,05,06,07,08,09,10,11,12,1.0,1.0,1.0*30
$GPRMC,113342.543,A,5702.735,N,00954.929,E,023.3,138.5,111218,000.0,W*72
$GPGGA,113345.876,5702.715,N,00954.946,E,1,12,1.0,0.0,M,0.0,M,,*66
$GPGSA,A,3,01,02,03,04,05,06,07,08,09,10,11,12,1.0,1.0,1.0*30
$GPRMC,113345.876,A,5702.715,N,00954.946,E,023.3,138.5,111218,000.0,W*75
$GPGGA,113349.210,5702.696,N,00954.963,E,1,12,1.0,0.0,M,0.0,M,,*6D
$GPGSA,A,3,01,02,03,04,05,06,07,08,09,10,11,12,1.0,1.0,1.0*30
$GPRMC,113349.210,A,5702.696,N,00954.963,E,023.3,137.0,111218,000.0,W*74
$GPGGA,113352.543,5702.676,N,00954.981,E,1,12,1.0,0.0,M,0.0,M,,*64
$GPGSA,A,3,01,02,03,04,05,06,07,08,09,10,11,12,1.0,1.0,1.0*30
$GPRMC,113352.543,A,5702.676,N,00954.981,E,023.3,137.0,111218,000.0,W*7D
$GPGGA,113355.876,5702.657,N,00954.999,E,1,12,1.0,0.0,M,0.0,M,,*62
$GPGSA,A,3,01,02,03,04,05,06,07,08,09,10,11,12,1.0,1.0,1.0*30
$GPRMC,113355.876,A,5702.657,N,00954.999,E,023.3,137.0,111218,000.0,W*7B
$GPGGA,113359.210,5702.638,N,00955.017,E,1,12,1.0,0.0,M,0.0,M,,*63
$GPGSA,A,3,01,02,03,04,05,06,07,08,09,10,11,12,1.0,1.0,1.0*30
$GPRMC,113359.210,A,5702.638,N,00955.017,E,023.3,137.0,111218,000.0,W*7A
$GPGGA,113402.543,5702.619,N,00955.035,E,1,12,1.0,0.0,M,0.0,M,,*68
$GPGSA,A,3,01,02,03,04,05,06,07,08,09,10,11,12,1.0,1.0,1.0*30
$GPRMC,113402.543,A,5702.619,N,00955.035,E,023.3,137.0,111218,000.0,W*71
$GPGGA,113405.876,5702.600,N,00955.053,E,1,12,1.0,0.0,M,0.0,M,,*6C
$GPGSA,A,3,01,02,03,04,05,06,07,08,09,10,11,12,1.0,1.0,1.0*30
$GPRMC,113405.876,A,5702.600,N,00955.053,E,023.3,137.0,111218,000.0,W*75
$GPGGA,113409.210,5702.580,N,00955.071,E,1,12,1.0,0.0,M,0.0,M,,*61
$GPGSA,A,3,01,02,03,04,05,06,07,08,09,10,11,12,1.0,1.0,1.0*30
$GPRMC,113409.210,A,5702.580,N,00955.071,E,023.3,127.3,111218,000.0,W*7A
$GPGGA,113412.543,5702.563,N,00955.094,E,1,12,1.0,0.0,M,0.0,M,,*6C
$GPGSA,A,3,01,02,03,04,05,06,07,08,09,10,11,12,1.0,1.0,1.0*30
$GPRMC,113412.543,A,5702.563,N,00955.094,E,023.3,092.2,111218,000.0,W*79
$GPGGA,113415.876,5702.561,N,00955.134,E,1,12,1.0,0.0,M,0.0,M,,*69
$GPGSA,A,3,01,02,03,04,05,06,07,08,09,10,11,12,1.0,1.0,1.0*30
$GPRMC,113415.876,A,5702.561,N,00955.134,E,023.3,092.2,111218,000.0,W*7C
$GPGGA,113419.210,5702.560,N,00955.174,E,1,12,1.0,0.0,M,0.0,M,,*6A
$GPGSA,A,3,01,02,03,04,05,06,07,08,09,10,11,12,1.0,1.0,1.0*30
$GPRMC,113419.210,A,5702.560,N,00955.174,E,023.3,092.2,111218,000.0,W*7F
$GPGGA,113422.543,5702.558,N,00955.213,E,1,12,1.0,0.0,M,0.0,M,,*6A
$GPGSA,A,3,01,02,03,04,05,06,07,08,09,10,11,12,1.0,1.0,1.0*30
$GPRMC,113422.543,A,5702.558,N,00955.213,E,023.3,092.2,111218,000.0,W*7F
$GPGGA,113425.876,5702.557,N,00955.253,E,1,12,1.0,0.0,M,0.0,M,,*6D
$GPGSA,A,3,01,02,03,04,05,06,07,08,09,10,11,12,1.0,1.0,1.0*30
$GPRMC,113425.876,A,5702.557,N,00955.253,E,023.3,092.2,111218,000.0,W*78
$GPGGA,113429.210,5702.555,N,00955.292,E,1,12,1.0,0.0,M,0.0,M,,*64
$GPGSA,A,3,01,02,03,04,05,06,07,08,09,10,11,12,1.0,1.0,1.0*30
$GPRMC,113429.210,A,5702.555,N,00955.292,E,023.3,092.2,111218,000.0,W*71
$GPGGA,113432.543,5702.554,N,00955.332,E,1,12,1.0,0.0,M,0.0,M,,*65
$GPGSA,A,3,01,02,03,04,05,06,07,08,09,10,11,12,1.0,1.0,1.0*30
$GPRMC,113432.543,A,5702.554,N,00955.332,E,023.3,092.2,111218,000.0,W*70
$GPGGA,113435.876,5702.552,N,00955.371,E,1,12,1.0,0.0,M,0.0,M,,*68
$GPGSA,A,3,01,02,03,04,05,06,07,08,09,10,11,12,1.0,1.0,1.0*30
$GPRMC,113435.876,A,5702.552,N,00955.371,E,023.3,092.2,111218,000.0,W*7D
$GPGGA,113439.210,5702.551,N,00955.411,E,1,12,1.0,0.0,M,0.0,M,,*6C
$GPGSA,A,3,01,02,03,04,05,06,07,08,09,10,11,12,1.0,1.0,1.0*30
$GPRMC,113439.210,A,5702.551,N,00955.411,E,023.3,090.4,111218,000.0,W*7D
$GPGGA,113442.543,5702.550,N,00955.451,E,1,12,1.0,0.0,M,0.0,M,,*64
$GPGSA,A,3,01,02,03,04,05,06,07,08,09,10,11,12,1.0,1.0,1.0*30
$GPRMC,113442.543,A,5702.550,N,00955.451,E,023.3,090.4,111218,000.0,W*75
$GPGGA,113445.876,5702.550,N,00955.490,E,1,12,1.0,0.0,M,0.0,M,,*65
$GPGSA,A,3,01,02,03,04,05,06,07,08,09,10,11,12,1.0,1.0,1.0*30
$GPRMC,113445.876,A,5702.550,N,00955.490,E,023.3,090.4,111218,000.0,W*74
$GPGGA,113449.210,5702.550,N,00955.530,E,1,12,1.0,0.0,M,0.0,M,,*68
$GPGSA,A,3,01,02,03,04,05,06,07,08,09,10,11,12,1.0,1.0,1.0*30
$GPRMC,113449.210,A,5702.550,N,00955.530,E,023.3,090.4,111218,000.0,W*79
$GPGGA,113452.543,5702.549,N,00955.570,E,1,12,1.0,0.0,M,0.0,M,,*6F
$GPGSA,A,3,01,02,03,04,05,06,07,08,09,10,11,12,1.0,1.0,1.0*30
$GPRMC,113452.543,A,5702.549,N,00955.570,E,023.3,090.4,111218,000.0,W*7E
$GPGGA,113455.876,5702.549,N,00955.609,E,1,12,1.0,0.0,M,0.0,M,,*6E
$GPGSA,A,3,01,02,03,04,05,06,07,08,09,10,11,12,1.0,1.0,1.0*30
$GPRMC,113455.876,A,5702.549,N,00955.609,E,023.3,090.4,111218,000.0,W*7F
$GPGGA,113459.210,5702.549,N,00955.649,E,1,12,1.0,0.0,M,0.0,M,,*6C
$GPGSA,A,3,01,02,03,04,05,06,07,08,09,10,11,12,1.0,1.0,1.0*30
$GPRMC,113459.210,A,5702.549,N,00955.649,E,023.3,090.4,111218,000.0,W*7D
$GPGGA,113502.543,5702.549,N,00955.689,E,1,12,1.0,0.0,M,0.0,M,,*6E
$GPGSA,A,3,01,02,03,04,05,06,07,08,09,10,11,12,1.0,1.0,1.0*30
$GPRMC,113502.543,A,5702.549,N,00955.689,E,023.3,090.4,111218,000.0,W*7F
$GPGGA,113505.876,5702.548,N,00955.728,E,1,12,1.0,0.0,M,0.0,M,,*69
$GPGSA,A,3,01,02,03,04,05,06,07,08,09,10,11,12,1.0,1.0,1.0*30
$GPRMC,113505.876,A,5702.548,N,00955.728,E,023.3,090.4,111218,000.0,W*78
$GPGGA,113509.210,5702.548,N,00955.768,E,1,12,1.0,0.0,M,0.0,M,,*6B
$GPGSA,A,3,01,02,03,04,05,06,07,08,09,10,11,12,1.0,1.0,1.0*30
$GPRMC,113509.210,A,5702.548,N,00955.768,E,023.3,090.4,111218,000.0,W*7A
$GPGGA,113512.543,5702.548,N,00955.808,E,1,12,1.0,0.0,M,0.0,M,,*69
$GPGSA,A,3,01,02,03,04,05,06,07,08,09,10,11,12,1.0,1.0,1.0*30
$GPRMC,113512.543,A,5702.548,N,00955.808,E,035.0,146.2,111218,000.0,W*70
$GPGGA,113515.876,5702.517,N,00955.828,E,1,12,1.0,0.0,M,0.0,M,,*6D
$GPGSA,A,3,01,02,03,04,05,06,07,08,09,10,11,12,1.0,1.0,1.0*30
$GPRMC,113515.876,A,5702.517,N,00955.828,E,035.0,146.2,111218,000.0,W*74
$GPGGA,113519.210,5702.487,N,00955.849,E,1,12,1.0,0.0,M,0.0,M,,*64
$GPGSA,A,3,01,02,03,04,05,06,07,08,09,10,11,12,1.0,1.0,1.0*30
$GPRMC,113519.210,A,5702.487,N,00955.849,E,035.0,146.2,111218,000.0,W*7D
$GPGGA,113522.543,5702.457,N,00955.869,E,1,12,1.0,0.0,M,0.0,M,,*62
$GPGSA,A,3,01,02,03,04,05,06,07,08,09,10,11,12,1.0,1.0,1.0*30
$GPRMC,113522.543,A,5702.457,N,00955.869,E,035.0,146.2,111218,000.0,W*7B
$GPGGA,113525.876,5702.426,N,00955.890,E,1,12,1.0,0.0,M,0.0,M,,*6E
$GPGSA,A,3,01,02,03,04,05,06,07,08,09,10,11,12,1.0,1.0,1.0*30
$GPRMC,113525.876,A,5702.426,N,00955.890,E,035.0,157.3,111218,000.0,W*76
$GPGGA,113529.210,5702.395,N,00955.903,E,1,12,1.0,0.0,M,0.0,M,,*6C
$GPGSA,A,3,01,02,03,04,05,06,07,08,09,10,11,12,1.0,1.0,1.0*30
$GPRMC,113529.210,A,5702.395,N,00955.903,E,035.0,189.3,111218,000.0,W*77
$GPGGA,113532.543,5702.362,N,00955.897,E,1,12,1.0,0.0,M,0.0,M,,*63
$GPGSA,A,3,01,02,03,04,05,06,07,08,09,10,11,12,1.0,1.0,1.0*30
$GPRMC,113532.543,A,5702.362,N,00955.897,E,035.0,189.3,111218,000.0,W*78
$GPGGA,113535.876,5702.330,N,00955.892,E,1,12,1.0,0.0,M,0.0,M,,*6D
$GPGSA,A,3,01,02,03,04,05,06,07,08,09,10,11,12,1.0,1.0,1.0*30
$GPRMC,113535.876,A,5702.330,N,00955.892,E,035.0,189.3,111218,000.0,W*76
$GPGGA,113539.210,5702.298,N,00955.887,E,1,12,1.0,0.0,M,0.0,M,,*6C
$GPGSA,A,3,01,02,03,04,05,06,07,08,09,10,11,12,1.0,1.0,1.0*30
$GPRMC,113539.210,A,5702.298,N,00955.887,E,035.0,189.3,111218,000.0,W*77
$GPGGA,113542.543,5702.266,N,00955.881,E,1,12,1.0,0.0,M,0.0,M,,*66
$GPGSA,A,3,01,02,03,04,05,06,07,08,09,10,11,12,1.0,1.0,1.0*30
$GPRMC,113542.543,A,5702.266,N,00955.881,E,035.0,189.3,111218,000.0,W*7D
$GPGGA,113545.876,5702.233,N,00955.876,E,1,12,1.0,0.0,M,0.0,M,,*62
$GPGSA,A,3,01,02,03,04,05,06,07,08,09,10,11,12,1.0,1.0,1.0*30
$GPRMC,113545.876,A,5702.233,N,00955.876,E,035.0,189.3,111218,000.0,W*79
$GPGGA,113549.210,5702.201,N,00955.871,E,1,12,1.0,0.0,M,0.0,M,,*62
$GPGSA,A,3,01,02,03,04,05,06,07,08,09,10,11,12,1.0,1.0,1.0*30
$GPRMC,113549.210,A,5702.201,N,00955.871,E,035.0,189.3,111218,000.0,W*79
$GPGGA,113552.543,5702.169,N,00955.866,E,1,12,1.0,0.0,M,0.0,M,,*62
$GPGSA,A,3,01,02,03,04,05,06,07,08,09,10,11,12,1.0,1.0,1.0*30
$GPRMC,113552.543,A,5702.169,N,00955.866,E,035.0,189.3,111218,000.0,W*79
$GPGGA,113555.876,5702.137,N,00955.860,E,1,12,1.0,0.0,M,0.0,M,,*63
$GPGSA,A,3,01,02,03,04,05,06,07,08,09,10,11,12,1.0,1.0,1.0*30
$GPRMC,113555.876,A,5702.137,N,00955.860,E,023.3,203.0,111218,000.0,W*7E
$GPGGA,113559.210,5702.116,N,00955.851,E,1,12,1.0,0.0,M,0.0,M,,*64
$GPGSA,A,3,01,02,03,04,05,06,07,08,09,10,11,12,1.0,1.0,1.0*30
$GPRMC,113559.210,A,5702.116,N,00955.851,E,023.3,203.0,111218,000.0,W*79
$GPGGA,113602.543,5702.095,N,00955.842,E,1,12,1.0,0.0,M,0.0,M,,*60
$GPGSA,A,3,01,02,03,04,05,06,07,08,09,10,11,12,1.0,1.0,1.0*30
$GPRMC,113602.543,A,5702.095,N,00955.842,E,023.3,203.0,111218,000.0,W*7D
$GPGGA,113605.876,5702.074,N,00955.833,E,1,12,1.0,0.0,M,0.0,M,,*65
$GPGSA,A,3,01,02,03,04,05,06,07,08,09,10,11,12,1.0,1.0,1.0*30
$GPRMC,113605.876,A,5702.074,N,00955.833,E,023.3,203.0,111218,000.0,W*78
$GPGGA,113609.210,5702.052,N,00955.824,E,1,12,1.0,0.0,M,0.0,M,,*61
$GPGSA,A,3,01,02,03,04,05,06,07,08,09,10,11,12,1.0,1.0,1.0*30
$GPRMC,113609.210,A,5702.052,N,00955.824,E,023.3,203.0,111218,000.0,W*7C
$GPGGA,113612.543,5702.031,N,00955.815,E,1,12,1.0,0.0,M,0.0,M,,*6D
$GPGSA,A,3,01,02,03,04,05,06,07,08,09,10,11,12,1.0,1.0,1.0*30
$GPRMC,113612.543,A,5702.031,N,00955.815,E,023.3,203.0,111218,000.0,W*70
$GPGGA,113615.876,5702.010,N,00955.806,E,1,12,1.0,0.0,M,0.0,M,,*60
$GPGSA,A,3,01,02,03,04,05,06,07,08,09,10,11,12,1.0,1.0,1.0*30
$GPRMC,113615.876,A,5702.010,N,00955.806,E,023.3,203.0,111218,000.0,W*7D
$GPGGA,113619.210,5701.989,N,00955.797,E,1,12,1.0,0.0,M,0.0,M,,*6B
$GPGSA,A,3,01,02,03,04,05,06,07,08,09,10,11,12,1.0,1.0,1.0*30
$GPRMC,113619.210,A,5701.989,N,00955.797,E,023.3,214.7,111218,000.0,W*77
$GPGGA,113622.543,5701.969,N,00955.783,E,1,12,1.0,0.0,M,0.0,M,,*69
$GPGSA,A,3,01,02,03,04,05,06,07,08,09,10,11,12,1.0,1.0,1.0*30
$GPRMC,113622.543,A,5701.969,N,00955.783,E,023.3,214.7,111218,000.0,W*75
$GPGGA,113625.876,5701.949,N,00955.769,E,1,12,1.0,0.0,M,0.0,M,,*63
$GPGSA,A,3,01,02,03,04,05,06,07,08,09,10,11,12,1.0,1.0,1.0*30
$GPRMC,113625.876,A,5701.949,N,00955.769,E,023.3,214.7,111218,000.0,W*7F
$GPGGA,113629.210,5701.929,N,00955.755,E,1,12,1.0,0.0,M,0.0,M,,*6C
$GPGSA,A,3,01,02,03,04,05,06,07,08,09,10,11,12,1.0,1.0,1.0*30
$GPRMC,113629.210,A,5701.929,N,00955.755,E,023.3,214.7,111218,000.0,W*70
$GPGGA,113632.543,5701.909,N,00955.741,E,1,12,1.0,0.0,M,0.0,M,,*60
$GPGSA,A,3,01,02,03,04,05,06,07,08,09,10,11,12,1.0,1.0,1.0*30
$GPRMC,113632.543,A,5701.909,N,00955.741,E,023.3,214.7,111218,000.0,W*7C
$GPGGA,113635.876,5701.888,N,00955.727,E,1,12,1.0,0.0,M,0.0,M,,*64
$GPGSA,A,3,01,02,03,04,05,06,07,08,09,10,11,12,1.0,1.0,1.0*30
$GPRMC,113635.876,A,5701.888,N,00955.727,E,023.3,214.7,111218,000.0,W*78
$GPGGA,113639.210,5701.868,N,00955.713,E,1,12,1.0,0.0,M,0.0,M,,*6B
$GPGSA,A,3,01,02,03,04,05,06,07,08,09,10,11,12,1.0,1.0,1.0*30
$GPRMC,113639.210,A,5701.868,N,00955.713,E,023.3,215.2,111218,000.0,W*73
$GPGGA,113642.543,5701.848,N,00955.699,E,1,12,1.0,0.0,M,0.0,M,,*67
$GPGSA,A,3,01,02,03,04,05,06,07,08,09,10,11,12,1.0,1.0,1.0*30
$GPRMC,113642.543,A,5701.848,N,00955.699,E,023.3,215.2,111218,000.0,W*7F
$GPGGA,113645.876,5701.828,N,00955.685,E,1,12,1.0,0.0,M,0.0,M,,*60
$GPGSA,A,3,01,02,03,04,05,06,07,08,09,10,11,12,1.0,1.0,1.0*30
$GPRMC,113645.876,A,5701.828,N,00955.685,E,023.3,215.2,111218,000.0,W*78
$GPGGA,113649.210,5701.808,N,00955.670,E,1,12,1.0,0.0,M,0.0,M,,*6E
$GPGSA,A,3,01,02,03,04,05,06,07,08,09,10,11,12,1.0,1.0,1.0*30
$GPRMC,113649.210,A,5701.808,N,00955.670,E,023.3,215.2,111218,000.0,W*76
$GPGGA,113652.543,5701.788,N,00955.656,E,1,12,1.0,0.0,M,0.0,M,,*66
$GPGSA,A,3,01,02,03,04,05,06,07,08,09,10,11,12,1.0,1.0,1.0*30
$GPRMC,113652.543,A,5701.788,N,00955.656,E,023.3,215.2,111218,000.0,W*7E
$GPGGA,113655.876,5701.768,N,00955.642,E,1,12,1.0,0.0,M,0.0,M,,*61
$GPGSA,A,3,01,02,03,04,05,06,07,08,09,10,11,12,1.0,1.0,1.0*30
$GPRMC,113655.876,A,5701.768,N,00955.642,E,023.3,215.2,111218,000.0,W*79
$GPGGA,113659.210,5701.747,N,00955.628,E,1,12,1.0,0.0,M,0.0,M,,*66
$GPGSA,A,3,01,02,03,04,05,06,07,08,09,10,11,12,1.0,1.0,1.0*30
$GPRMC,113659.210,A,5701.747,N,00955.628,E,023.3,215.2,111218,000.0,W*7E
$GPGGA,113702.543,5701.727,N,00955.613,E,1,12,1.0,0.0,M,0.0,M,,*66
$GPGSA,A,3,01,02,03,04,05,06,07,08,09,10,11,12,1.0,1.0,1.0*30
$GPRMC,113702.543,A,5701.727,N,00955.613,E,023.3,215.2,111218,000.0,W*7E
$GPGGA,113705.876,5701.707,N,00955.599,E,1,12,1.0,0.0,M,0.0,M,,*69
$GPGSA,A,3,01,02,03,04,05,06,07,08,09,10,11,12,1.0,1.0,1.0*30
$GPRMC,113705.876,A,5701.707,N,00955.599,E,023.3,215.2,111218,000.0,W*71
$GPGGA,113709.210,5701.687,N,00955.585,E,1,12,1.0,0.0,M,0.0,M,,*6B
$GPGSA,A,3,01,02,03,04,05,06,07,08,09,10,11,12,1.0,1.0,1.0*30
$GPRMC,113709.210,A,5701.687,N,00955.585,E,023.3,215.2,111218,000.0,W*73
$GPGGA,113712.543,5701.667,N,00955.570,E,1,12,1.0,0.0,M,0.0,M,,*64
$GPGSA,A,3,01,02,03,04,05,06,07,08,09,10,11,12,1.0,1.0,1.0*30
$GPRMC,113712.543,A,5701.667,N,00955.570,E,023.3,215.2,111218,000.0,W*7C
$GPGGA,113715.876,5701.647,N,00955.556,E,1,12,1.0,0.0,M,0.0,M,,*6E
$GPGSA,A,3,01,02,03,04,05,06,07,08,09,10,11,12,1.0,1.0,1.0*30
$GPRMC,113715.876,A,5701.647,N,00955.556,E,058.3,196.7,111218,000.0,W*77
$GPGGA,113719.210,5701.594,N,00955.540,E,1,12,1.0,0.0,M,0.0,M,,*62
$GPGSA,A,3,01,02,03,04,05,06,07,08,09,10,11,12,1.0,1.0,1.0*30
$GPRMC,113719.210,A,5701.594,N,00955.540,E,058.3,196.7,111218,000.0,W*7B
$GPGGA,113722.543,5701.540,N,00955.524,E,1,12,1.0,0.0,M,0.0,M,,*60
$GPGSA,A,3,01,02,03,04,05,06,07,08,09,10,11,12,1.0,1.0,1.0*30
$GPRMC,113722.543,A,5701.540,N,00955.524,E,058.3,196.7,111218,000.0,W*79
$GPGGA,113725.876,5701.487,N,00955.508,E,1,12,1.0,0.0,M,0.0,M,,*68
$GPGSA,A,3,01,02,03,04,05,06,07,08,09,10,11,12,1.0,1.0,1.0*30
$GPRMC,113725.876,A,5701.487,N,00955.508,E,058.3,196.7,111218,000.0,W*71
$GPGGA,113729.210,5701.434,N,00955.492,E,1,12,1.0,0.0,M,0.0,M,,*64
$GPGSA,A,3,01,02,03,04,05,06,07,08,09,10,11,12,1.0,1.0,1.0*30
$GPRMC,113729.210,A,5701.434,N,00955.492,E,058.3,196.7,111218,000.0,W*7D
$GPGGA,113732.543,5701.381,N,00955.476,E,1,12,1.0,0.0,M,0.0,M,,*6C
$GPGSA,A,3,01,02,03,04,05,06,07,08,09,10,11,12,1.0,1.0,1.0*30
$GPRMC,113732.543,A,5701.381,N,00955.476,E,058.3,191.5,111218,000.0,W*70
$GPGGA,113735.876,5701.327,N,00955.465,E,1,12,1.0,0.0,M,0.0,M,,*6E
$GPGSA,A,3,01,02,03,04,05,06,07,08,09,10,11,12,1.0,1.0,1.0*30
$GPRMC,113735.876,A,5701.327,N,00955.465,E,058.3,191.5,111218,000.0,W*72
$GPGGA,113739.210,5701.273,N,00955.454,E,1,12,1.0,0.0,M,0.0,M,,*6A
$GPGSA,A,3,01,02,03,04,05,06,07,08,09,10,11,12,1.0,1.0,1.0*30
$GPRMC,113739.210,A,5701.273,N,00955.454,E,058.3,191.5,111218,000.0,W*76
$GPGGA,113742.543,5701.220,N,00955.443,E,1,12,1.0,0.0,M,0.0,M,,*67
$GPGSA,A,3,01,02,03,04,05,06,07,08,09,10,11,12,1.0,1.0,1.0*30
$GPRMC,113742.543,A,5701.220,N,00955.443,E,058.3,191.5,111218,000.0,W*7B
$GPGGA,113745.876,5701.166,N,00955.432,E,1,12,1.0,0.0,M,0.0,M,,*6C
$GPGSA,A,3,01,02,03,04,05,06,07,08,09,10,11,12,1.0,1.0,1.0*30
$GPRMC,113745.876,A,5701.166,N,00955.432,E,058.3,191.5,111218,000.0,W*70
$GPGGA,113749.210,5701.112,N,00955.421,E,1,12,1.0,0.0,M,0.0,M,,*6B
$GPGSA,A,3,01,02,03,04,05,06,07,08,09,10,11,12,1.0,1.0,1.0*30
$GPRMC,113749.210,A,5701.112,N,00955.421,E,058.3,191.5,111218,000.0,W*77
$GPGGA,113752.543,5701.059,N,00955.410,E,1,12,1.0,0.0,M,0.0,M,,*6C
$GPGSA,A,3,01,02,03,04,05,06,07,08,09,10,11,12,1.0,1.0,1.0*30
$GPRMC,113752.543,A,5701.059,N,00955.410,E,058.3,189.1,111218,000.0,W*7D
$GPGGA,113755.876,5701.005,N,00955.401,E,1,12,1.0,0.0,M,0.0,M,,*69
$GPGSA,A,3,01,02,03,04,05,06,07,08,09,10,11,12,1.0,1.0,1.0*30
$GPRMC,113755.876,A,5701.005,N,00955.401,E,058.3,189.1,111218,000.0,W*78
$GPGGA,113759.210,5700.951,N,00955.392,E,1,12,1.0,0.0,M,0.0,M,,*6B
$GPGSA,A,3,01,02,03,04,05,06,07,08,09,10,11,12,1.0,1.0,1.0*30
$GPRMC,113759.210,A,5700.951,N,00955.392,E,058.3,189.1,111218,000.0,W*7A
$GPGGA,113802.543,5700.898,N,00955.384,E,1,12,1.0,0.0,M,0.0,M,,*68
$GPGSA,A,3,01,02,03,04,05,06,07,08,09,10,11,12,1.0,1.0,1.0*30
$GPRMC,113802.543,A,5700.898,N,00955.384,E,058.3,189.1,111218,000.0,W*79
$GPGGA,113805.876,5700.844,N,00955.375,E,1,12,1.0,0.0,M,0.0,M,,*6B
$GPGSA,A,3,01,02,03,04,05,06,07,08,09,10,11,12,1.0,1.0,1.0*30
$GPRMC,113805.876,A,5700.844,N,00955.375,E,058.3,189.1,111218,000.0,W*7A
$GPGGA,113809.210,5700.790,N,00955.366,E,1,12,1.0,0.0,M,0.0,M,,*69
$GPGSA,A,3,01,02,03,04,05,06,07,08,09,10,11,12,1.0,1.0,1.0*30
$GPRMC,113809.210,A,5700.790,N,00955.366,E,058.3,189.1,111218,000.0,W*78
$GPGGA,113812.543,5700.736,N,00955.358,E,1,12,1.0,0.0,M,0.0,M,,*63
$GPGSA,A,3,01,02,03,04,05,06,07,08,09,10,11,12,1.0,1.0,1.0*30
$GPRMC,113812.543,A,5700.736,N,00955.358,E,058.3,189.1,111218,000.0,W*72
$GPGGA,113815.876,5700.683,N,00955.349,E,1,12,1.0,0.0,M,0.0,M,,*60
$GPGSA,A,3,01,02,03,04,05,06,07,08,09,10,11,12,1.0,1.0,1.0*30
$GPRMC,113815.876,A,5700.683,N,00955.349,E,064.1,249.3,111218,000.0,W*71
$GPGGA,113819.210,5700.649,N,00955.259,E,1,12,1.0,0.0,M,0.0,M,,*60
$GPGSA,A,3,01,02,03,04,05,06,07,08,09,10,11,12,1.0,1.0,1.0*30
$GPRMC,113819.210,A,5700.649,N,00955.259,E,064.1,249.3,111218,000.0,W*71
$GPGGA,113822.543,5700.615,N,00955.170,E,1,12,1.0,0.0,M,0.0,M,,*68
$GPGSA,A,3,01,02,03,04,05,06,07,08,09,10,11,12,1.0,1.0,1.0*30
$GPRMC,113822.543,A,5700.615,N,00955.170,E,064.1,249.3,111218,000.0,W*79
$GPGGA,113825.876,5700.581,N,00955.080,E,1,12,1.0,0.0,M,0.0,M,,*64
$GPGSA,A,3,01,02,03,04,05,06,07,08,09,10,11,12,1.0,1.0,1.0*30
$GPRMC,113825.876,A,5700.581,N,00955.080,E,064.1,249.3,111218,000.0,W*75
$GPGGA,113829.210,5700.548,N,00954.990,E,1,12,1.0,0.0,M,0.0,M,,*6E
$GPGSA,A,3,01,02,03,04,05,06,07,08,09,10,11,12,1.0,1.0,1.0*30
$GPRMC,113829.210,A,5700.548,N,00954.990,E,064.1,236.0,111218,000.0,W*74
$GPGGA,113832.543,5700.502,N,00954.922,E,1,12,1.0,0.0,M,0.0,M,,*62
$GPGSA,A,3,01,02,03,04,05,06,07,08,09,10,11,12,1.0,1.0,1.0*30
$GPRMC,113832.543,A,5700.502,N,00954.922,E,064.1,236.0,111218,000.0,W*78
$GPGGA,113835.876,5700.455,N,00954.853,E,1,12,1.0,0.0,M,0.0,M,,*6A
$GPGSA,A,3,01,02,03,04,05,06,07,08,09,10,11,12,1.0,1.0,1.0*30
$GPRMC,113835.876,A,5700.455,N,00954.853,E,064.1,236.0,111218,000.0,W*70
$GPGGA,113839.210,5700.409,N,00954.784,E,1,12,1.0,0.0,M,0.0,M,,*60
$GPGSA,A,3,01,02,03,04,05,06,07,08,09,10,11,12,1.0,1.0,1.0*30
$GPRMC,113839.210,A,5700.409,N,00954.784,E,064.1,236.0,111218,000.0,W*7A
$GPGGA,113842.543,5700.363,N,00954.716,E,1,12,1.0,0.0,M,0.0,M,,*6D
$GPGSA,A,3,01,02,03,04,05,06,07,08,09,10,11,12,1.0,1.0,1.0*30
$GPRMC,113842.543,A,5700.363,N,00954.716,E,064.1,230.4,111218,000.0,W*75
$GPGGA,113845.876,5700.314,N,00954.655,E,1,12,1.0,0.0,M,0.0,M,,*67
$GPGSA,A,3,01,02,03,04,05,06,07,08,09,10,11,12,1.0,1.0,1.0*30
$GPRMC,113845.876,A,5700.314,N,00954.655,E,064.1,230.4,111218,000.0,W*7F
$GPGGA,113849.210,5700.264,N,00954.595,E,1,12,1.0,0.0,M,0.0,M,,*68
$GPGSA,A,3,01,02,03,04,05,06,07,08,09,10,11,12,1.0,1.0,1.0*30
$GPRMC,113849.210,A,5700.264,N,00954.595,E,064.1,210.0,111218,000.0,W*76
$GPGGA,113852.543,5700.208,N,00954.562,E,1,12,1.0,0.0,M,0.0,M,,*61
$GPGSA,A,3,01,02,03,04,05,06,07,08,09,10,11,12,1.0,1.0,1.0*30
$GPRMC,113852.543,A,5700.208,N,00954.562,E,064.1,210.0,111218,000.0,W*7F
$GPGGA,113855.876,5700.151,N,00954.530,E,1,12,1.0,0.0,M,0.0,M,,*65
$GPGSA,A,3,01,02,03,04,05,06,07,08,09,10,11,12,1.0,1.0,1.0*30
$GPRMC,113855.876,A,5700.151,N,00954.530,E,064.1,210.0,111218,000.0,W*7B
$GPGGA,113859.210,5700.094,N,00954.497,E,1,12,1.0,0.0,M,0.0,M,,*67
$GPGSA,A,3,01,02,03,04,05,06,07,08,09,10,11,12,1.0,1.0,1.0*30
$GPRMC,113859.210,A,5700.094,N,00954.497,E,064.1,210.0,111218,000.0,W*79
$GPGGA,113902.543,5700.038,N,00954.464,E,1,12,1.0,0.0,M,0.0,M,,*63
$GPGSA,A,3,01,02,03,04,05,06,07,08,09,10,11,12,1.0,1.0,1.0*30
$GPRMC,113902.543,A,5700.038,N,00954.464,E,064.1,210.0,111218,000.0,W*7D
$GPGGA,113905.876,5659.981,N,00954.431,E,1,12,1.0,0.0,M,0.0,M,,*69
$GPGSA,A,3,01,02,03,04,05,06,07,08,09,10,11,12,1.0,1.0,1.0*30
$GPRMC,113905.876,A,5659.981,N,00954.431,E,064.1,210.0,111218,000.0,W*77
$GPGGA,113909.210,5659.925,N,00954.398,E,1,12,1.0,0.0,M,0.0,M,,*65
$GPGSA,A,3,01,02,03,04,05,06,07,08,09,10,11,12,1.0,1.0,1.0*30
$GPRMC,113909.210,A,5659.925,N,00954.398,E,064.1,215.9,111218,000.0,W*77
$GPGGA,113912.543,5659.869,N,00954.358,E,1,12,1.0,0.0,M,0.0,M,,*6B
$GPGSA,A,3,01,02,03,04,05,06,07,08,09,10,11,12,1.0,1.0,1.0*30
$GPRMC,113912.543,A,5659.869,N,00954.358,E,064.1,215.9,111218,000.0,W*79
$GPGGA,113915.876,5659.814,N,00954.318,E,1,12,1.0,0.0,M,0.0,M,,*69
$GPGSA,A,3,01,02,03,04,05,06,07,08,09,10,11,12,1.0,1.0,1.0*30
$GPRMC,113915.876,A,5659.814,N,00954.318,E,064.1,215.9,111218,000.0,W*7B
$GPGGA,113919.210,5659.759,N,00954.278,E,1,12,1.0,0.0,M,0.0,M,,*6E
$GPGSA,A,3,01,02,03,04,05,06,07,08,09,10,11,12,1.0,1.0,1.0*30
$GPRMC,113919.210,A,5659.759,N,00954.278,E,064.1,215.9,111218,000.0,W*7C
$GPGGA,113922.543,5659.704,N,00954.237,E,1,12,1.0,0.0,M,0.0,M,,*64
$GPGSA,A,3,01,02,03,04,05,06,07,08,09,10,11,12,1.0,1.0,1.0*30
$GPRMC,113922.543,A,5659.704,N,00954.237,E,064.1,234.8,111218,000.0,W*74
$GPGGA,113925.876,5659.657,N,00954.171,E,1,12,1.0,0.0,M,0.0,M,,*6E
$GPGSA,A,3,01,02,03,04,05,06,07,08,09,10,11,12,1.0,1.0,1.0*30
$GPRMC,113925.876,A,5659.657,N,00954.171,E,064.1,234.8,111218,000.0,W*7E
$GPGGA,113929.210,5659.610,N,00954.104,E,1,12,1.0,0.0,M,0.0,M,,*69
$GPGSA,A,3,01,02,03,04,05,06,07,08,09,10,11,12,1.0,1.0,1.0*30
$GPRMC,113929.210,A,5659.610,N,00954.104,E,064.1,234.8,111218,000.0,W*79
$GPGGA,113932.543,5659.563,N,00954.037,E,1,12,1.0,0.0,M,0.0,M,,*64
$GPGSA,A,3,01,02,03,04,05,06,07,08,09,10,11,12,1.0,1.0,1.0*30
$GPRMC,113932.543,A,5659.563,N,00954.037,E,064.1,244.7,111218,000.0,W*7C
$GPGGA,113935.876,5659.525,N,00953.955,E,1,12,1.0,0.0,M,0.0,M,,*60
$GPGSA,A,3,01,02,03,04,05,06,07,08,09,10,11,12,1.0,1.0,1.0*30
$GPRMC,113935.876,A,5659.525,N,00953.955,E,064.1,244.7,111218,000.0,W*78
$GPGGA,113939.210,5659.486,N,00953.872,E,1,12,1.0,0.0,M,0.0,M,,*6A
$GPGSA,A,3,01,02,03,04,05,06,07,08,09,10,11,12,1.0,1.0,1.0*30
$GPRMC,113939.210,A,5659.486,N,00953.872,E,064.1,244.7,111218,000.0,W*72
$GPGGA,113942.543,5659.447,N,00953.790,E,1,12,1.0,0.0,M,0.0,M,,*69
$GPGSA,A,3,01,02,03,04,05,06,07,08,09,10,11,12,1.0,1.0,1.0*30
$GPRMC,113942.543,A,5659.447,N,00953.790,E,064.1,249.6,111218,000.0,W*7D
$GPGGA,113945.876,5659.413,N,00953.700,E,1,12,1.0,0.0,M,0.0,M,,*6D
$GPGSA,A,3,01,02,03,04,05,06,07,08,09,10,11,12,1.0,1.0,1.0*30
$GPRMC,113945.876,A,5659.413,N,00953.700,E,064.1,249.6,111218,000.0,W*79
$GPGGA,113949.210,5659.380,N,00953.610,E,1,12,1.0,0.0,M,0.0,M,,*66
$GPGSA,A,3,01,02,03,04,05,06,07,08,09,10,11,12,1.0,1.0,1.0*30
$GPRMC,113949.210,A,5659.380,N,00953.610,E,064.1,249.6,111218,000.0,W*72
$GPGGA,113952.543,5659.347,N,00953.519,E,1,12,1.0,0.0,M,0.0,M,,*6C
$GPGSA,A,3,01,02,03,04,05,06,07,08,09,10,11,12,1.0,1.0,1.0*30
$GPRMC,113952.543,A,5659.347,N,00953.519,E,064.1,249.6,111218,000.0,W*78
$GPGGA,113955.876,5659.313,N,00953.429,E,1,12,1.0,0.0,M,0.0,M,,*63
$GPGSA,A,3,01,02,03,04,05,06,07,08,09,10,11,12,1.0,1.0,1.0*30
$GPRMC,113955.876,A,5659.313,N,00953.429,E,064.1,246.6,111218,000.0,W*78
$GPGGA,113959.210,5659.277,N,00953.344,E,1,12,1.0,0.0,M,0.0,M,,*6A
$GPGSA,A,3,01,02,03,04,05,06,07,08,09,10,11,12,1.0,1.0,1.0*30
$GPRMC,113959.210,A,5659.277,N,00953.344,E,064.1,246.6,111218,000.0,W*71
$GPGGA,114002.543,5659.240,N,00953.258,E,1,12,1.0,0.0,M,0.0,M,,*63
$GPGSA,A,3,01,02,03,04,05,06,07,08,09,10,11,12,1.0,1.0,1.0*30
$GPRMC,114002.543,A,5659.240,N,00953.258,E,064.1,246.6,111218,000.0,W*78
$GPGGA,114005.876,5659.203,N,00953.173,E,1,12,1.0,0.0,M,0.0,M,,*62
$GPGSA,A,3,01,02,03,04,05,06,07,08,09,10,11,12,1.0,1.0,1.0*30
$GPRMC,114005.876,A,5659.203,N,00953.173,E,064.1,246.6,111218,000.0,W*79
$GPGGA,114009.210,5659.166,N,00953.087,E,1,12,1.0,0.0,M,0.0,M,,*6E
$GPGSA,A,3,01,02,03,04,05,06,07,08,09,10,11,12,1.0,1.0,1.0*30
$GPRMC,114009.210,A,5659.166,N,00953.087,E,064.1,227.8,111218,000.0,W*7C
$GPGGA,114012.543,5659.115,N,00953.031,E,1,12,1.0,0.0,M,0.0,M,,*6C
$GPGSA,A,3,01,02,03,04,05,06,07,08,09,10,11,12,1.0,1.0,1.0*30
$GPRMC,114012.543,A,5659.115,N,00953.031,E,064.1,227.8,111218,000.0,W*7E
$GPGGA,114015.876,5659.065,N,00952.975,E,1,12,1.0,0.0,M,0.0,M,,*6E
$GPGSA,A,3,01,02,03,04,05,06,07,08,09,10,11,12,1.0,1.0,1.0*30
$GPRMC,114015.876,A,5659.065,N,00952.975,E,064.1,227.8,111218,000.0,W*7C
$GPGGA,114019.210,5659.014,N,00952.918,E,1,12,1.0,0.0,M,0.0,M,,*65
$GPGSA,A,3,01,02,03,04,05,06,07,08,09,10,11,12,1.0,1.0,1.0*30
$GPRMC,114019.210,A,5659.014,N,00952.918,E,064.1,227.8,111218,000.0,W*77
$GPGGA,114022.543,5658.963,N,00952.862,E,1,12,1.0,0.0,M,0.0,M,,*68
$GPGSA,A,3,01,02,03,04,05,06,07,08,09,10,11,12,1.0,1.0,1.0*30
$GPRMC,114022.543,A,5658.963,N,00952.862,E,064.1,209.7,111218,000.0,W*79
$GPGGA,114025.876,5658.906,N,00952.829,E,1,12,1.0,0.0,M,0.0,M,,*68
$GPGSA,A,3,01,02,03,04,05,06,07,08,09,10,11,12,1.0,1.0,1.0*30
$GPRMC,114025.876,A,5658.906,N,00952.829,E,064.1,209.7,111218,000.0,W*79
$GPGGA,114029.210,5658.850,N,00952.797,E,1,12,1.0,0.0,M,0.0,M,,*66
$GPGSA,A,3,01,02,03,04,05,06,07,08,09,10,11,12,1.0,1.0,1.0*30
$GPRMC,114029.210,A,5658.850,N,00952.797,E,064.1,197.0,111218,000.0,W*74
$GPGGA,114032.543,5658.791,N,00952.779,E,1,12,1.0,0.0,M,0.0,M,,*6F
$GPGSA,A,3,01,02,03,04,05,06,07,08,09,10,11,12,1.0,1.0,1.0*30
$GPRMC,114032.543,A,5658.791,N,00952.779,E,064.1,197.0,111218,000.0,W*7D
$GPGGA,114035.876,5658.733,N,00952.761,E,1,12,1.0,0.0,M,0.0,M,,*62
$GPGSA,A,3,01,02,03,04,05,06,07,08,09,10,11,12,1.0,1.0,1.0*30
$GPRMC,114035.876,A,5658.733,N,00952.761,E,064.1,190.9,111218,000.0,W*7E
$GPGGA,114039.210,5658.674,N,00952.749,E,1,12,1.0,0.0,M,0.0,M,,*6C
$GPGSA,A,3,01,02,03,04,05,06,07,08,09,10,11,12,1.0,1.0,1.0*30
$GPRMC,114039.210,A,5658.674,N,00952.749,E,064.1,190.9,111218,000.0,W*70
$GPGGA,114042.543,5658.615,N,00952.738,E,1,12,1.0,0.0,M,0.0,M,,*60
$GPGSA,A,3,01,02,03,04,05,06,07,08,09,10,11,12,1.0,1.0,1.0*30
$GPRMC,114042.543,A,5658.615,N,00952.738,E,064.1,190.9,111218,000.0,W*7C
$GPGGA,114045.876,5658.556,N,00952.727,E,1,12,1.0,0.0,M,0.0,M,,*66
$GPGSA,A,3,01,02,03,04,05,06,07,08,09,10,11,12,1.0,1.0,1.0*30
$GPRMC,114045.876,A,5658.556,N,00952.727,E,064.1,190.9,111218,000.0,W*7A
$GPGGA,114049.210,5658.497,N,00952.715,E,1,12,1.0,0.0,M,0.0,M,,*6D
$GPGSA,A,3,01,02,03,04,05,06,07,08,09,10,11,12,1.0,1.0,1.0*30
$GPRMC,114049.210,A,5658.497,N,00952.715,E,064.1,190.9,111218,000.0,W*71
$GPGGA,114052.543,5658.438,N,00952.704,E,1,12,1.0,0.0,M,0.0,M,,*63
$GPGSA,A,3,01,02,03,04,05,06,07,08,09,10,11,12,1.0,1.0,1.0*30
$GPRMC,114052.543,A,5658.438,N,00952.704,E,064.1,190.9,111218,000.0,W*7F
$GPGGA,114055.876,5658.379,N,00952.692,E,1,12,1.0,0.0,M,0.0,M,,*63
$GPGSA,A,3,01,02,03,04,05,06,07,08,09,10,11,12,1.0,1.0,1.0*30
$GPRMC,114055.876,A,5658.379,N,00952.692,E,064.1,190.9,111218,000.0,W*7F
$GPGGA,114059.210,5658.319,N,00952.681,E,1,12,1.0,0.0,M,0.0,M,,*61
$GPGSA,A,3,01,02,03,04,05,06,07,08,09,10,11,12,1.0,1.0,1.0*30
$GPRMC,114059.210,A,5658.319,N,00952.681,E,064.1,190.9,111218,000.0,W*7D
$GPGGA,114102.543,5658.260,N,00952.669,E,1,12,1.0,0.0,M,0.0,M,,*66
$GPGSA,A,3,01,02,03,04,05,06,07,08,09,10,11,12,1.0,1.0,1.0*30
$GPRMC,114102.543,A,5658.260,N,00952.669,E,064.1,193.0,111218,000.0,W*70
$GPGGA,114105.876,5658.202,N,00952.656,E,1,12,1.0,0.0,M,0.0,M,,*62
$GPGSA,A,3,01,02,03,04,05,06,07,08,09,10,11,12,1.0,1.0,1.0*30
$GPRMC,114105.876,A,5658.202,N,00952.656,E,064.1,193.0,111218,000.0,W*74
$GPGGA,114109.210,5658.143,N,00952.642,E,1,12,1.0,0.0,M,0.0,M,,*67
$GPGSA,A,3,01,02,03,04,05,06,07,08,09,10,11,12,1.0,1.0,1.0*30
$GPRMC,114109.210,A,5658.143,N,00952.642,E,064.1,193.0,111218,000.0,W*71
$GPGGA,114112.543,5658.084,N,00952.628,E,1,12,1.0,0.0,M,0.0,M,,*6A
$GPGSA,A,3,01,02,03,04,05,06,07,08,09,10,11,12,1.0,1.0,1.0*30
$GPRMC,114112.543,A,5658.084,N,00952.628,E,064.1,193.0,111218,000.0,W*7C
$GPGGA,114115.876,5658.025,N,00952.615,E,1,12,1.0,0.0,M,0.0,M,,*63
$GPGSA,A,3,01,02,03,04,05,06,07,08,09,10,11,12,1.0,1.0,1.0*30
$GPRMC,114115.876,A,5658.025,N,00952.615,E,064.1,193.0,111218,000.0,W*75
$GPGGA,114119.210,5657.966,N,00952.601,E,1,12,1.0,0.0,M,0.0,M,,*61
$GPGSA,A,3,01,02,03,04,05,06,07,08,09,10,11,12,1.0,1.0,1.0*30
$GPRMC,114119.210,A,5657.966,N,00952.601,E,064.1,198.6,111218,000.0,W*7A
$GPGGA,114122.543,5657.908,N,00952.581,E,1,12,1.0,0.0,M,0.0,M,,*6B
$GPGSA,A,3,01,02,03,04,05,06,07,08,09,10,11,12,1.0,1.0,1.0*30
$GPRMC,114122.543,A,5657.908,N,00952.581,E,064.1,198.6,111218,000.0,W*70
$GPGGA,114125.876,5657.849,N,00952.561,E,1,12,1.0,0.0,M,0.0,M,,*6D
$GPGSA,A,3,01,02,03,04,05,06,07,08,09,10,11,12,1.0,1.0,1.0*30
$GPRMC,114125.876,A,5657.849,N,00952.561,E,064.1,198.6,111218,000.0,W*76
$GPGGA,114129.210,5657.791,N,00952.542,E,1,12,1.0,0.0,M,0.0,M,,*60
$GPGSA,A,3,01,02,03,04,05,06,07,08,09,10,11,12,1.0,1.0,1.0*30
$GPRMC,114129.210,A,5657.791,N,00952.542,E,064.1,211.2,111218,000.0,W*7D
$GPGGA,114132.543,5657.735,N,00952.507,E,1,12,1.0,0.0,M,0.0,M,,*64
$GPGSA,A,3,01,02,03,04,05,06,07,08,09,10,11,12,1.0,1.0,1.0*30
$GPRMC,114132.543,A,5657.735,N,00952.507,E,064.1,211.2,111218,000.0,W*79
$GPGGA,114135.876,5657.678,N,00952.473,E,1,12,1.0,0.0,M,0.0,M,,*62
$GPGSA,A,3,01,02,03,04,05,06,07,08,09,10,11,12,1.0,1.0,1.0*30
$GPRMC,114135.876,A,5657.678,N,00952.473,E,064.1,211.2,111218,000.0,W*7F
$GPGGA,114139.210,5657.622,N,00952.439,E,1,12,1.0,0.0,M,0.0,M,,*65
$GPGSA,A,3,01,02,03,04,05,06,07,08,09,10,11,12,1.0,1.0,1.0*30
$GPRMC,114139.210,A,5657.622,N,00952.439,E,064.1,219.0,111218,000.0,W*72
$GPGGA,114142.543,5657.568,N,00952.395,E,1,12,1.0,0.0,M,0.0,M,,*64
$GPGSA,A,3,01,02,03,04,05,06,07,08,09,10,11,12,1.0,1.0,1.0*30
$GPRMC,114142.543,A,5657.568,N,00952.395,E,064.1,219.0,111218,000.0,W*73
$GPGGA,114145.876,5657.513,N,00952.351,E,1,12,1.0,0.0,M,0.0,M,,*6C
$GPGSA,A,3,01,02,03,04,05,06,07,08,09,10,11,12,1.0,1.0,1.0*30
$GPRMC,114145.876,A,5657.513,N,00952.351,E,064.1,219.0,111218,000.0,W*7B
$GPGGA,114149.210,5657.459,N,00952.307,E,1,12,1.0,0.0,M,0.0,M,,*66
$GPGSA,A,3,01,02,03,04,05,06,07,08,09,10,11,12,1.0,1.0,1.0*30
$GPRMC,114149.210,A,5657.459,N,00952.307,E,064.1,219.0,111218,000.0,W*71
$GPGGA,114152.543,5657.405,N,00952.262,E,1,12,1.0,0.0,M,0.0,M,,*66
$GPGSA,A,3,01,02,03,04,05,06,07,08,09,10,11,12,1.0,1.0,1.0*30
$GPRMC,114152.543,A,5657.405,N,00952.262,E,064.1,219.0,111218,000.0,W*71
$GPGGA,114155.876,5657.351,N,00952.218,E,1,12,1.0,0.0,M,0.0,M,,*61
$GPGSA,A,3,01,02,03,04,05,06,07,08,09,10,11,12,1.0,1.0,1.0*30
$GPRMC,114155.876,A,5657.351,N,00952.218,E,064.1,219.0,111218,000.0,W*76
$GPGGA,114159.210,5657.296,N,00952.174,E,1,12,1.0,0.0,M,0.0,M,,*64
$GPGSA,A,3,01,02,03,04,05,06,07,08,09,10,11,12,1.0,1.0,1.0*30
$GPRMC,114159.210,A,5657.296,N,00952.174,E,064.1,219.0,111218,000.0,W*73
$GPGGA,114202.543,5657.242,N,00952.130,E,1,12,1.0,0.0,M,0.0,M,,*61
$GPGSA,A,3,01,02,03,04,05,06,07,08,09,10,11,12,1.0,1.0,1.0*30
$GPRMC,114202.543,A,5657.242,N,00952.130,E,064.1,219.0,111218,000.0,W*76
$GPGGA,114205.876,5657.188,N,00952.086,E,1,12,1.0,0.0,M,0.0,M,,*64
$GPGSA,A,3,01,02,03,04,05,06,07,08,09,10,11,12,1.0,1.0,1.0*30
$GPRMC,114205.876,A,5657.188,N,00952.086,E,064.1,219.0,111218,000.0,W*73
$GPGGA,114209.210,5657.134,N,00952.042,E,1,12,1.0,0.0,M,0.0,M,,*6D
$GPGSA,A,3,01,02,03,04,05,06,07,08,09,10,11,12,1.0,1.0,1.0*30
$GPRMC,114209.210,A,5657.134,N,00952.042,E,064.1,219.0,111218,000.0,W*7A
$GPGGA,114212.543,5657.079,N,00951.998,E,1,12,1.0,0.0,M,0.0,M,,*63
$GPGSA,A,3,01,02,03,04,05,06,07,08,09,10,11,12,1.0,1.0,1.0*30
$GPRMC,114212.543,A,5657.079,N,00951.998,E,064.1,219.0,111218,000.0,W*74
$GPGGA,114215.876,5657.025,N,00951.953,E,1,12,1.0,0.0,M,0.0,M,,*61
$GPGSA,A,3,01,02,03,04,05,06,07,08,09,10,11,12,1.0,1.0,1.0*30
$GPRMC,114215.876,A,5657.025,N,00951.953,E,064.1,219.0,111218,000.0,W*76
$GPGGA,114219.210,5656.971,N,00951.909,E,1,12,1.0,0.0,M,0.0,M,,*61
$GPGSA,A,3,01,02,03,04,05,06,07,08,09,10,11,12,1.0,1.0,1.0*30
$GPRMC,114219.210,A,5656.971,N,00951.909,E,064.1,219.0,111218,000.0,W*76
$GPGGA,114222.543,5656.917,N,00951.865,E,1,12,1.0,0.0,M,0.0,M,,*63
$GPGSA,A,3,01,02,03,04,05,06,07,08,09,10,11,12,1.0,1.0,1.0*30
$GPRMC,114222.543,A,5656.917,N,00951.865,E,064.1,219.0,111218,000.0,W*74
$GPGGA,114225.876,5656.862,N,00951.821,E,1,12,1.0,0.0,M,0.0,M,,*6C
$GPGSA,A,3,01,02,03,04,05,06,07,08,09,10,11,12,1.0,1.0,1.0*30
$GPRMC,114225.876,A,5656.862,N,00951.821,E,064.1,219.0,111218,000.0,W*7B
$GPGGA,114229.210,5656.808,N,00951.777,E,1,12,1.0,0.0,M,0.0,M,,*6A
$GPGSA,A,3,01,02,03,04,05,06,07,08,09,10,11,12,1.0,1.0,1.0*30
$GPRMC,114229.210,A,5656.808,N,00951.777,E,064.1,222.6,111218,000.0,W*73
$GPGGA,114232.543,5656.755,N,00951.728,E,1,12,1.0,0.0,M,0.0,M,,*6C
$GPGSA,A,3,01,02,03,04,05,06,07,08,09,10,11,12,1.0,1.0,1.0*30
$GPRMC,114232.543,A,5656.755,N,00951.728,E,064.1,222.6,111218,000.0,W*75
$GPGGA,114235.876,5656.702,N,00951.679,E,1,12,1.0,0.0,M,0.0,M,,*67
$GPGSA,A,3,01,02,03,04,05,06,07,08,09,10,11,12,1.0,1.0,1.0*30
$GPRMC,114235.876,A,5656.702,N,00951.679,E,064.1,222.6,111218,000.0,W*7E
$GPGGA,114239.210,5656.649,N,00951.630,E,1,12,1.0,0.0,M,0.0,M,,*62
$GPGSA,A,3,01,02,03,04,05,06,07,08,09,10,11,12,1.0,1.0,1.0*30
$GPRMC,114239.210,A,5656.649,N,00951.630,E,064.1,222.6,111218,000.0,W*7B
$GPGGA,114242.543,5656.596,N,00951.581,E,1,12,1.0,0.0,M,0.0,M,,*67
$GPGSA,A,3,01,02,03,04,05,06,07,08,09,10,11,12,1.0,1.0,1.0*30
$GPRMC,114242.543,A,5656.596,N,00951.581,E,064.1,222.6,111218,000.0,W*7E
$GPGGA,114245.876,5656.543,N,00951.532,E,1,12,1.0,0.0,M,0.0,M,,*6B
$GPGSA,A,3,01,02,03,04,05,06,07,08,09,10,11,12,1.0,1.0,1.0*30
$GPRMC,114245.876,A,5656.543,N,00951.532,E,064.1,222.6,111218,000.0,W*72
$GPGGA,114249.210,5656.490,N,00951.483,E,1,12,1.0,0.0,M,0.0,M,,*69
$GPGSA,A,3,01,02,03,04,05,06,07,08,09,10,11,12,1.0,1.0,1.0*30
$GPRMC,114249.210,A,5656.490,N,00951.483,E,064.1,222.6,111218,000.0,W*70
$GPGGA,114252.543,5656.437,N,00951.434,E,1,12,1.0,0.0,M,0.0,M,,*63
$GPGSA,A,3,01,02,03,04,05,06,07,08,09,10,11,12,1.0,1.0,1.0*30
$GPRMC,114252.543,A,5656.437,N,00951.434,E,064.1,222.6,111218,000.0,W*7A
$GPGGA,114255.876,5656.384,N,00951.385,E,1,12,1.0,0.0,M,0.0,M,,*6D
$GPGSA,A,3,01,02,03,04,05,06,07,08,09,10,11,12,1.0,1.0,1.0*30
$GPRMC,114255.876,A,5656.384,N,00951.385,E,064.1,222.6,111218,000.0,W*74
$GPGGA,114259.210,5656.331,N,00951.337,E,1,12,1.0,0.0,M,0.0,M,,*6C
$GPGSA,A,3,01,02,03,04,05,06,07,08,09,10,11,12,1.0,1.0,1.0*30
$GPRMC,114259.210,A,5656.331,N,00951.337,E,064.1,222.6,111218,000.0,W*75
$GPGGA,114302.543,5656.278,N,00951.288,E,1,12,1.0,0.0,M,0.0,M,,*6B
$GPGSA,A,3,01,02,03,04,05,06,07,08,09,10,11,12,1.0,1.0,1.0*30
$GPRMC,114302.543,A,5656.278,N,00951.288,E,064.1,218.4,111218,000.0,W*79
$GPGGA,114305.876,5656.223,N,00951.244,E,1,12,1.0,0.0,M,0.0,M,,*69
$GPGSA,A,3,01,02,03,04,05,06,07,08,09,10,11,12,1.0,1.0,1.0*30
$GPRMC,114305.876,A,5656.223,N,00951.244,E,064.1,218.4,111218,000.0,W*7B
$GPGGA,114309.210,5656.169,N,00951.201,E,1,12,1.0,0.0,M,0.0,M,,*63
$GPGSA,A,3,01,02,03,04,05,06,07,08,09,10,11,12,1.0,1.0,1.0*30
$GPRMC,114309.210,A,5656.169,N,00951.201,E,064.1,218.4,111218,000.0,W*71
$GPGGA,114312.543,5656.115,N,00951.158,E,1,12,1.0,0.0,M,0.0,M,,*6C
$GPGSA,A,3,01,02,03,04,05,06,07,08,09,10,11,12,1.0,1.0,1.0*30
$GPRMC,114312.543,A,5656.115,N,00951.158,E,064.1,218.4,111218,000.0,W*7E
$GPGGA,114315.876,5656.060,N,00951.114,E,1,12,1.0,0.0,M,0.0,M,,*6B
$GPGSA,A,3,01,02,03,04,05,06,07,08,09,10,11,12,1.0,1.0,1.0*30
$GPRMC,114315.876,A,5656.060,N,00951.114,E,075.8,212.3,111218,000.0,W*7D
$GPGGA,114319.210,5655.994,N,00951.072,E,1,12,1.0,0.0,M,0.0,M,,*6D
$GPGSA,A,3,01,02,03,04,05,06,07,08,09,10,11,12,1.0,1.0,1.0*30
$GPRMC,114319.210,A,5655.994,N,00951.072,E,075.8,212.3,111218,000.0,W*7B
$GPGGA,114322.543,5655.928,N,00951.030,E,1,12,1.0,0.0,M,0.0,M,,*65
$GPGSA,A,3,01,02,03,04,05,06,07,08,09,10,11,12,1.0,1.0,1.0*30
$GPRMC,114322.543,A,5655.928,N,00951.030,E,075.8,212.3,111218,000.0,W*73
$GPGGA,114325.876,5655.861,N,00950.988,E,1,12,1.0,0.0,M,0.0,M,,*6E
$GPGSA,A,3,01,02,03,04,05,06,07,08,09,10,11,12,1.0,1.0,1.0*30
$GPRMC,114325.876,A,5655.861,N,00950.988,E,075.8,212.3,111218,000.0,W*78
$GPGGA,114329.210,5655.795,N,00950.946,E,1,12,1.0,0.0,M,0.0,M,,*6E
$GPGSA,A,3,01,02,03,04,05,06,07,08,09,10,11,12,1.0,1.0,1.0*30
$GPRMC,114329.210,A,5655.795,N,00950.946,E,075.8,212.3,111218,000.0,W*78
$GPGGA,114332.543,5655.729,N,00950.904,E,1,12,1.0,0.0,M,0.0,M,,*64
$GPGSA,A,3,01,02,03,04,05,06,07,08,09,10,11,12,1.0,1.0,1.0*30
$GPRMC,114332.543,A,5655.729,N,00950.904,E,075.8,212.3,111218,000.0,W*72
$GPGGA,114335.876,5655.662,N,00950.862,E,1,12,1.0,0.0,M,0.0,M,,*67
$GPGSA,A,3,01,02,03,04,05,06,07,08,09,10,11,12,1.0,1.0,1.0*30
$GPRMC,114335.876,A,5655.662,N,00950.862,E,075.8,212.3,111218,000.0,W*71
$GPGGA,114339.210,5655.596,N,00950.820,E,1,12,1.0,0.0,M,0.0,M,,*6F
$GPGSA,A,3,01,02,03,04,05,06,07,08,09,10,11,12,1.0,1.0,1.0*30
$GPRMC,114339.210,A,5655.596,N,00950.820,E,075.8,212.3,111218,000.0,W*79
$GPGGA,114342.543,5655.530,N,00950.778,E,1,12,1.0,0.0,M,0.0,M,,*6C
$GPGSA,A,3,01,02,03,04,05,06,07,08,09,10,11,12,1.0,1.0,1.0*30
$GPRMC,114342.543,A,5655.530,N,00950.778,E,075.8,205.6,111218,000.0,W*79
$GPGGA,114345.876,5655.462,N,00950.745,E,1,12,1.0,0.0,M,0.0,M,,*68
$GPGSA,A,3,01,02,03,04,05,06,07,08,09,10,11,12,1.0,1.0,1.0*30
$GPRMC,114345.876,A,5655.462,N,00950.745,E,075.8,205.6,111218,000.0,W*7D
$GPGGA,114349.210,5655.394,N,00950.712,E,1,12,1.0,0.0,M,0.0,M,,*62
$GPGSA,A,3,01,02,03,04,05,06,07,08,09,10,11,12,1.0,1.0,1.0*30
$GPRMC,114349.210,A,5655.394,N,00950.712,E,075.8,205.6,111218,000.0,W*77
$GPGGA,114352.543,5655.326,N,00950.680,E,1,12,1.0,0.0,M,0.0,M,,*6A
$GPGSA,A,3,01,02,03,04,05,06,07,08,09,10,11,12,1.0,1.0,1.0*30
$GPRMC,114352.543,A,5655.326,N,00950.680,E,075.8,205.6,111218,000.0,W*7F
$GPGGA,114355.876,5655.258,N,00950.647,E,1,12,1.0,0.0,M,0.0,M,,*65
$GPGSA,A,3,01,02,03,04,05,06,07,08,09,10,11,12,1.0,1.0,1.0*30
$GPRMC,114355.876,A,5655.258,N,00950.647,E,075.8,205.6,111218,000.0,W*70
$GPGGA,114359.210,5655.191,N,00950.615,E,1,12,1.0,0.0,M,0.0,M,,*62
$GPGSA,A,3,01,02,03,04,05,06,07,08,09,10,11,12,1.0,1.0,1.0*30
$GPRMC,114359.210,A,5655.191,N,00950.615,E,075.8,205.6,111218,000.0,W*77
$GPGGA,114402.543,5655.123,N,00950.582,E,1,12,1.0,0.0,M,0.0,M,,*6E
$GPGSA,A,3,01,02,03,04,05,06,07,08,09,10,11,12,1.0,1.0,1.0*30
$GPRMC,114402.543,A,5655.123,N,00950.582,E,075.8,205.6,111218,000.0,W*7B
$GPGGA,114405.876,5655.055,N,00950.549,E,1,12,1.0,0.0,M,0.0,M,,*65
$GPGSA,A,3,01,02,03,04,05,06,07,08,09,10,11,12,1.0,1.0,1.0*30
$GPRMC,114405.876,A,5655.055,N,00950.549,E,075.8,205.6,111218,000.0,W*70
$GPGGA,114409.210,5654.987,N,00950.517,E,1,12,1.0,0.0,M,0.0,M,,*6F
$GPGSA,A,3,01,02,03,04,05,06,07,08,09,10,11,12,1.0,1.0,1.0*30
$GPRMC,114409.210,A,5654.987,N,00950.517,E,075.8,203.1,111218,000.0,W*7B
$GPGGA,114412.543,5654.919,N,00950.488,E,1,12,1.0,0.0,M,0.0,M,,*64
$GPGSA,A,3,01,02,03,04,05,06,07,08,09,10,11,12,1.0,1.0,1.0*30
$GPRMC,114412.543,A,5654.919,N,00950.488,E,075.8,203.1,111218,000.0,W*70
$GPGGA,114415.876,5654.850,N,00950.458,E,1,12,1.0,0.0,M,0.0,M,,*69
$GPGSA,A,3,01,02,03,04,05,06,07,08,09,10,11,12,1.0,1.0,1.0*30
$GPRMC,114415.876,A,5654.850,N,00950.458,E,075.8,203.1,111218,000.0,W*7D
$GPGGA,114419.210,5654.782,N,00950.429,E,1,12,1.0,0.0,M,0.0,M,,*69
$GPGSA,A,3,01,02,03,04,05,06,07,08,09,10,11,12,1.0,1.0,1.0*30
$GPRMC,114419.210,A,5654.782,N,00950.429,E,075.8,203.1,111218,000.0,W*7D
$GPGGA,114422.543,5654.714,N,00950.400,E,1,12,1.0,0.0,M,0.0,M,,*64
$GPGSA,A,3,01,02,03,04,05,06,07,08,09,10,11,12,1.0,1.0,1.0*30
$GPRMC,114422.543,A,5654.714,N,00950.400,E,075.8,203.1,111218,000.0,W*70
$GPGGA,114425.876,5654.646,N,00950.371,E,1,12,1.0,0.0,M,0.0,M,,*6F
$GPGSA,A,3,01,02,03,04,05,06,07,08,09,10,11,12,1.0,1.0,1.0*30
$GPRMC,114425.876,A,5654.646,N,00950.371,E,075.8,203.1,111218,000.0,W*7B
$GPGGA,114429.210,5654.577,N,00950.341,E,1,12,1.0,0.0,M,0.0,M,,*6B
$GPGSA,A,3,01,02,03,04,05,06,07,08,09,10,11,12,1.0,1.0,1.0*30
$GPRMC,114429.210,A,5654.577,N,00950.341,E,075.8,203.1,111218,000.0,W*7F
$GPGGA,114432.543,5654.509,N,00950.312,E,1,12,1.0,0.0,M,0.0,M,,*6F
$GPGSA,A,3,01,02,03,04,05,06,07,08,09,10,11,12,1.0,1.0,1.0*30
$GPRMC,114432.543,A,5654.509,N,00950.312,E,075.8,229.1,111218,000.0,W*73
$GPGGA,114435.876,5654.450,N,00950.243,E,1,12,1.0,0.0,M,0.0,M,,*6B
$GPGSA,A,3,01,02,03,04,05,06,07,08,09,10,11,12,1.0,1.0,1.0*30
$GPRMC,114435.876,A,5654.450,N,00950.243,E,075.8,229.1,111218,000.0,W*77
$GPGGA,114439.210,5654.390,N,00950.175,E,1,12,1.0,0.0,M,0.0,M,,*60
$GPGSA,A,3,01,02,03,04,05,06,07,08,09,10,11,12,1.0,1.0,1.0*30
$GPRMC,114439.210,A,5654.390,N,00950.175,E,075.8,229.1,111218,000.0,W*7C
$GPGGA,114442.543,5654.331,N,00950.106,E,1,12,1.0,0.0,M,0.0,M,,*62
$GPGSA,A,3,01,02,03,04,05,06,07,08,09,10,11,12,1.0,1.0,1.0*30
$GPRMC,114442.543,A,5654.331,N,00950.106,E,075.8,238.6,111218,000.0,W*79
$GPGGA,114445.876,5654.279,N,00950.020,E,1,12,1.0,0.0,M,0.0,M,,*66
$GPGSA,A,3,01,02,03,04,05,06,07,08,09,10,11,12,1.0,1.0,1.0*30
$GPRMC,114445.876,A,5654.279,N,00950.020,E,075.8,238.6,111218,000.0,W*7D
$GPGGA,114449.210,5654.227,N,00949.934,E,1,12,1.0,0.0,M,0.0,M,,*6F
$GPGSA,A,3,01,02,03,04,05,06,07,08,09,10,11,12,1.0,1.0,1.0*30
$GPRMC,114449.210,A,5654.227,N,00949.934,E,075.8,238.6,111218,000.0,W*74
$GPGGA,114452.543,5654.175,N,00949.848,E,1,12,1.0,0.0,M,0.0,M,,*6A
$GPGSA,A,3,01,02,03,04,05,06,07,08,09,10,11,12,1.0,1.0,1.0*30
$GPRMC,114452.543,A,5654.175,N,00949.848,E,075.8,241.1,111218,000.0,W*78
$GPGGA,114455.876,5654.125,N,00949.758,E,1,12,1.0,0.0,M,0.0,M,,*6D
$GPGSA,A,3,01,02,03,04,05,06,07,08,09,10,11,12,1.0,1.0,1.0*30
$GPRMC,114455.876,A,5654.125,N,00949.758,E,075.8,241.1,111218,000.0,W*7F
$GPGGA,114459.210,5654.075,N,00949.667,E,1,12,1.0,0.0,M,0.0,M,,*62
$GPGSA,A,3,01,02,03,04,05,06,07,08,09,10,11,12,1.0,1.0,1.0*30
$GPRMC,114459.210,A,5654.075,N,00949.667,E,075.8,241.1,111218,000.0,W*70
$GPGGA,114502.543,5654.025,N,00949.577,E,1,12,1.0,0.0,M,0.0,M,,*6B
$GPGSA,A,3,01,02,03,04,05,06,07,08,09,10,11,12,1.0,1.0,1.0*30
$GPRMC,114502.543,A,5654.025,N,00949.577,E,075.8,241.1,111218,000.0,W*79
$GPGGA,114505.876,5653.976,N,00949.486,E,1,12,1.0,0.0,M,0.0,M,,*60
$GPGSA,A,3,01,02,03,04,05,06,07,08,09,10,11,12,1.0,1.0,1.0*30
$GPRMC,114505.876,A,5653.976,N,00949.486,E,075.8,241.1,111218,000.0,W*72
$GPGGA,114509.210,5653.926,N,00949.395,E,1,12,1.0,0.0,M,0.0,M,,*66
$GPGSA,A,3,01,02,03,04,05,06,07,08,09,10,11,12,1.0,1.0,1.0*30
$GPRMC,114509.210,A,5653.926,N,00949.395,E,075.8,241.1,111218,000.0,W*74
$GPGGA,114512.543,5653.876,N,00949.305,E,1,12,1.0,0.0,M,0.0,M,,*60
$GPGSA,A,3,01,02,03,04,05,06,07,08,09,10,11,12,1.0,1.0,1.0*30
$GPRMC,114512.543,A,5653.876,N,00949.305,E,075.8,241.1,111218,000.0,W*72
$GPGGA,114515.876,5653.826,N,00949.214,E,1,12,1.0,0.0,M,0.0,M,,*68
$GPGSA,A,3,01,02,03,04,05,06,07,08,09,10,11,12,1.0,1.0,1.0*30
$GPRMC,114515.876,A,5653.826,N,00949.214,E,064.1,232.7,111218,000.0,W*71
$GPGGA,114519.210,5653.778,N,00949.151,E,1,12,1.0,0.0,M,0.0,M,,*68
$GPGSA,A,3,01,02,03,04,05,06,07,08,09,10,11,12,1.0,1.0,1.0*30
$GPRMC,114519.210,A,5653.778,N,00949.151,E,064.1,232.7,111218,000.0,W*71
$GPGGA,114522.543,5653.730,N,00949.087,E,1,12,1.0,0.0,M,0.0,M,,*67
$GPGSA,A,3,01,02,03,04,05,06,07,08,09,10,11,12,1.0,1.0,1.0*30
$GPRMC,114522.543,A,5653.730,N,00949.087,E,064.1,232.7,111218,000.0,W*7E
$GPGGA,114525.876,5653.682,N,00949.024,E,1,12,1.0,0.0,M,0.0,M,,*6A
$GPGSA,A,3,01,02,03,04,05,06,07,08,09,10,11,12,1.0,1.0,1.0*30
$GPRMC,114525.876,A,5653.682,N,00949.024,E,064.1,232.7,111218,000.0,W*73
$GPGGA,114529.210,5653.634,N,00948.960,E,1,12,1.0,0.0,M,0.0,M,,*69
$GPGSA,A,3,01,02,03,04,05,06,07,08,09,10,11,12,1.0,1.0,1.0*30
$GPRMC,114529.210,A,5653.634,N,00948.960,E,064.1,232.7,111218,000.0,W*70
$GPGGA,114532.543,5653.586,N,00948.897,E,1,12,1.0,0.0,M,0.0,M,,*61
$GPGSA,A,3,01,02,03,04,05,06,07,08,09,10,11,12,1.0,1.0,1.0*30
$GPRMC,114532.543,A,5653.586,N,00948.897,E,064.1,222.8,111218,000.0,W*76
$GPGGA,114535.876,5653.533,N,00948.847,E,1,12,1.0,0.0,M,0.0,M,,*6E
$GPGSA,A,3,01,02,03,04,05,06,07,08,09,10,11,12,1.0,1.0,1.0*30
$GPRMC,114535.876,A,5653.533,N,00948.847,E,064.1,222.8,111218,000.0,W*79
$GPGGA,114539.210,5653.480,N,00948.798,E,1,12,1.0,0.0,M,0.0,M,,*6C
$GPGSA,A,3,01,02,03,04,05,06,07,08,09,10,11,12,1.0,1.0,1.0*30
$GPRMC,114539.210,A,5653.480,N,00948.798,E,064.1,222.8,111218,000.0,W*7B
$GPGGA,114542.543,5653.427,N,00948.749,E,1,12,1.0,0.0,M,0.0,M,,*60
$GPGSA,A,3,01,02,03,04,05,06,07,08,09,10,11,12,1.0,1.0,1.0*30
$GPRMC,114542.543,A,5653.427,N,00948.749,E,064.1,222.8,111218,000.0,W*77
$GPGGA,114545.876,5653.374,N,00948.699,E,1,12,1.0,0.0,M,0.0,M,,*61
$GPGSA,A,3,01,02,03,04,05,06,07,08,09,10,11,12,1.0,1.0,1.0*30
$GPRMC,114545.876,A,5653.374,N,00948.699,E,064.1,222.8,111218,000.0,W*76
$GPGGA,114549.210,5653.321,N,00948.650,E,1,12,1.0,0.0,M,0.0,M,,*62
$GPGSA,A,3,01,02,03,04,05,06,07,08,09,10,11,12,1.0,1.0,1.0*30
$GPRMC,114549.210,A,5653.321,N,00948.650,E,064.1,222.8,111218,000.0,W*75
$GPGGA,114552.543,5653.268,N,00948.601,E,1,12,1.0,0.0,M,0.0,M,,*61
$GPGSA,A,3,01,02,03,04,05,06,07,08,09,10,11,12,1.0,1.0,1.0*30
$GPRMC,114552.543,A,5653.268,N,00948.601,E,064.1,218.3,111218,000.0,W*74
$GPGGA,114555.876,5653.214,N,00948.558,E,1,12,1.0,0.0,M,0.0,M,,*69
$GPGSA,A,3,01,02,03,04,05,06,07,08,09,10,11,12,1.0,1.0,1.0*30
$GPRMC,114555.876,A,5653.214,N,00948.558,E,064.1,218.3,111218,000.0,W*7C
$GPGGA,114559.210,5653.159,N,00948.514,E,1,12,1.0,0.0,M,0.0,M,,*6D
$GPGSA,A,3,01,02,03,04,05,06,07,08,09,10,11,12,1.0,1.0,1.0*30
$GPRMC,114559.210,A,5653.159,N,00948.514,E,064.1,218.3,111218,000.0,W*78
$GPGGA,114602.543,5653.105,N,00948.471,E,1,12,1.0,0.0,M,0.0,M,,*6A
$GPGSA,A,3,01,02,03,04,05,06,07,08,09,10,11,12,1.0,1.0,1.0*30
$GPRMC,114602.543,A,5653.105,N,00948.471,E,064.1,218.3,111218,000.0,W*7F
$GPGGA,114605.876,5653.050,N,00948.428,E,1,12,1.0,0.0,M,0.0,M,,*6B
$GPGSA,A,3,01,02,03,04,05,06,07,08,09,10,11,12,1.0,1.0,1.0*30
$GPRMC,114605.876,A,5653.050,N,00948.428,E,064.1,218.3,111218,000.0,W*7E
$GPGGA,114609.210,5652.996,N,00948.385,E,1,12,1.0,0.0,M,0.0,M,,*6F
$GPGSA,A,3,01,02,03,04,05,06,07,08,09,10,11,12,1.0,1.0,1.0*30
$GPRMC,114609.210,A,5652.996,N,00948.385,E,064.1,218.3,111218,000.0,W*7A
$GPGGA,114612.543,5652.942,N,00948.341,E,1,12,1.0,0.0,M,0.0,M,,*65
$GPGSA,A,3,01,02,03,04,05,06,07,08,09,10,11,12,1.0,1.0,1.0*30
$GPRMC,114612.543,A,5652.942,N,00948.341,E,064.1,218.3,111218,000.0,W*70
$GPGGA,114615.876,5652.887,N,00948.298,E,1,12,1.0,0.0,M,0.0,M,,*64
$GPGSA,A,3,01,02,03,04,05,06,07,08,09,10,11,12,1.0,1.0,1.0*30
$GPRMC,114615.876,A,5652.887,N,00948.298,E,064.1,218.3,111218,000.0,W*71
$GPGGA,114619.210,5652.833,N,00948.255,E,1,12,1.0,0.0,M,0.0,M,,*6C
$GPGSA,A,3,01,02,03,04,05,06,07,08,09,10,11,12,1.0,1.0,1.0*30
$GPRMC,114619.210,A,5652.833,N,00948.255,E,064.1,226.4,111218,000.0,W*73
$GPGGA,114622.543,5652.781,N,00948.200,E,1,12,1.0,0.0,M,0.0,M,,*63
$GPGSA,A,3,01,02,03,04,05,06,07,08,09,10,11,12,1.0,1.0,1.0*30
$GPRMC,114622.543,A,5652.781,N,00948.200,E,064.1,226.4,111218,000.0,W*7C
$GPGGA,114625.876,5652.730,N,00948.146,E,1,12,1.0,0.0,M,0.0,M,,*64
$GPGSA,A,3,01,02,03,04,05,06,07,08,09,10,11,12,1.0,1.0,1.0*30
$GPRMC,114625.876,A,5652.730,N,00948.146,E,064.1,226.4,111218,000.0,W*7B
$GPGGA,114629.210,5652.678,N,00948.092,E,1,12,1.0,0.0,M,0.0,M,,*67
$GPGSA,A,3,01,02,03,04,05,06,07,08,09,10,11,12,1.0,1.0,1.0*30
$GPRMC,114629.210,A,5652.678,N,00948.092,E,064.1,226.4,111218,000.0,W*78
$GPGGA,114632.543,5652.627,N,00948.038,E,1,12,1.0,0.0,M,0.0,M,,*66
$GPGSA,A,3,01,02,03,04,05,06,07,08,09,10,11,12,1.0,1.0,1.0*30
$GPRMC,114632.543,A,5652.627,N,00948.038,E,064.1,226.4,111218,000.0,W*79
$GPGGA,114635.876,5652.576,N,00947.983,E,1,12,1.0,0.0,M,0.0,M,,*6B
$GPGSA,A,3,01,02,03,04,05,06,07,08,09,10,11,12,1.0,1.0,1.0*30
$GPRMC,114635.876,A,5652.576,N,00947.983,E,064.1,233.7,111218,000.0,W*73
$GPGGA,114639.210,5652.528,N,00947.918,E,1,12,1.0,0.0,M,0.0,M,,*64
$GPGSA,A,3,01,02,03,04,05,06,07,08,09,10,11,12,1.0,1.0,1.0*30
$GPRMC,114639.210,A,5652.528,N,00947.918,E,064.1,233.7,111218,000.0,W*7C
$GPGGA,114642.543,5652.481,N,00947.853,E,1,12,1.0,0.0,M,0.0,M,,*65
$GPGSA,A,3,01,02,03,04,05,06,07,08,09,10,11,12,1.0,1.0,1.0*30
$GPRMC,114642.543,A,5652.481,N,00947.853,E,064.1,233.7,111218,000.0,W*7D
$GPGGA,114645.876,5652.433,N,00947.788,E,1,12,1.0,0.0,M,0.0,M,,*69
$GPGSA,A,3,01,02,03,04,05,06,07,08,09,10,11,12,1.0,1.0,1.0*30
$GPRMC,114645.876,A,5652.433,N,00947.788,E,064.1,233.7,111218,000.0,W*71
$GPGGA,114649.210,5652.386,N,00947.723,E,1,12,1.0,0.0,M,0.0,M,,*67
$GPGSA,A,3,01,02,03,04,05,06,07,08,09,10,11,12,1.0,1.0,1.0*30
$GPRMC,114649.210,A,5652.386,N,00947.723,E,064.1,233.7,111218,000.0,W*7F
$GPGGA,114652.543,5652.338,N,00947.658,E,1,12,1.0,0.0,M,0.0,M,,*64
$GPGSA,A,3,01,02,03,04,05,06,07,08,09,10,11,12,1.0,1.0,1.0*30
$GPRMC,114652.543,A,5652.338,N,00947.658,E,064.1,237.3,111218,000.0,W*7C
$GPGGA,114655.876,5652.293,N,00947.587,E,1,12,1.0,0.0,M,0.0,M,,*69
$GPGSA,A,3,01,02,03,04,05,06,07,08,09,10,11,12,1.0,1.0,1.0*30
$GPRMC,114655.876,A,5652.293,N,00947.587,E,064.1,237.3,111218,000.0,W*71
$GPGGA,114659.210,5652.248,N,00947.517,E,1,12,1.0,0.0,M,0.0,M,,*60
$GPGSA,A,3,01,02,03,04,05,06,07,08,09,10,11,12,1.0,1.0,1.0*30
$GPRMC,114659.210,A,5652.248,N,00947.517,E,064.1,237.3,111218,000.0,W*78
$GPGGA,114702.543,5652.203,N,00947.446,E,1,12,1.0,0.0,M,0.0,M,,*64
$GPGSA,A,3,01,02,03,04,05,06,07,08,09,10,11,12,1.0,1.0,1.0*30
$GPRMC,114702.543,A,5652.203,N,00947.446,E,064.1,237.3,111218,000.0,W*7C
$GPGGA,114705.876,5652.158,N,00947.376,E,1,12,1.0,0.0,M,0.0,M,,*61
$GPGSA,A,3,01,02,03,04,05,06,07,08,09,10,11,12,1.0,1.0,1.0*30
$GPRMC,114705.876,A,5652.158,N,00947.376,E,064.1,239.9,111218,000.0,W*7D
$GPGGA,114709.210,5652.115,N,00947.301,E,1,12,1.0,0.0,M,0.0,M,,*6E
$GPGSA,A,3,01,02,03,04,05,06,07,08,09,10,11,12,1.0,1.0,1.0*30
$GPRMC,114709.210,A,5652.115,N,00947.301,E,064.1,239.9,111218,000.0,W*72
$GPGGA,114712.543,5652.071,N,00947.226,E,1,12,1.0,0.0,M,0.0,M,,*62
$GPGSA,A,3,01,02,03,04,05,06,07,08,09,10,11,12,1.0,1.0,1.0*30
$GPRMC,114712.543,A,5652.071,N,00947.226,E,064.1,239.9,111218,000.0,W*7E
$GPGGA,114715.876,5652.028,N,00947.151,E,1,12,1.0,0.0,M,0.0,M,,*61
$GPGSA,A,3,01,02,03,04,05,06,07,08,09,10,11,12,1.0,1.0,1.0*30
$GPRMC,114715.876,A,5652.028,N,00947.151,E,064.1,239.9,111218,000.0,W*7D
$GPGGA,114719.210,5651.985,N,00947.077,E,1,12,1.0,0.0,M,0.0,M,,*6F
$GPGSA,A,3,01,02,03,04,05,06,07,08,09,10,11,12,1.0,1.0,1.0*30
$GPRMC,114719.210,A,5651.985,N,00947.077,E,064.1,239.9,111218,000.0,W*73
$GPGGA,114722.543,5651.942,N,00947.002,E,1,12,1.0,0.0,M,0.0,M,,*6F
$GPGSA,A,3,01,02,03,04,05,06,07,08,09,10,11,12,1.0,1.0,1.0*30
$GPRMC,114722.543,A,5651.942,N,00947.002,E,064.1,244.4,111218,000.0,W*74
$GPGGA,114725.876,5651.903,N,00946.920,E,1,12,1.0,0.0,M,0.0,M,,*6E
$GPGSA,A,3,01,02,03,04,05,06,07,08,09,10,11,12,1.0,1.0,1.0*30
$GPRMC,114725.876,A,5651.903,N,00946.920,E,064.1,244.4,111218,000.0,W*75
$GPGGA,114729.210,5651.864,N,00946.838,E,1,12,1.0,0.0,M,0.0,M,,*60
$GPGSA,A,3,01,02,03,04,05,06,07,08,09,10,11,12,1.0,1.0,1.0*30
$GPRMC,114729.210,A,5651.864,N,00946.838,E,064.1,244.4,111218,000.0,W*7B
$GPGGA,114732.543,5651.825,N,00946.757,E,1,12,1.0,0.0,M,0.0,M,,*68
$GPGSA,A,3,01,02,03,04,05,06,07,08,09,10,11,12,1.0,1.0,1.0*30
$GPRMC,114732.543,A,5651.825,N,00946.757,E,064.1,244.4,111218,000.0,W*73
$GPGGA,114735.876,5651.786,N,00946.675,E,1,12,1.0,0.0,M,0.0,M,,*63
$GPGSA,A,3,01,02,03,04,05,06,07,08,09,10,11,12,1.0,1.0,1.0*30
$GPRMC,114735.876,A,5651.786,N,00946.675,E,064.1,244.4,111218,000.0,W*78
$GPGGA,114739.210,5651.747,N,00946.593,E,1,12,1.0,0.0,M,0.0,M,,*63
$GPGSA,A,3,01,02,03,04,05,06,07,08,09,10,11,12,1.0,1.0,1.0*30
$GPRMC,114739.210,A,5651.747,N,00946.593,E,064.1,244.4,111218,000.0,W*78
$GPGGA,114742.543,5651.708,N,00946.511,E,1,12,1.0,0.0,M,0.0,M,,*6F
$GPGSA,A,3,01,02,03,04,05,06,07,08,09,10,11,12,1.0,1.0,1.0*30
$GPRMC,114742.543,A,5651.708,N,00946.511,E,064.1,244.4,111218,000.0,W*74
$GPGGA,114745.876,5651.669,N,00946.429,E,1,12,1.0,0.0,M,0.0,M,,*6F
$GPGSA,A,3,01,02,03,04,05,06,07,08,09,10,11,12,1.0,1.0,1.0*30
$GPRMC,114745.876,A,5651.669,N,00946.429,E,064.1,244.4,111218,000.0,W*74
$GPGGA,114749.210,5651.630,N,00946.348,E,1,12,1.0,0.0,M,0.0,M,,*65
$GPGSA,A,3,01,02,03,04,05,06,07,08,09,10,11,12,1.0,1.0,1.0*30
$GPRMC,114749.210,A,5651.630,N,00946.348,E,064.1,235.9,111218,000.0,W*75
$GPGGA,114752.543,5651.584,N,00946.279,E,1,12,1.0,0.0,M,0.0,M,,*61
$GPGSA,A,3,01,02,03,04,05,06,07,08,09,10,11,12,1.0,1.0,1.0*30
$GPRMC,114752.543,A,5651.584,N,00946.279,E,064.1,235.9,111218,000.0,W*71
$GPGGA,114755.876,5651.538,N,00946.211,E,1,12,1.0,0.0,M,0.0,M,,*64
$GPGSA,A,3,01,02,03,04,05,06,07,08,09,10,11,12,1.0,1.0,1.0*30
$GPRMC,114755.876,A,5651.538,N,00946.211,E,064.1,235.9,111218,000.0,W*74
$GPGGA,114759.210,5651.492,N,00946.143,E,1,12,1.0,0.0,M,0.0,M,,*67
$GPGSA,A,3,01,02,03,04,05,06,07,08,09,10,11,12,1.0,1.0,1.0*30
$GPRMC,114759.210,A,5651.492,N,00946.143,E,064.1,235.9,111218,000.0,W*77
$GPGGA,114802.543,5651.446,N,00946.074,E,1,12,1.0,0.0,M,0.0,M,,*6B
$GPGSA,A,3,01,02,03,04,05,06,07,08,09,10,11,12,1.0,1.0,1.0*30
$GPRMC,114802.543,A,5651.446,N,00946.074,E,064.1,235.9,111218,000.0,W*7B
$GPGGA,114805.876,5651.399,N,00946.006,E,1,12,1.0,0.0,M,0.0,M,,*67
$GPGSA,A,3,01,02,03,04,05,06,07,08,09,10,11,12,1.0,1.0,1.0*30
$GPRMC,114805.876,A,5651.399,N,00946.006,E,064.1,235.9,111218,000.0,W*77
$GPGGA,114809.210,5651.353,N,00945.937,E,1,12,1.0,0.0,M,0.0,M,,*6F
$GPGSA,A,3,01,02,03,04,05,06,07,08,09,10,11,12,1.0,1.0,1.0*30
$GPRMC,114809.210,A,5651.353,N,00945.937,E,064.1,235.9,111218,000.0,W*7F
$GPGGA,114812.543,5651.307,N,00945.869,E,1,12,1.0,0.0,M,0.0,M,,*6F
$GPGSA,A,3,01,02,03,04,05,06,07,08,09,10,11,12,1.0,1.0,1.0*30
$GPRMC,114812.543,A,5651.307,N,00945.869,E,064.1,235.9,111218,000.0,W*7F
$GPGGA,114815.876,5651.261,N,00945.801,E,1,12,1.0,0.0,M,0.0,M,,*6C
$GPGSA,A,3,01,02,03,04,05,06,07,08,09,10,11,12,1.0,1.0,1.0*30
$GPRMC,114815.876,A,5651.261,N,00945.801,E,064.1,235.9,111218,000.0,W*7C
$GPGGA,114819.210,5651.215,N,00945.732,E,1,12,1.0,0.0,M,0.0,M,,*66
$GPGSA,A,3,01,02,03,04,05,06,07,08,09,10,11,12,1.0,1.0,1.0*30
$GPRMC,114819.210,A,5651.215,N,00945.732,E,064.1,235.9,111218,000.0,W*76
$GPGGA,114822.543,5651.169,N,00945.664,E,1,12,1.0,0.0,M,0.0,M,,*65
$GPGSA,A,3,01,02,03,04,05,06,07,08,09,10,11,12,1.0,1.0,1.0*30
$GPRMC,114822.543,A,5651.169,N,00945.664,E,064.1,237.4,111218,000.0,W*7A
$GPGGA,114825.876,5651.124,N,00945.593,E,1,12,1.0,0.0,M,0.0,M,,*6B
$GPGSA,A,3,01,02,03,04,05,06,07,08,09,10,11,12,1.0,1.0,1.0*30
$GPRMC,114825.876,A,5651.124,N,00945.593,E,064.1,237.4,111218,000.0,W*74
$GPGGA,114829.210,5651.079,N,00945.522,E,1,12,1.0,0.0,M,0.0,M,,*6E
$GPGSA,A,3,01,02,03,04,05,06,07,08,09,10,11,12,1.0,1.0,1.0*30
$GPRMC,114829.210,A,5651.079,N,00945.522,E,064.1,237.4,111218,000.0,W*71
$GPGGA,114832.543,5651.034,N,00945.452,E,1,12,1.0,0.0,M,0.0,M,,*6A
$GPGSA,A,3,01,02,03,04,05,06,07,08,09,10,11,12,1.0,1.0,1.0*30
$GPRMC,114832.543,A,5651.034,N,00945.452,E,064.1,237.4,111218,000.0,W*75
$GPGGA,114835.876,5650.989,N,00945.381,E,1,12,1.0,0.0,M,0.0,M,,*61
$GPGSA,A,3,01,02,03,04,05,06,07,08,09,10,11,12,1.0,1.0,1.0*30
$GPRMC,114835.876,A,5650.989,N,00945.381,E,064.1,237.4,111218,000.0,W*7E
$GPGGA,114839.210,5650.944,N,00945.310,E,1,12,1.0,0.0,M,0.0,M,,*6E
$GPGSA,A,3,01,02,03,04,05,06,07,08,09,10,11,12,1.0,1.0,1.0*30
$GPRMC,114839.210,A,5650.944,N,00945.310,E,064.1,237.4,111218,000.0,W*71
$GPGGA,114842.543,5650.899,N,00945.240,E,1,12,1.0,0.0,M,0.0,M,,*66
$GPGSA,A,3,01,02,03,04,05,06,07,08,09,10,11,12,1.0,1.0,1.0*30
$GPRMC,114842.543,A,5650.899,N,00945.240,E,064.1,237.4,111218,000.0,W*79
$GPGGA,114845.876,5650.854,N,00945.169,E,1,12,1.0,0.0,M,0.0,M,,*63
$GPGSA,A,3,01,02,03,04,05,06,07,08,09,10,11,12,1.0,1.0,1.0*30
$GPRMC,114845.876,A,5650.854,N,00945.169,E,064.1,245.0,111218,000.0,W*7D
$GPGGA,114849.210,5650.815,N,00945.086,E,1,12,1.0,0.0,M,0.0,M,,*60
$GPGSA,A,3,01,02,03,04,05,06,07,08,09,10,11,12,1.0,1.0,1.0*30
$GPRMC,114849.210,A,5650.815,N,00945.086,E,064.1,245.0,111218,000.0,W*7E
$GPGGA,114852.543,5650.777,N,00945.003,E,1,12,1.0,0.0,M,0.0,M,,*6D
$GPGSA,A,3,01,02,03,04,05,06,07,08,09,10,11,12,1.0,1.0,1.0*30
$GPRMC,114852.543,A,5650.777,N,00945.003,E,064.1,245.0,111218,000.0,W*73
$GPGGA,114855.876,5650.738,N,00944.921,E,1,12,1.0,0.0,M,0.0,M,,*62
$GPGSA,A,3,01,02,03,04,05,06,07,08,09,10,11,12,1.0,1.0,1.0*30
$GPRMC,114855.876,A,5650.738,N,00944.921,E,064.1,245.0,111218,000.0,W*7C
$GPGGA,114859.210,5650.700,N,00944.838,E,1,12,1.0,0.0,M,0.0,M,,*66
$GPGSA,A,3,01,02,03,04,05,06,07,08,09,10,11,12,1.0,1.0,1.0*30
$GPRMC,114859.210,A,5650.700,N,00944.838,E,064.1,245.0,111218,000.0,W*78
$GPGGA,114902.543,5650.662,N,00944.755,E,1,12,1.0,0.0,M,0.0,M,,*69
$GPGSA,A,3,01,02,03,04,05,06,07,08,09,10,11,12,1.0,1.0,1.0*30
$GPRMC,114902.543,A,5650.662,N,00944.755,E,064.1,245.0,111218,000.0,W*77
$GPGGA,114905.876,5650.623,N,00944.673,E,1,12,1.0,0.0,M,0.0,M,,*65
$GPGSA,A,3,01,02,03,04,05,06,07,08,09,10,11,12,1.0,1.0,1.0*30
$GPRMC,114905.876,A,5650.623,N,00944.673,E,064.1,245.0,111218,000.0,W*7B
$GPGGA,114909.210,5650.585,N,00944.590,E,1,12,1.0,0.0,M,0.0,M,,*62
$GPGSA,A,3,01,02,03,04,05,06,07,08,09,10,11,12,1.0,1.0,1.0*30
$GPRMC,114909.210,A,5650.585,N,00944.590,E,064.1,238.3,111218,000.0,W*75
$GPGGA,114912.543,5650.540,N,00944.518,E,1,12,1.0,0.0,M,0.0,M,,*60
$GPGSA,A,3,01,02,03,04,05,06,07,08,09,10,11,12,1.0,1.0,1.0*30
$GPRMC,114912.543,A,5650.540,N,00944.518,E,064.1,238.3,111218,000.0,W*77
$GPGGA,114915.876,5650.496,N,00944.445,E,1,12,1.0,0.0,M,0.0,M,,*6F
$GPGSA,A,3,01,02,03,04,05,06,07,08,09,10,11,12,1.0,1.0,1.0*30
$GPRMC,114915.876,A,5650.496,N,00944.445,E,064.1,238.3,111218,000.0,W*78
