$GPGGA,092605.976,5702.551,N,00955.147,E,1,12,1.0,0.0,M,0.0,M,,*64
$GPGSA,A,3,01,02,03,04,05,06,07,08,09,10,11,12,1.0,1.0,1.0*30
$GPRMC,092605.976,A,5702.551,N,00955.147,E,032.3,278.1,191218,000.0,W*7C
$GPGGA,092606.976,5702.553,N,00955.131,E,1,12,1.0,0.0,M,0.0,M,,*64
$GPGSA,A,3,01,02,03,04,05,06,07,08,09,10,11,12,1.0,1.0,1.0*30
$GPRMC,092606.976,A,5702.553,N,00955.131,E,032.3,278.1,191218,000.0,W*7C
$GPGGA,092607.976,5702.555,N,00955.115,E,1,12,1.0,0.0,M,0.0,M,,*65
$GPGSA,A,3,01,02,03,04,05,06,07,08,09,10,11,12,1.0,1.0,1.0*30
$GPRMC,092607.976,A,5702.555,N,00955.115,E,032.3,278.1,191218,000.0,W*7D
$GPGGA,092608.976,5702.557,N,00955.099,E,1,12,1.0,0.0,M,0.0,M,,*6D
$GPGSA,A,3,01,02,03,04,05,06,07,08,09,10,11,12,1.0,1.0,1.0*30
$GPRMC,092608.976,A,5702.557,N,00955.099,E,032.3,297.6,191218,000.0,W*73
$GPGGA,092609.976,5702.564,N,00955.087,E,1,12,1.0,0.0,M,0.0,M,,*63
$GPGSA,A,3,01,02,03,04,05,06,07,08,09,10,11,12,1.0,1.0,1.0*30
$GPRMC,092609.976,A,5702.564,N,00955.087,E,026.8,315.6,191218,000.0,W*78
$GPGGA,092610.976,5702.570,N,00955.080,E,1,12,1.0,0.0,M,0.0,M,,*69
$GPGSA,A,3,01,02,03,04,05,06,07,08,09,10,11,12,1.0,1.0,1.0*30
$GPRMC,092610.976,A,5702.570,N,00955.080,E,026.8,315.6,191218,000.0,W*72
$GPGGA,092611.976,5702.577,N,00955.074,E,1,12,1.0,0.0,M,0.0,M,,*64
$GPGSA,A,3,01,02,03,04,05,06,07,08,09,10,11,12,1.0,1.0,1.0*30
$GPRMC,092611.976,A,5702.577,N,00955.074,E,026.8,315.6,191218,000.0,W*7F
$GPGGA,092612.976,5702.583,N,00955.068,E,1,12,1.0,0.0,M,0.0,M,,*61
$GPGSA,A,3,01,02,03,04,05,06,07,08,09,10,11,12,1.0,1.0,1.0*30
$GPRMC,092612.976,A,5702.583,N,00955.068,E,026.8,315.6,191218,000.0,W*7A
$GPGGA,092613.976,5702.590,N,00955.061,E,1,12,1.0,0.0,M,0.0,M,,*6B
$GPGSA,A,3,01,02,03,04,05,06,07,08,09,10,11,12,1.0,1.0,1.0*30
$GPRMC,092613.976,A,5702.590,N,00955.061,E,026.8,315.6,191218,000.0,W*70
$GPGGA,092614.976,5702.596,N,00955.055,E,1,12,1.0,0.0,M,0.0,M,,*6D
$GPGSA,A,3,01,02,03,04,05,06,07,08,09,10,11,12,1.0,1.0,1.0*30
$GPRMC,092614.976,A,5702.596,N,00955.055,E,026.8,315.6,191218,000.0,W*76
$GPGGA,092615.976,5702.603,N,00955.048,E,1,12,1.0,0.0,M,0.0,M,,*6F
$GPGSA,A,3,01,02,03,04,05,06,07,08,09,10,11,12,1.0,1.0,1.0*30
$GPRMC,092615.976,A,5702.603,N,00955.048,E,026.8,315.6,191218,000.0,W*74
$GPGGA,092616.976,5702.610,N,00955.042,E,1,12,1.0,0.0,M,0.0,M,,*64
$GPGSA,A,3,01,02,03,04,05,06,07,08,09,10,11,12,1.0,1.0,1.0*30
$GPRMC,092616.976,A,5702.610,N,00955.042,E,026.8,315.6,191218,000.0,W*7F
$GPGGA,092617.976,5702.616,N,00955.035,E,1,12,1.0,0.0,M,0.0,M,,*63
$GPGSA,A,3,01,02,03,04,05,06,07,08,09,10,11,12,1.0,1.0,1.0*30
$GPRMC,092617.976,A,5702.616,N,00955.035,E,026.8,315.6,191218,000.0,W*78
$GPGGA,092618.976,5702.623,N,00955.029,E,1,12,1.0,0.0,M,0.0,M,,*67
$GPGSA,A,3,01,02,03,04,05,06,07,08,09,10,11,12,1.0,1.0,1.0*30
$GPRMC,092618.976,A,5702.623,N,00955.029,E,026.8,315.6,191218,000.0,W*7C
$GPGGA,092619.976,5702.629,N,00955.022,E,1,12,1.0,0.0,M,0.0,M,,*67
$GPGSA,A,3,01,02,03,04,05,06,07,08,09,10,11,12,1.0,1.0,1.0*30
$GPRMC,092619.976,A,5702.629,N,00955.022,E,026.8,315.6,191218,000.0,W*7C
$GPGGA,092620.976,5702.636,N,00955.016,E,1,12,1.0,0.0,M,0.0,M,,*64
$GPGSA,A,3,01,02,03,04,05,06,07,08,09,10,11,12,1.0,1.0,1.0*30
$GPRMC,092620.976,A,5702.636,N,00955.016,E,026.8,315.6,191218,000.0,W*7F
$GPGGA,092621.976,5702.642,N,00955.009,E,1,12,1.0,0.0,M,0.0,M,,*68
$GPGSA,A,3,01,02,03,04,05,06,07,08,09,10,11,12,1.0,1.0,1.0*30
$GPRMC,092621.976,A,5702.642,N,00955.009,E,026.8,315.6,191218,000.0,W*73
$GPGGA,092622.976,5702.649,N,00955.003,E,1,12,1.0,0.0,M,0.0,M,,*6A
$GPGSA,A,3,01,02,03,04,05,06,07,08,09,10,11,12,1.0,1.0,1.0*30
$GPRMC,092622.976,A,5702.649,N,00955.003,E,026.8,315.6,191218,000.0,W*71
$GPGGA,092623.976,5702.656,N,00954.996,E,1,12,1.0,0.0,M,0.0,M,,*61
$GPGSA,A,3,01,02,03,04,05,06,07,08,09,10,11,12,1.0,1.0,1.0*30
$GPRMC,092623.976,A,5702.656,N,00954.996,E,026.8,315.6,191218,000.0,W*7A
$GPGGA,092624.976,5702.662,N,00954.990,E,1,12,1.0,0.0,M,0.0,M,,*67
$GPGSA,A,3,01,02,03,04,05,06,07,08,09,10,11,12,1.0,1.0,1.0*30
$GPRMC,092624.976,A,5702.662,N,00954.990,E,026.8,315.6,191218,000.0,W*7C
$GPGGA,092625.976,5702.669,N,00954.984,E,1,12,1.0,0.0,M,0.0,M,,*68
$GPGSA,A,3,01,02,03,04,05,06,07,08,09,10,11,12,1.0,1.0,1.0*30
$GPRMC,092625.976,A,5702.669,N,00954.984,E,026.8,315.6,191218,000.0,W*73
$GPGGA,092626.976,5702.675,N,00954.977,E,1,12,1.0,0.0,M,0.0,M,,*6A
$GPGSA,A,3,01,02,03,04,05,06,07,08,09,10,11,12,1.0,1.0,1.0*30
$GPRMC,092626.976,A,5702.675,N,00954.977,E,026.8,315.6,191218,000.0,W*71
$GPGGA,092627.976,5702.682,N,00954.971,E,1,12,1.0,0.0,M,0.0,M,,*65
$GPGSA,A,3,01,02,03,04,05,06,07,08,09,10,11,12,1.0,1.0,1.0*30
$GPRMC,092627.976,A,5702.682,N,00954.971,E,026.8,315.6,191218,000.0,W*7E
$GPGGA,092628.976,5702.688,N,00954.964,E,1,12,1.0,0.0,M,0.0,M,,*64
$GPGSA,A,3,01,02,03,04,05,06,07,08,09,10,11,12,1.0,1.0,1.0*30
$GPRMC,092628.976,A,5702.688,N,00954.964,E,026.8,315.6,191218,000.0,W*7F
$GPGGA,092629.976,5702.695,N,00954.958,E,1,12,1.0,0.0,M,0.0,M,,*66
$GPGSA,A,3,01,02,03,04,05,06,07,08,09,10,11,12,1.0,1.0,1.0*30
$GPRMC,092629.976,A,5702.695,N,00954.958,E,026.8,315.6,191218,000.0,W*7D
$GPGGA,092630.976,5702.701,N,00954.951,E,1,12,1.0,0.0,M,0.0,M,,*6B
$GPGSA,A,3,01,02,03,04,05,06,07,08,09,10,11,12,1.0,1.0,1.0*30
$GPRMC,092630.976,A,5702.701,N,00954.951,E,026.8,315.6,191218,000.0,W*70
$GPGGA,092631.976,5702.708,N,00954.945,E,1,12,1.0,0.0,M,0.0,M,,*66
$GPGSA,A,3,01,02,03,04,05,06,07,08,09,10,11,12,1.0,1.0,1.0*30
$GPRMC,092631.976,A,5702.708,N,00954.945,E,026.8,315.6,191218,000.0,W*7D
$GPGGA,092632.976,5702.715,N,00954.938,E,1,12,1.0,0.0,M,0.0,M,,*63
$GPGSA,A,3,01,02,03,04,05,06,07,08,09,10,11,12,1.0,1.0,1.0*30
$GPRMC,092632.976,A,5702.715,N,00954.938,E,026.8,315.6,191218,000.0,W*78
$GPGGA,092633.976,5702.721,N,00954.932,E,1,12,1.0,0.0,M,0.0,M,,*6F
$GPGSA,A,3,01,02,03,04,05,06,07,08,09,10,11,12,1.0,1.0,1.0*30
$GPRMC,092633.976,A,5702.721,N,00954.932,E,026.8,315.6,191218,000.0,W*74
$GPGGA,092634.976,5702.728,N,00954.925,E,1,12,1.0,0.0,M,0.0,M,,*67
$GPGSA,A,3,01,02,03,04,05,06,07,08,09,10,11,12,1.0,1.0,1.0*30
$GPRMC,092634.976,A,5702.728,N,00954.925,E,026.8,315.6,191218,000.0,W*7C
$GPGGA,092635.976,5702.734,N,00954.919,E,1,12,1.0,0.0,M,0.0,M,,*64
$GPGSA,A,3,01,02,03,04,05,06,07,08,09,10,11,12,1.0,1.0,1.0*30
$GPRMC,092635.976,A,5702.734,N,00954.919,E,026.8,315.6,191218,000.0,W*7F
$GPGGA,092636.976,5702.741,N,00954.913,E,1,12,1.0,0.0,M,0.0,M,,*6F
$GPGSA,A,3,01,02,03,04,05,06,07,08,09,10,11,12,1.0,1.0,1.0*30
$GPRMC,092636.976,A,5702.741,N,00954.913,E,026.8,315.6,191218,000.0,W*74
$GPGGA,092637.976,5702.747,N,00954.906,E,1,12,1.0,0.0,M,0.0,M,,*6C
$GPGSA,A,3,01,02,03,04,05,06,07,08,09,10,11,12,1.0,1.0,1.0*30
$GPRMC,092637.976,A,5702.747,N,00954.906,E,026.8,315.6,191218,000.0,W*77
$GPGGA,092638.976,5702.754,N,00954.900,E,1,12,1.0,0.0,M,0.0,M,,*67
$GPGSA,A,3,01,02,03,04,05,06,07,08,09,10,11,12,1.0,1.0,1.0*30
$GPRMC,092638.976,A,5702.754,N,00954.900,E,026.8,315.6,191218,000.0,W*7C
$GPGGA,092639.976,5702.761,N,00954.893,E,1,12,1.0,0.0,M,0.0,M,,*6B
$GPGSA,A,3,01,02,03,04,05,06,07,08,09,10,11,12,1.0,1.0,1.0*30
$GPRMC,092639.976,A,5702.761,N,00954.893,E,026.8,315.6,191218,000.0,W*70
$GPGGA,092640.976,5702.767,N,00954.887,E,1,12,1.0,0.0,M,0.0,M,,*66
$GPGSA,A,3,01,02,03,04,05,06,07,08,09,10,11,12,1.0,1.0,1.0*30
$GPRMC,092640.976,A,5702.767,N,00954.887,E,026.8,315.6,191218,000.0,W*7D
$GPGGA,092641.976,5702.774,N,00954.880,E,1,12,1.0,0.0,M,0.0,M,,*62
$GPGSA,A,3,01,02,03,04,05,06,07,08,09,10,11,12,1.0,1.0,1.0*30
$GPRMC,092641.976,A,5702.774,N,00954.880,E,026.8,315.6,191218,000.0,W*79
$GPGGA,092642.976,5702.780,N,00954.874,E,1,12,1.0,0.0,M,0.0,M,,*61
$GPGSA,A,3,01,02,03,04,05,06,07,08,09,10,11,12,1.0,1.0,1.0*30
$GPRMC,092642.976,A,5702.780,N,00954.874,E,026.8,315.6,191218,000.0,W*7A
$GPGGA,092643.976,5702.787,N,00954.867,E,1,12,1.0,0.0,M,0.0,M,,*65
$GPGSA,A,3,01,02,03,04,05,06,07,08,09,10,11,12,1.0,1.0,1.0*30
$GPRMC,092643.976,A,5702.787,N,00954.867,E,026.8,315.6,191218,000.0,W*7E
$GPGGA,092644.976,5702.793,N,00954.861,E,1,12,1.0,0.0,M,0.0,M,,*61
$GPGSA,A,3,01,02,03,04,05,06,07,08,09,10,11,12,1.0,1.0,1.0*30
$GPRMC,092644.976,A,5702.793,N,00954.861,E,026.8,315.6,191218,000.0,W*7A
$GPGGA,092645.976,5702.800,N,00954.854,E,1,12,1.0,0.0,M,0.0,M,,*63
$GPGSA,A,3,01,02,03,04,05,06,07,08,09,10,11,12,1.0,1.0,1.0*30
$GPRMC,092645.976,A,5702.800,N,00954.854,E,026.8,315.6,191218,000.0,W*78
$GPGGA,092646.976,5702.807,N,00954.848,E,1,12,1.0,0.0,M,0.0,M,,*6A
$GPGSA,A,3,01,02,03,04,05,06,07,08,09,10,11,12,1.0,1.0,1.0*30
$GPRMC,092646.976,A,5702.807,N,00954.848,E,032.3,051.9,191218,000.0,W*73
$GPGGA,092647.976,5702.814,N,00954.857,E,1,12,1.0,0.0,M,0.0,M,,*67
$GPGSA,A,3,01,02,03,04,05,06,07,08,09,10,11,12,1.0,1.0,1.0*30
$GPRMC,092647.976,A,5702.814,N,00954.857,E,032.3,051.9,191218,000.0,W*7E
$GPGGA,092648.976,5702.821,N,00954.867,E,1,12,1.0,0.0,M,0.0,M,,*6D
$GPGSA,A,3,01,02,03,04,05,06,07,08,09,10,11,12,1.0,1.0,1.0*30
$GPRMC,092648.976,A,5702.821,N,00954.867,E,032.3,051.9,191218,000.0,W*74
$GPGGA,092649.976,5702.829,N,00954.876,E,1,12,1.0,0.0,M,0.0,M,,*64
$GPGSA,A,3,01,02,03,04,05,06,07,08,09,10,11,12,1.0,1.0,1.0*30
$GPRMC,092649.976,A,5702.829,N,00954.876,E,032.3,051.9,191218,000.0,W*7D
$GPGGA,092650.976,5702.836,N,00954.886,E,1,12,1.0,0.0,M,0.0,M,,*6D
$GPGSA,A,3,01,02,03,04,05,06,07,08,09,10,11,12,1.0,1.0,1.0*30
$GPRMC,092650.976,A,5702.836,N,00954.886,E,032.3,051.9,191218,000.0,W*74
$GPGGA,092651.976,5702.843,N,00954.895,E,1,12,1.0,0.0,M,0.0,M,,*6C
$GPGSA,A,3,01,02,03,04,05,06,07,08,09,10,11,12,1.0,1.0,1.0*30
$GPRMC,092651.976,A,5702.843,N,00954.895,E,032.3,051.9,191218,000.0,W*75
$GPGGA,092652.976,5702.851,N,00954.904,E,1,12,1.0,0.0,M,0.0,M,,*65
$GPGSA,A,3,01,02,03,04,05,06,07,08,09,10,11,12,1.0,1.0,1.0*30
$GPRMC,092652.976,A,5702.851,N,00954.904,E,032.3,051.9,191218,000.0,W*7C
$GPGGA,092653.976,5702.858,N,00954.914,E,1,12,1.0,0.0,M,0.0,M,,*6C
$GPGSA,A,3,01,02,03,04,05,06,07,08,09,10,11,12,1.0,1.0,1.0*30
$GPRMC,092653.976,A,5702.858,N,00954.914,E,032.3,051.9,191218,000.0,W*75
$GPGGA,092654.976,5702.865,N,00954.923,E,1,12,1.0,0.0,M,0.0,M,,*61
$GPGSA,A,3,01,02,03,04,05,06,07,08,09,10,11,12,1.0,1.0,1.0*30
$GPRMC,092654.976,A,5702.865,N,00954.923,E,032.3,051.9,191218,000.0,W*78
$GPGGA,092655.976,5702.873,N,00954.933,E,1,12,1.0,0.0,M,0.0,M,,*66
$GPGSA,A,3,01,02,03,04,05,06,07,08,09,10,11,12,1.0,1.0,1.0*30
$GPRMC,092655.976,A,5702.873,N,00954.933,E,032.3,051.9,191218,000.0,W*7F
$GPGGA,092656.976,5702.880,N,00954.942,E,1,12,1.0,0.0,M,0.0,M,,*6F
$GPGSA,A,3,01,02,03,04,05,06,07,08,09,10,11,12,1.0,1.0,1.0*30
$GPRMC,092656.976,A,5702.880,N,00954.942,E,032.3,028.4,191218,000.0,W*75
$GPGGA,092657.976,5702.889,N,00954.947,E,1,12,1.0,0.0,M,0.0,M,,*62
$GPGSA,A,3,01,02,03,04,05,06,07,08,09,10,11,12,1.0,1.0,1.0*30
$GPRMC,092657.976,A,5702.889,N,00954.947,E,032.3,028.4,191218,000.0,W*78
$GPGGA,092658.976,5702.897,N,00954.951,E,1,12,1.0,0.0,M,0.0,M,,*65
$GPGSA,A,3,01,02,03,04,05,06,07,08,09,10,11,12,1.0,1.0,1.0*30
$GPRMC,092658.976,A,5702.897,N,00954.951,E,032.3,028.4,191218,000.0,W*7F
$GPGGA,092659.976,5702.906,N,00954.956,E,1,12,1.0,0.0,M,0.0,M,,*6A
$GPGSA,A,3,01,02,03,04,05,06,07,08,09,10,11,12,1.0,1.0,1.0*30
$GPRMC,092659.976,A,5702.906,N,00954.956,E,032.3,028.4,191218,000.0,W*70
$GPGGA,092700.976,5702.914,N,00954.961,E,1,12,1.0,0.0,M,0.0,M,,*60
$GPGSA,A,3,01,02,03,04,05,06,07,08,09,10,11,12,1.0,1.0,1.0*30
$GPRMC,092700.976,A,5702.914,N,00954.961,E,032.3,028.4,191218,000.0,W*7A
$GPGGA,092701.976,5702.923,N,00954.965,E,1,12,1.0,0.0,M,0.0,M,,*61
$GPGSA,A,3,01,02,03,04,05,06,07,08,09,10,11,12,1.0,1.0,1.0*30
$GPRMC,092701.976,A,5702.923,N,00954.965,E,032.3,028.4,191218,000.0,W*7B
$GPGGA,092702.976,5702.932,N,00954.970,E,1,12,1.0,0.0,M,0.0,M,,*66
$GPGSA,A,3,01,02,03,04,05,06,07,08,09,10,11,12,1.0,1.0,1.0*30
$GPRMC,092702.976,A,5702.932,N,00954.970,E,032.3,012.1,191218,000.0,W*70
$GPGGA,092703.976,5702.940,N,00954.972,E,1,12,1.0,0.0,M,0.0,M,,*60
$GPGSA,A,3,01,02,03,04,05,06,07,08,09,10,11,12,1.0,1.0,1.0*30
$GPRMC,092703.976,A,5702.940,N,00954.972,E,032.3,012.1,191218,000.0,W*76
$GPGGA,092704.976,5702.949,N,00954.974,E,1,12,1.0,0.0,M,0.0,M,,*68
$GPGSA,A,3,01,02,03,04,05,06,07,08,09,10,11,12,1.0,1.0,1.0*30
$GPRMC,092704.976,A,5702.949,N,00954.974,E,032.3,012.1,191218,000.0,W*7E
$GPGGA,092705.976,5702.958,N,00954.976,E,1,12,1.0,0.0,M,0.0,M,,*6B
$GPGSA,A,3,01,02,03,04,05,06,07,08,09,10,11,12,1.0,1.0,1.0*30
$GPRMC,092705.976,A,5702.958,N,00954.976,E,032.3,012.1,191218,000.0,W*7D
$GPGGA,092706.976,5702.967,N,00954.978,E,1,12,1.0,0.0,M,0.0,M,,*6A
$GPGSA,A,3,01,02,03,04,05,06,07,08,09,10,11,12,1.0,1.0,1.0*30
$GPRMC,092706.976,A,5702.967,N,00954.978,E,032.3,012.1,191218,000.0,W*7C
$GPGGA,092707.976,5702.976,N,00954.980,E,1,12,1.0,0.0,M,0.0,M,,*6C
$GPGSA,A,3,01,02,03,04,05,06,07,08,09,10,11,12,1.0,1.0,1.0*30
$GPRMC,092707.976,A,5702.976,N,00954.980,E,032.3,012.1,191218,000.0,W*7A
$GPGGA,092708.976,5702.985,N,00954.982,E,1,12,1.0,0.0,M,0.0,M,,*6D
$GPGSA,A,3,01,02,03,04,05,06,07,08,09,10,11,12,1.0,1.0,1.0*30
$GPRMC,092708.976,A,5702.985,N,00954.982,E,032.3,012.1,191218,000.0,W*7B
$GPGGA,092709.976,5702.994,N,00954.984,E,1,12,1.0,0.0,M,0.0,M,,*6A
$GPGSA,A,3,01,02,03,04,05,06,07,08,09,10,11,12,1.0,1.0,1.0*30
$GPRMC,092709.976,A,5702.994,N,00954.984,E,032.3,012.1,191218,000.0,W*7C
$GPGGA,092710.976,5703.003,N,00954.985,E,1,12,1.0,0.0,M,0.0,M,,*65
$GPGSA,A,3,01,02,03,04,05,06,07,08,09,10,11,12,1.0,1.0,1.0*30
$GPRMC,092710.976,A,5703.003,N,00954.985,E,032.3,012.1,191218,000.0,W*73
$GPGGA,092711.976,5703.012,N,00954.987,E,1,12,1.0,0.0,M,0.0,M,,*66
$GPGSA,A,3,01,02,03,04,05,06,07,08,09,10,11,12,1.0,1.0,1.0*30
$GPRMC,092711.976,A,5703.012,N,00954.987,E,032.3,012.1,191218,000.0,W*70
$GPGGA,092712.976,5703.021,N,00954.989,E,1,12,1.0,0.0,M,0.0,M,,*6B
$GPGSA,A,3,01,02,03,04,05,06,07,08,09,10,11,12,1.0,1.0,1.0*30
$GPRMC,092712.976,A,5703.021,N,00954.989,E,032.3,012.1,191218,000.0,W*7D
$GPGGA,092713.976,5703.029,N,00954.991,E,1,12,1.0,0.0,M,0.0,M,,*6B
$GPGSA,A,3,01,02,03,04,05,06,07,08,09,10,11,12,1.0,1.0,1.0*30
$GPRMC,092713.976,A,5703.029,N,00954.991,E,032.3,019.2,191218,000.0,W*75
$GPGGA,092714.976,5703.038,N,00954.994,E,1,12,1.0,0.0,M,0.0,M,,*69
$GPGSA,A,3,01,02,03,04,05,06,07,08,09,10,11,12,1.0,1.0,1.0*30
$GPRMC,092714.976,A,5703.038,N,00954.994,E,032.3,019.2,191218,000.0,W*77
$GPGGA,092715.976,5703.047,N,00954.997,E,1,12,1.0,0.0,M,0.0,M,,*63
$GPGSA,A,3,01,02,03,04,05,06,07,08,09,10,11,12,1.0,1.0,1.0*30
$GPRMC,092715.976,A,5703.047,N,00954.997,E,032.3,019.2,191218,000.0,W*7D
$GPGGA,092716.976,5703.056,N,00955.000,E,1,12,1.0,0.0,M,0.0,M,,*66
$GPGSA,A,3,01,02,03,04,05,06,07,08,09,10,11,12,1.0,1.0,1.0*30
$GPRMC,092716.976,A,5703.056,N,00955.000,E,032.3,019.2,191218,000.0,W*78
$GPGGA,092717.976,5703.065,N,00955.004,E,1,12,1.0,0.0,M,0.0,M,,*63
$GPGSA,A,3,01,02,03,04,05,06,07,08,09,10,11,12,1.0,1.0,1.0*30
$GPRMC,092717.976,A,5703.065,N,00955.004,E,032.3,019.2,191218,000.0,W*7D
$GPGGA,092718.976,5703.073,N,00955.007,E,1,12,1.0,0.0,M,0.0,M,,*68
$GPGSA,A,3,01,02,03,04,05,06,07,08,09,10,11,12,1.0,1.0,1.0*30
$GPRMC,092718.976,A,5703.073,N,00955.007,E,032.3,019.2,191218,000.0,W*76
$GPGGA,092719.976,5703.082,N,00955.010,E,1,12,1.0,0.0,M,0.0,M,,*61
$GPGSA,A,3,01,02,03,04,05,06,07,08,09,10,11,12,1.0,1.0,1.0*30
$GPRMC,092719.976,A,5703.082,N,00955.010,E,032.3,019.2,191218,000.0,W*7F
$GPGGA,092720.976,5703.091,N,00955.013,E,1,12,1.0,0.0,M,0.0,M,,*6A
$GPGSA,A,3,01,02,03,04,05,06,07,08,09,10,11,12,1.0,1.0,1.0*30
$GPRMC,092720.976,A,5703.091,N,00955.013,E,032.3,019.2,191218,000.0,W*74
$GPGGA,092721.976,5703.100,N,00955.016,E,1,12,1.0,0.0,M,0.0,M,,*67
$GPGSA,A,3,01,02,03,04,05,06,07,08,09,10,11,12,1.0,1.0,1.0*30
$GPRMC,092721.976,A,5703.100,N,00955.016,E,032.3,019.2,191218,000.0,W*79
$GPGGA,092722.976,5703.109,N,00955.019,E,1,12,1.0,0.0,M,0.0,M,,*62
$GPGSA,A,3,01,02,03,04,05,06,07,08,09,10,11,12,1.0,1.0,1.0*30
$GPRMC,092722.976,A,5703.109,N,00955.019,E,032.3,019.2,191218,000.0,W*7C
$GPGGA,092723.976,5703.117,N,00955.022,E,1,12,1.0,0.0,M,0.0,M,,*64
$GPGSA,A,3,01,02,03,04,05,06,07,08,09,10,11,12,1.0,1.0,1.0*30
$GPRMC,092723.976,A,5703.117,N,00955.022,E,032.3,019.2,191218,000.0,W*7A
$GPGGA,092724.976,5703.126,N,00955.025,E,1,12,1.0,0.0,M,0.0,M,,*66
$GPGSA,A,3,01,02,03,04,05,06,07,08,09,10,11,12,1.0,1.0,1.0*30
$GPRMC,092724.976,A,5703.126,N,00955.025,E,032.3,040.3,191218,000.0,W*75
$GPGGA,092725.976,5703.134,N,00955.032,E,1,12,1.0,0.0,M,0.0,M,,*62
$GPGSA,A,3,01,02,03,04,05,06,07,08,09,10,11,12,1.0,1.0,1.0*30
$GPRMC,092725.976,A,5703.134,N,00955.032,E,032.3,040.3,191218,000.0,W*71
$GPGGA,092726.976,5703.142,N,00955.039,E,1,12,1.0,0.0,M,0.0,M,,*6B
$GPGSA,A,3,01,02,03,04,05,06,07,08,09,10,11,12,1.0,1.0,1.0*30
$GPRMC,092726.976,A,5703.142,N,00955.039,E,032.3,040.3,191218,000.0,W*78
$GPGGA,092727.976,5703.151,N,00955.046,E,1,12,1.0,0.0,M,0.0,M,,*60
$GPGSA,A,3,01,02,03,04,05,06,07,08,09,10,11,12,1.0,1.0,1.0*30
$GPRMC,092727.976,A,5703.151,N,00955.046,E,032.3,040.3,191218,000.0,W*73
$GPGGA,092728.976,5703.159,N,00955.053,E,1,12,1.0,0.0,M,0.0,M,,*63
$GPGSA,A,3,01,02,03,04,05,06,07,08,09,10,11,12,1.0,1.0,1.0*30
$GPRMC,092728.976,A,5703.159,N,00955.053,E,032.3,040.3,191218,000.0,W*70
$GPGGA,092729.976,5703.167,N,00955.060,E,1,12,1.0,0.0,M,0.0,M,,*6F
$GPGSA,A,3,01,02,03,04,05,06,07,08,09,10,11,12,1.0,1.0,1.0*30
$GPRMC,092729.976,A,5703.167,N,00955.060,E,028.3,047.6,191218,000.0,W*75
$GPGGA,092730.976,5703.174,N,00955.067,E,1,12,1.0,0.0,M,0.0,M,,*62
$GPGSA,A,3,01,02,03,04,05,06,07,08,09,10,11,12,1.0,1.0,1.0*30
$GPRMC,092730.976,A,5703.174,N,00955.067,E,028.3,047.6,191218,000.0,W*78
$GPGGA,092731.976,5703.180,N,00955.075,E,1,12,1.0,0.0,M,0.0,M,,*6B
$GPGSA,A,3,01,02,03,04,05,06,07,08,09,10,11,12,1.0,1.0,1.0*30
$GPRMC,092731.976,A,5703.180,N,00955.075,E,028.3,047.6,191218,000.0,W*71
$GPGGA,092732.976,5703.187,N,00955.082,E,1,12,1.0,0.0,M,0.0,M,,*67
$GPGSA,A,3,01,02,03,04,05,06,07,08,09,10,11,12,1.0,1.0,1.0*30
$GPRMC,092732.976,A,5703.187,N,00955.082,E,028.3,047.6,191218,000.0,W*7D
$GPGGA,092733.976,5703.194,N,00955.089,E,1,12,1.0,0.0,M,0.0,M,,*6F
$GPGSA,A,3,01,02,03,04,05,06,07,08,09,10,11,12,1.0,1.0,1.0*30
$GPRMC,092733.976,A,5703.194,N,00955.089,E,028.3,047.6,191218,000.0,W*75
$GPGGA,092734.976,5703.201,N,00955.097,E,1,12,1.0,0.0,M,0.0,M,,*68
$GPGSA,A,3,01,02,03,04,05,06,07,08,09,10,11,12,1.0,1.0,1.0*30
$GPRMC,092734.976,A,5703.201,N,00955.097,E,028.3,047.6,191218,000.0,W*72
$GPGGA,092735.976,5703.207,N,00955.104,E,1,12,1.0,0.0,M,0.0,M,,*64
$GPGSA,A,3,01,02,03,04,05,06,07,08,09,10,11,12,1.0,1.0,1.0*30
$GPRMC,092735.976,A,5703.207,N,00955.104,E,028.3,047.6,191218,000.0,W*7E
$GPGGA,092736.976,5703.214,N,00955.112,E,1,12,1.0,0.0,M,0.0,M,,*62
$GPGSA,A,3,01,02,03,04,05,06,07,08,09,10,11,12,1.0,1.0,1.0*30
$GPRMC,092736.976,A,5703.214,N,00955.112,E,028.3,047.6,191218,000.0,W*78
$GPGGA,092737.976,5703.221,N,00955.119,E,1,12,1.0,0.0,M,0.0,M,,*6E
$GPGSA,A,3,01,02,03,04,05,06,07,08,09,10,11,12,1.0,1.0,1.0*30
$GPRMC,092737.976,A,5703.221,N,00955.119,E,028.3,047.6,191218,000.0,W*74
$GPGGA,092738.976,5703.227,N,00955.126,E,1,12,1.0,0.0,M,0.0,M,,*6B
$GPGSA,A,3,01,02,03,04,05,06,07,08,09,10,11,12,1.0,1.0,1.0*30
$GPRMC,092738.976,A,5703.227,N,00955.126,E,028.3,047.6,191218,000.0,W*71
$GPGGA,092739.976,5703.234,N,00955.134,E,1,12,1.0,0.0,M,0.0,M,,*6B
$GPGSA,A,3,01,02,03,04,05,06,07,08,09,10,11,12,1.0,1.0,1.0*30
$GPRMC,092739.976,A,5703.234,N,00955.134,E,028.3,047.6,191218,000.0,W*71
$GPGGA,092740.976,5703.241,N,00955.141,E,1,12,1.0,0.0,M,0.0,M,,*65
$GPGSA,A,3,01,02,03,04,05,06,07,08,09,10,11,12,1.0,1.0,1.0*30
$GPRMC,092740.976,A,5703.241,N,00955.141,E,028.3,047.6,191218,000.0,W*7F
$GPGGA,092741.976,5703.248,N,00955.149,E,1,12,1.0,0.0,M,0.0,M,,*65
$GPGSA,A,3,01,02,03,04,05,06,07,08,09,10,11,12,1.0,1.0,1.0*30
$GPRMC,092741.976,A,5703.248,N,00955.149,E,028.3,047.6,191218,000.0,W*7F
$GPGGA,092742.976,5703.254,N,00955.156,E,1,12,1.0,0.0,M,0.0,M,,*65
$GPGSA,A,3,01,02,03,04,05,06,07,08,09,10,11,12,1.0,1.0,1.0*30
$GPRMC,092742.976,A,5703.254,N,00955.156,E,028.3,047.6,191218,000.0,W*7F
$GPGGA,092743.976,5703.261,N,00955.163,E,1,12,1.0,0.0,M,0.0,M,,*64
$GPGSA,A,3,01,02,03,04,05,06,07,08,09,10,11,12,1.0,1.0,1.0*30
$GPRMC,092743.976,A,5703.261,N,00955.163,E,028.3,047.6,191218,000.0,W*7E
$GPGGA,092744.976,5703.268,N,00955.171,E,1,12,1.0,0.0,M,0.0,M,,*69
$GPGSA,A,3,01,02,03,04,05,06,07,08,09,10,11,12,1.0,1.0,1.0*30
$GPRMC,092744.976,A,5703.268,N,00955.171,E,028.3,047.6,191218,000.0,W*73
$GPGGA,092745.976,5703.275,N,00955.178,E,1,12,1.0,0.0,M,0.0,M,,*6D
$GPGSA,A,3,01,02,03,04,05,06,07,08,09,10,11,12,1.0,1.0,1.0*30
$GPRMC,092745.976,A,5703.275,N,00955.178,E,028.3,047.6,191218,000.0,W*77
$GPGGA,092746.976,5703.281,N,00955.186,E,1,12,1.0,0.0,M,0.0,M,,*64
$GPGSA,A,3,01,02,03,04,05,06,07,08,09,10,11,12,1.0,1.0,1.0*30
$GPRMC,092746.976,A,5703.281,N,00955.186,E,028.3,047.6,191218,000.0,W*7E
$GPGGA,092747.976,5703.288,N,00955.193,E,1,12,1.0,0.0,M,0.0,M,,*68
$GPGSA,A,3,01,02,03,04,05,06,07,08,09,10,11,12,1.0,1.0,1.0*30
$GPRMC,092747.976,A,5703.288,N,00955.193,E,028.3,047.6,191218,000.0,W*72
$GPGGA,092748.976,5703.295,N,00955.201,E,1,12,1.0,0.0,M,0.0,M,,*63
$GPGSA,A,3,01,02,03,04,05,06,07,08,09,10,11,12,1.0,1.0,1.0*30
$GPRMC,092748.976,A,5703.295,N,00955.201,E,028.3,047.6,191218,000.0,W*79
$GPGGA,092749.976,5703.302,N,00955.208,E,1,12,1.0,0.0,M,0.0,M,,*64
$GPGSA,A,3,01,02,03,04,05,06,07,08,09,10,11,12,1.0,1.0,1.0*30
$GPRMC,092749.976,A,5703.302,N,00955.208,E,028.3,047.6,191218,000.0,W*7E
$GPGGA,092750.976,5703.308,N,00955.215,E,1,12,1.0,0.0,M,0.0,M,,*6A
$GPGSA,A,3,01,02,03,04,05,06,07,08,09,10,11,12,1.0,1.0,1.0*30
$GPRMC,092750.976,A,5703.308,N,00955.215,E,028.3,047.6,191218,000.0,W*70
$GPGGA,092751.976,5703.315,N,00955.223,E,1,12,1.0,0.0,M,0.0,M,,*62
$GPGSA,A,3,01,02,03,04,05,06,07,08,09,10,11,12,1.0,1.0,1.0*30
$GPRMC,092751.976,A,5703.315,N,00955.223,E,028.3,047.6,191218,000.0,W*78
$GPGGA,092752.976,5703.322,N,00955.230,E,1,12,1.0,0.0,M,0.0,M,,*67
$GPGSA,A,3,01,02,03,04,05,06,07,08,09,10,11,12,1.0,1.0,1.0*30
$GPRMC,092752.976,A,5703.322,N,00955.230,E,028.3,047.6,191218,000.0,W*7D
$GPGGA,092753.976,5703.329,N,00955.238,E,1,12,1.0,0.0,M,0.0,M,,*65
$GPGSA,A,3,01,02,03,04,05,06,07,08,09,10,11,12,1.0,1.0,1.0*30
$GPRMC,092753.976,A,5703.329,N,00955.238,E,028.3,047.6,191218,000.0,W*7F
$GPGGA,092754.976,5703.335,N,00955.245,E,1,12,1.0,0.0,M,0.0,M,,*65
$GPGSA,A,3,01,02,03,04,05,06,07,08,09,10,11,12,1.0,1.0,1.0*30
$GPRMC,092754.976,A,5703.335,N,00955.245,E,028.3,047.6,191218,000.0,W*7F
$GPGGA,092755.976,5703.342,N,00955.252,E,1,12,1.0,0.0,M,0.0,M,,*62
$GPGSA,A,3,01,02,03,04,05,06,07,08,09,10,11,12,1.0,1.0,1.0*30
$GPRMC,092755.976,A,5703.342,N,00955.252,E,028.3,047.6,191218,000.0,W*78
$GPGGA,092756.976,5703.349,N,00955.260,E,1,12,1.0,0.0,M,0.0,M,,*6B
$GPGSA,A,3,01,02,03,04,05,06,07,08,09,10,11,12,1.0,1.0,1.0*30
$GPRMC,092756.976,A,5703.349,N,00955.260,E,028.3,047.6,191218,000.0,W*71
$GPGGA,092757.976,5703.356,N,00955.267,E,1,12,1.0,0.0,M,0.0,M,,*63
$GPGSA,A,3,01,02,03,04,05,06,07,08,09,10,11,12,1.0,1.0,1.0*30
$GPRMC,092757.976,A,5703.356,N,00955.267,E,028.3,047.6,191218,000.0,W*79
$GPGGA,092758.976,5703.362,N,00955.275,E,1,12,1.0,0.0,M,0.0,M,,*68
$GPGSA,A,3,01,02,03,04,05,06,07,08,09,10,11,12,1.0,1.0,1.0*30
$GPRMC,092758.976,A,5703.362,N,00955.275,E,028.3,047.6,191218,000.0,W*72
$GPGGA,092759.976,5703.369,N,00955.282,E,1,12,1.0,0.0,M,0.0,M,,*6A
$GPGSA,A,3,01,02,03,04,05,06,07,08,09,10,11,12,1.0,1.0,1.0*30
$GPRMC,092759.976,A,5703.369,N,00955.282,E,028.3,047.6,191218,000.0,W*70
$GPGGA,092800.976,5703.376,N,00955.289,E,1,12,1.0,0.0,M,0.0,M,,*6C
$GPGSA,A,3,01,02,03,04,05,06,07,08,09,10,11,12,1.0,1.0,1.0*30
$GPRMC,092800.976,A,5703.376,N,00955.289,E,028.3,047.6,191218,000.0,W*76
$GPGGA,092801.976,5703.382,N,00955.297,E,1,12,1.0,0.0,M,0.0,M,,*69
$GPGSA,A,3,01,02,03,04,05,06,07,08,09,10,11,12,1.0,1.0,1.0*30
$GPRMC,092801.976,A,5703.382,N,00955.297,E,028.3,047.6,191218,000.0,W*73
$GPGGA,092802.976,5703.389,N,00955.304,E,1,12,1.0,0.0,M,0.0,M,,*6A
$GPGSA,A,3,01,02,03,04,05,06,07,08,09,10,11,12,1.0,1.0,1.0*30
$GPRMC,092802.976,A,5703.389,N,00955.304,E,028.3,047.6,191218,000.0,W*70
$GPGGA,092803.976,5703.396,N,00955.312,E,1,12,1.0,0.0,M,0.0,M,,*62
$GPGSA,A,3,01,02,03,04,05,06,07,08,09,10,11,12,1.0,1.0,1.0*30
$GPRMC,092803.976,A,5703.396,N,00955.312,E,028.3,039.1,191218,000.0,W*76
$GPGGA,092804.976,5703.403,N,00955.317,E,1,12,1.0,0.0,M,0.0,M,,*6B
$GPGSA,A,3,01,02,03,04,05,06,07,08,09,10,11,12,1.0,1.0,1.0*30
$GPRMC,092804.976,A,5703.403,N,00955.317,E,028.3,039.1,191218,000.0,W*7F
$GPGGA,092805.976,5703.410,N,00955.323,E,1,12,1.0,0.0,M,0.0,M,,*6F
$GPGSA,A,3,01,02,03,04,05,06,07,08,09,10,11,12,1.0,1.0,1.0*30
$GPRMC,092805.976,A,5703.410,N,00955.323,E,028.3,039.1,191218,000.0,W*7B
$GPGGA,092806.976,5703.417,N,00955.329,E,1,12,1.0,0.0,M,0.0,M,,*61
$GPGSA,A,3,01,02,03,04,05,06,07,08,09,10,11,12,1.0,1.0,1.0*30
$GPRMC,092806.976,A,5703.417,N,00955.329,E,028.3,039.1,191218,000.0,W*75
$GPGGA,092807.976,5703.425,N,00955.335,E,1,12,1.0,0.0,M,0.0,M,,*6C
$GPGSA,A,3,01,02,03,04,05,06,07,08,09,10,11,12,1.0,1.0,1.0*30
$GPRMC,092807.976,A,5703.425,N,00955.335,E,028.3,039.1,191218,000.0,W*78
$GPGGA,092808.976,5703.432,N,00955.341,E,1,12,1.0,0.0,M,0.0,M,,*66
$GPGSA,A,3,01,02,03,04,05,06,07,08,09,10,11,12,1.0,1.0,1.0*30
$GPRMC,092808.976,A,5703.432,N,00955.341,E,036.9,012.6,191218,000.0,W*79
$GPGGA,092809.976,5703.442,N,00955.343,E,1,12,1.0,0.0,M,0.0,M,,*62
$GPGSA,A,3,01,02,03,04,05,06,07,08,09,10,11,12,1.0,1.0,1.0*30
$GPRMC,092809.976,A,5703.442,N,00955.343,E,036.9,012.6,191218,000.0,W*7D
$GPGGA,092810.976,5703.452,N,00955.345,E,1,12,1.0,0.0,M,0.0,M,,*6D
$GPGSA,A,3,01,02,03,04,05,06,07,08,09,10,11,12,1.0,1.0,1.0*30
$GPRMC,092810.976,A,5703.452,N,00955.345,E,036.9,286.3,191218,000.0,W*78
$GPGGA,092811.976,5703.457,N,00955.329,E,1,12,1.0,0.0,M,0.0,M,,*63
$GPGSA,A,3,01,02,03,04,05,06,07,08,09,10,11,12,1.0,1.0,1.0*30
$GPRMC,092811.976,A,5703.457,N,00955.329,E,036.9,286.3,191218,000.0,W*76
$GPGGA,092812.976,5703.462,N,00955.312,E,1,12,1.0,0.0,M,0.0,M,,*6E
$GPGSA,A,3,01,02,03,04,05,06,07,08,09,10,11,12,1.0,1.0,1.0*30
$GPRMC,092812.976,A,5703.462,N,00955.312,E,036.9,286.3,191218,000.0,W*7B
$GPGGA,092813.976,5703.467,N,00955.296,E,1,12,1.0,0.0,M,0.0,M,,*67
$GPGSA,A,3,01,02,03,04,05,06,07,08,09,10,11,12,1.0,1.0,1.0*30
$GPRMC,092813.976,A,5703.467,N,00955.296,E,036.9,286.3,191218,000.0,W*72
$GPGGA,092814.976,5703.472,N,00955.279,E,1,12,1.0,0.0,M,0.0,M,,*65
$GPGSA,A,3,01,02,03,04,05,06,07,08,09,10,11,12,1.0,1.0,1.0*30
$GPRMC,092814.976,A,5703.472,N,00955.279,E,036.9,286.3,191218,000.0,W*70
$GPGGA,092815.976,5703.476,N,00955.262,E,1,12,1.0,0.0,M,0.0,M,,*6A
$GPGSA,A,3,01,02,03,04,05,06,07,08,09,10,11,12,1.0,1.0,1.0*30
$GPRMC,092815.976,A,5703.476,N,00955.262,E,036.9,286.3,191218,000.0,W*7F
$GPGGA,092816.976,5703.481,N,00955.246,E,1,12,1.0,0.0,M,0.0,M,,*67
$GPGSA,A,3,01,02,03,04,05,06,07,08,09,10,11,12,1.0,1.0,1.0*30
$GPRMC,092816.976,A,5703.481,N,00955.246,E,036.9,286.3,191218,000.0,W*72
$GPGGA,092817.976,5703.486,N,00955.229,E,1,12,1.0,0.0,M,0.0,M,,*68
$GPGSA,A,3,01,02,03,04,05,06,07,08,09,10,11,12,1.0,1.0,1.0*30
$GPRMC,092817.976,A,5703.486,N,00955.229,E,036.9,286.3,191218,000.0,W*7D
$GPGGA,092818.976,5703.491,N,00955.213,E,1,12,1.0,0.0,M,0.0,M,,*68
$GPGSA,A,3,01,02,03,04,05,06,07,08,09,10,11,12,1.0,1.0,1.0*30
$GPRMC,092818.976,A,5703.491,N,00955.213,E,036.9,296.9,191218,000.0,W*76
$GPGGA,092819.976,5703.498,N,00955.199,E,1,12,1.0,0.0,M,0.0,M,,*61
$GPGSA,A,3,01,02,03,04,05,06,07,08,09,10,11,12,1.0,1.0,1.0*30
$GPRMC,092819.976,A,5703.498,N,00955.199,E,036.9,296.9,191218,000.0,W*7F
$GPGGA,092820.976,5703.505,N,00955.185,E,1,12,1.0,0.0,M,0.0,M,,*63
$GPGSA,A,3,01,02,03,04,05,06,07,08,09,10,11,12,1.0,1.0,1.0*30
$GPRMC,092820.976,A,5703.505,N,00955.185,E,036.9,296.9,191218,000.0,W*7D
$GPGGA,092821.976,5703.512,N,00955.171,E,1,12,1.0,0.0,M,0.0,M,,*6F
$GPGSA,A,3,01,02,03,04,05,06,07,08,09,10,11,12,1.0,1.0,1.0*30
$GPRMC,092821.976,A,5703.512,N,00955.171,E,036.9,296.9,191218,000.0,W*71
$GPGGA,092822.976,5703.519,N,00955.157,E,1,12,1.0,0.0,M,0.0,M,,*63
$GPGSA,A,3,01,02,03,04,05,06,07,08,09,10,11,12,1.0,1.0,1.0*30
$GPRMC,092822.976,A,5703.519,N,00955.157,E,036.9,296.9,191218,000.0,W*7D
$GPGGA,092823.976,5703.526,N,00955.143,E,1,12,1.0,0.0,M,0.0,M,,*6B
$GPGSA,A,3,01,02,03,04,05,06,07,08,09,10,11,12,1.0,1.0,1.0*30
$GPRMC,092823.976,A,5703.526,N,00955.143,E,036.9,328.2,191218,000.0,W*7A
$GPGGA,092824.976,5703.535,N,00955.137,E,1,12,1.0,0.0,M,0.0,M,,*6D
$GPGSA,A,3,01,02,03,04,05,06,07,08,09,10,11,12,1.0,1.0,1.0*30
$GPRMC,092824.976,A,5703.535,N,00955.137,E,036.9,328.2,191218,000.0,W*7C
$GPGGA,092825.976,5703.545,N,00955.131,E,1,12,1.0,0.0,M,0.0,M,,*6D
$GPGSA,A,3,01,02,03,04,05,06,07,08,09,10,11,12,1.0,1.0,1.0*30
$GPRMC,092825.976,A,5703.545,N,00955.131,E,036.9,328.2,191218,000.0,W*7C
$GPGGA,092826.976,5703.555,N,00955.125,E,1,12,1.0,0.0,M,0.0,M,,*6A
$GPGSA,A,3,01,02,03,04,05,06,07,08,09,10,11,12,1.0,1.0,1.0*30
$GPRMC,092826.976,A,5703.555,N,00955.125,E,036.9,328.2,191218,000.0,W*7B
$GPGGA,092827.976,5703.565,N,00955.119,E,1,12,1.0,0.0,M,0.0,M,,*67
$GPGSA,A,3,01,02,03,04,05,06,07,08,09,10,11,12,1.0,1.0,1.0*30
$GPRMC,092827.976,A,5703.565,N,00955.119,E,036.9,328.2,191218,000.0,W*76
$GPGGA,092828.976,5703.574,N,00955.113,E,1,12,1.0,0.0,M,0.0,M,,*62
$GPGSA,A,3,01,02,03,04,05,06,07,08,09,10,11,12,1.0,1.0,1.0*30
$GPRMC,092828.976,A,5703.574,N,00955.113,E,036.9,328.2,191218,000.0,W*73
$GPGGA,092829.976,5703.584,N,00955.107,E,1,12,1.0,0.0,M,0.0,M,,*69
$GPGSA,A,3,01,02,03,04,05,06,07,08,09,10,11,12,1.0,1.0,1.0*30
$GPRMC,092829.976,A,5703.584,N,00955.107,E,036.9,311.0,191218,000.0,W*70
$GPGGA,092830.976,5703.593,N,00955.097,E,1,12,1.0,0.0,M,0.0,M,,*6F
$GPGSA,A,3,01,02,03,04,05,06,07,08,09,10,11,12,1.0,1.0,1.0*30
$GPRMC,092830.976,A,5703.593,N,00955.097,E,036.9,311.0,191218,000.0,W*76
$GPGGA,092831.976,5703.601,N,00955.087,E,1,12,1.0,0.0,M,0.0,M,,*67
$GPGSA,A,3,01,02,03,04,05,06,07,08,09,10,11,12,1.0,1.0,1.0*30
$GPRMC,092831.976,A,5703.601,N,00955.087,E,036.9,311.0,191218,000.0,W*7E
$GPGGA,092832.976,5703.610,N,00955.077,E,1,12,1.0,0.0,M,0.0,M,,*6B
$GPGSA,A,3,01,02,03,04,05,06,07,08,09,10,11,12,1.0,1.0,1.0*30
$GPRMC,092832.976,A,5703.610,N,00955.077,E,036.9,311.0,191218,000.0,W*72
$GPGGA,092833.976,5703.619,N,00955.067,E,1,12,1.0,0.0,M,0.0,M,,*62
$GPGSA,A,3,01,02,03,04,05,06,07,08,09,10,11,12,1.0,1.0,1.0*30
$GPRMC,092833.976,A,5703.619,N,00955.067,E,036.9,289.7,191218,000.0,W*7C
$GPGGA,092834.976,5703.624,N,00955.051,E,1,12,1.0,0.0,M,0.0,M,,*6E
$GPGSA,A,3,01,02,03,04,05,06,07,08,09,10,11,12,1.0,1.0,1.0*30
$GPRMC,092834.976,A,5703.624,N,00955.051,E,036.9,289.7,191218,000.0,W*70
$GPGGA,092835.976,5703.630,N,00955.035,E,1,12,1.0,0.0,M,0.0,M,,*68
$GPGSA,A,3,01,02,03,04,05,06,07,08,09,10,11,12,1.0,1.0,1.0*30
$GPRMC,092835.976,A,5703.630,N,00955.035,E,036.9,289.7,191218,000.0,W*76
$GPGGA,092836.976,5703.636,N,00955.020,E,1,12,1.0,0.0,M,0.0,M,,*69
$GPGSA,A,3,01,02,03,04,05,06,07,08,09,10,11,12,1.0,1.0,1.0*30
$GPRMC,092836.976,A,5703.636,N,00955.020,E,036.9,289.7,191218,000.0,W*77
$GPGGA,092837.976,5703.641,N,00955.004,E,1,12,1.0,0.0,M,0.0,M,,*6E
$GPGSA,A,3,01,02,03,04,05,06,07,08,09,10,11,12,1.0,1.0,1.0*30
$GPRMC,092837.976,A,5703.641,N,00955.004,E,036.9,289.7,191218,000.0,W*70
$GPGGA,092838.976,5703.647,N,00954.988,E,1,12,1.0,0.0,M,0.0,M,,*6B
$GPGSA,A,3,01,02,03,04,05,06,07,08,09,10,11,12,1.0,1.0,1.0*30
$GPRMC,092838.976,A,5703.647,N,00954.988,E,036.9,289.7,191218,000.0,W*75
$GPGGA,092839.976,5703.652,N,00954.972,E,1,12,1.0,0.0,M,0.0,M,,*6B
$GPGSA,A,3,01,02,03,04,05,06,07,08,09,10,11,12,1.0,1.0,1.0*30
$GPRMC,092839.976,A,5703.652,N,00954.972,E,036.9,289.7,191218,000.0,W*75
$GPGGA,092840.976,5703.658,N,00954.956,E,1,12,1.0,0.0,M,0.0,M,,*69
$GPGSA,A,3,01,02,03,04,05,06,07,08,09,10,11,12,1.0,1.0,1.0*30
$GPRMC,092840.976,A,5703.658,N,00954.956,E,036.9,289.7,191218,000.0,W*77
$GPGGA,092841.976,5703.664,N,00954.941,E,1,12,1.0,0.0,M,0.0,M,,*61
$GPGSA,A,3,01,02,03,04,05,06,07,08,09,10,11,12,1.0,1.0,1.0*30
$GPRMC,092841.976,A,5703.664,N,00954.941,E,036.9,289.7,191218,000.0,W*7F
$GPGGA,092842.976,5703.669,N,00954.925,E,1,12,1.0,0.0,M,0.0,M,,*6D
$GPGSA,A,3,01,02,03,04,05,06,07,08,09,10,11,12,1.0,1.0,1.0*30
$GPRMC,092842.976,A,5703.669,N,00954.925,E,036.9,289.7,191218,000.0,W*73
$GPGGA,092843.976,5703.675,N,00954.909,E,1,12,1.0,0.0,M,0.0,M,,*6F
$GPGSA,A,3,01,02,03,04,05,06,07,08,09,10,11,12,1.0,1.0,1.0*30
$GPRMC,092843.976,A,5703.675,N,00954.909,E,036.9,289.7,191218,000.0,W*71
$GPGGA,092844.976,5703.681,N,00954.893,E,1,12,1.0,0.0,M,0.0,M,,*61
$GPGSA,A,3,01,02,03,04,05,06,07,08,09,10,11,12,1.0,1.0,1.0*30
$GPRMC,092844.976,A,5703.681,N,00954.893,E,036.9,289.7,191218,000.0,W*7F
$GPGGA,092845.976,5703.686,N,00954.878,E,1,12,1.0,0.0,M,0.0,M,,*62
$GPGSA,A,3,01,02,03,04,05,06,07,08,09,10,11,12,1.0,1.0,1.0*30
$GPRMC,092845.976,A,5703.686,N,00954.878,E,036.9,289.7,191218,000.0,W*7C
$GPGGA,092846.976,5703.692,N,00954.862,E,1,12,1.0,0.0,M,0.0,M,,*6F
$GPGSA,A,3,01,02,03,04,05,06,07,08,09,10,11,12,1.0,1.0,1.0*30
$GPRMC,092846.976,A,5703.692,N,00954.862,E,036.9,289.7,191218,000.0,W*71
$GPGGA,092847.976,5703.697,N,00954.846,E,1,12,1.0,0.0,M,0.0,M,,*6D
$GPGSA,A,3,01,02,03,04,05,06,07,08,09,10,11,12,1.0,1.0,1.0*30
$GPRMC,092847.976,A,5703.697,N,00954.846,E,036.9,289.7,191218,000.0,W*73
$GPGGA,092848.976,5703.703,N,00954.830,E,1,12,1.0,0.0,M,0.0,M,,*6F
$GPGSA,A,3,01,02,03,04,05,06,07,08,09,10,11,12,1.0,1.0,1.0*30
$GPRMC,092848.976,A,5703.703,N,00954.830,E,036.9,289.7,191218,000.0,W*71
$GPGGA,092849.976,5703.709,N,00954.815,E,1,12,1.0,0.0,M,0.0,M,,*63
$GPGSA,A,3,01,02,03,04,05,06,07,08,09,10,11,12,1.0,1.0,1.0*30
$GPRMC,092849.976,A,5703.709,N,00954.815,E,036.9,289.7,191218,000.0,W*7D
$GPGGA,092850.976,5703.714,N,00954.799,E,1,12,1.0,0.0,M,0.0,M,,*6C
$GPGSA,A,3,01,02,03,04,05,06,07,08,09,10,11,12,1.0,1.0,1.0*30
$GPRMC,092850.976,A,5703.714,N,00954.799,E,036.9,289.7,191218,000.0,W*72
$GPGGA,092851.976,5703.720,N,00954.783,E,1,12,1.0,0.0,M,0.0,M,,*61
$GPGSA,A,3,01,02,03,04,05,06,07,08,09,10,11,12,1.0,1.0,1.0*30
$GPRMC,092851.976,A,5703.720,N,00954.783,E,036.9,289.7,191218,000.0,W*7F
$GPGGA,092852.976,5703.726,N,00954.767,E,1,12,1.0,0.0,M,0.0,M,,*6E
$GPGSA,A,3,01,02,03,04,05,06,07,08,09,10,11,12,1.0,1.0,1.0*30
$GPRMC,092852.976,A,5703.726,N,00954.767,E,036.9,289.7,191218,000.0,W*70
$GPGGA,092853.976,5703.731,N,00954.752,E,1,12,1.0,0.0,M,0.0,M,,*6F
$GPGSA,A,3,01,02,03,04,05,06,07,08,09,10,11,12,1.0,1.0,1.0*30
$GPRMC,092853.976,A,5703.731,N,00954.752,E,036.9,289.7,191218,000.0,W*71
$GPGGA,092854.976,5703.737,N,00954.736,E,1,12,1.0,0.0,M,0.0,M,,*6C
$GPGSA,A,3,01,02,03,04,05,06,07,08,09,10,11,12,1.0,1.0,1.0*30
$GPRMC,092854.976,A,5703.737,N,00954.736,E,036.9,289.7,191218,000.0,W*72
$GPGGA,092855.976,5703.742,N,00954.720,E,1,12,1.0,0.0,M,0.0,M,,*68
$GPGSA,A,3,01,02,03,04,05,06,07,08,09,10,11,12,1.0,1.0,1.0*30
$GPRMC,092855.976,A,5703.742,N,00954.720,E,036.9,289.7,191218,000.0,W*76
$GPGGA,092856.976,5703.748,N,00954.704,E,1,12,1.0,0.0,M,0.0,M,,*67
$GPGSA,A,3,01,02,03,04,05,06,07,08,09,10,11,12,1.0,1.0,1.0*30
$GPRMC,092856.976,A,5703.748,N,00954.704,E,036.9,289.7,191218,000.0,W*79
$GPGGA,092857.976,5703.754,N,00954.688,E,1,12,1.0,0.0,M,0.0,M,,*6E
$GPGSA,A,3,01,02,03,04,05,06,07,08,09,10,11,12,1.0,1.0,1.0*30
$GPRMC,092857.976,A,5703.754,N,00954.688,E,036.9,287.9,191218,000.0,W*70
$GPGGA,092858.976,5703.759,N,00954.672,E,1,12,1.0,0.0,M,0.0,M,,*69
$GPGSA,A,3,01,02,03,04,05,06,07,08,09,10,11,12,1.0,1.0,1.0*30
$GPRMC,092858.976,A,5703.759,N,00954.672,E,036.9,287.9,191218,000.0,W*77
$GPGGA,092859.976,5703.764,N,00954.656,E,1,12,1.0,0.0,M,0.0,M,,*60
$GPGSA,A,3,01,02,03,04,05,06,07,08,09,10,11,12,1.0,1.0,1.0*30
$GPRMC,092859.976,A,5703.764,N,00954.656,E,036.9,287.9,191218,000.0,W*7E
$GPGGA,092900.976,5703.769,N,00954.640,E,1,12,1.0,0.0,M,0.0,M,,*67
$GPGSA,A,3,01,02,03,04,05,06,07,08,09,10,11,12,1.0,1.0,1.0*30
$GPRMC,092900.976,A,5703.769,N,00954.640,E,036.9,287.9,191218,000.0,W*79
$GPGGA,092901.976,5703.774,N,00954.624,E,1,12,1.0,0.0,M,0.0,M,,*68
$GPGSA,A,3,01,02,03,04,05,06,07,08,09,10,11,12,1.0,1.0,1.0*30
$GPRMC,092901.976,A,5703.774,N,00954.624,E,036.9,287.9,191218,000.0,W*76
$GPGGA,092902.976,5703.780,N,00954.607,E,1,12,1.0,0.0,M,0.0,M,,*61
$GPGSA,A,3,01,02,03,04,05,06,07,08,09,10,11,12,1.0,1.0,1.0*30
$GPRMC,092902.976,A,5703.780,N,00954.607,E,036.9,287.9,191218,000.0,W*7F
$GPGGA,092903.976,5703.785,N,00954.591,E,1,12,1.0,0.0,M,0.0,M,,*69
$GPGSA,A,3,01,02,03,04,05,06,07,08,09,10,11,12,1.0,1.0,1.0*30
$GPRMC,092903.976,A,5703.785,N,00954.591,E,036.9,287.9,191218,000.0,W*77
$GPGGA,092904.976,5703.790,N,00954.575,E,1,12,1.0,0.0,M,0.0,M,,*60
$GPGSA,A,3,01,02,03,04,05,06,07,08,09,10,11,12,1.0,1.0,1.0*30
$GPRMC,092904.976,A,5703.790,N,00954.575,E,036.9,287.9,191218,000.0,W*7E
$GPGGA,092905.976,5703.795,N,00954.559,E,1,12,1.0,0.0,M,0.0,M,,*6A
$GPGSA,A,3,01,02,03,04,05,06,07,08,09,10,11,12,1.0,1.0,1.0*30
$GPRMC,092905.976,A,5703.795,N,00954.559,E,036.9,287.9,191218,000.0,W*74
$GPGGA,092906.976,5703.800,N,00954.542,E,1,12,1.0,0.0,M,0.0,M,,*60
$GPGSA,A,3,01,02,03,04,05,06,07,08,09,10,11,12,1.0,1.0,1.0*30
$GPRMC,092906.976,A,5703.800,N,00954.542,E,036.9,287.9,191218,000.0,W*7E
$GPGGA,092907.976,5703.806,N,00954.526,E,1,12,1.0,0.0,M,0.0,M,,*65
$GPGSA,A,3,01,02,03,04,05,06,07,08,09,10,11,12,1.0,1.0,1.0*30
$GPRMC,092907.976,A,5703.806,N,00954.526,E,036.9,287.9,191218,000.0,W*7B
$GPGGA,092908.976,5703.811,N,00954.510,E,1,12,1.0,0.0,M,0.0,M,,*69
$GPGSA,A,3,01,02,03,04,05,06,07,08,09,10,11,12,1.0,1.0,1.0*30
$GPRMC,092908.976,A,5703.811,N,00954.510,E,036.9,287.9,191218,000.0,W*77
$GPGGA,092909.976,5703.816,N,00954.494,E,1,12,1.0,0.0,M,0.0,M,,*62
$GPGSA,A,3,01,02,03,04,05,06,07,08,09,10,11,12,1.0,1.0,1.0*30
$GPRMC,092909.976,A,5703.816,N,00954.494,E,036.9,287.9,191218,000.0,W*7C
$GPGGA,092910.976,5703.821,N,00954.477,E,1,12,1.0,0.0,M,0.0,M,,*63
$GPGSA,A,3,01,02,03,04,05,06,07,08,09,10,11,12,1.0,1.0,1.0*30
$GPRMC,092910.976,A,5703.821,N,00954.477,E,036.9,287.9,191218,000.0,W*7D
$GPGGA,092911.976,5703.827,N,00954.461,E,1,12,1.0,0.0,M,0.0,M,,*63
$GPGSA,A,3,01,02,03,04,05,06,07,08,09,10,11,12,1.0,1.0,1.0*30
$GPRMC,092911.976,A,5703.827,N,00954.461,E,036.9,301.8,191218,000.0,W*73
$GPGGA,092912.976,5703.834,N,00954.449,E,1,12,1.0,0.0,M,0.0,M,,*68
$GPGSA,A,3,01,02,03,04,05,06,07,08,09,10,11,12,1.0,1.0,1.0*30
$GPRMC,092912.976,A,5703.834,N,00954.449,E,036.9,301.8,191218,000.0,W*78
$GPGGA,092913.976,5703.842,N,00954.436,E,1,12,1.0,0.0,M,0.0,M,,*60
$GPGSA,A,3,01,02,03,04,05,06,07,08,09,10,11,12,1.0,1.0,1.0*30
$GPRMC,092913.976,A,5703.842,N,00954.436,E,036.9,301.8,191218,000.0,W*70
$GPGGA,092914.976,5703.850,N,00954.424,E,1,12,1.0,0.0,M,0.0,M,,*67
$GPGSA,A,3,01,02,03,04,05,06,07,08,09,10,11,12,1.0,1.0,1.0*30
$GPRMC,092914.976,A,5703.850,N,00954.424,E,036.9,301.8,191218,000.0,W*77
$GPGGA,092915.976,5703.857,N,00954.411,E,1,12,1.0,0.0,M,0.0,M,,*67
$GPGSA,A,3,01,02,03,04,05,06,07,08,09,10,11,12,1.0,1.0,1.0*30
$GPRMC,092915.976,A,5703.857,N,00954.411,E,036.9,301.8,191218,000.0,W*77
$GPGGA,092916.976,5703.865,N,00954.399,E,1,12,1.0,0.0,M,0.0,M,,*62
$GPGSA,A,3,01,02,03,04,05,06,07,08,09,10,11,12,1.0,1.0,1.0*30
$GPRMC,092916.976,A,5703.865,N,00954.399,E,036.9,301.8,191218,000.0,W*72
$GPGGA,092917.976,5703.873,N,00954.386,E,1,12,1.0,0.0,M,0.0,M,,*6A
$GPGSA,A,3,01,02,03,04,05,06,07,08,09,10,11,12,1.0,1.0,1.0*30
$GPRMC,092917.976,A,5703.873,N,00954.386,E,036.9,301.8,191218,000.0,W*7A
$GPGGA,092918.976,5703.880,N,00954.374,E,1,12,1.0,0.0,M,0.0,M,,*64
$GPGSA,A,3,01,02,03,04,05,06,07,08,09,10,11,12,1.0,1.0,1.0*30
$GPRMC,092918.976,A,5703.880,N,00954.374,E,036.9,301.8,191218,000.0,W*74
$GPGGA,092919.976,5703.888,N,00954.361,E,1,12,1.0,0.0,M,0.0,M,,*69
$GPGSA,A,3,01,02,03,04,05,06,07,08,09,10,11,12,1.0,1.0,1.0*30
$GPRMC,092919.976,A,5703.888,N,00954.361,E,036.9,301.8,191218,000.0,W*79
$GPGGA,092920.976,5703.896,N,00954.349,E,1,12,1.0,0.0,M,0.0,M,,*66
$GPGSA,A,3,01,02,03,04,05,06,07,08,09,10,11,12,1.0,1.0,1.0*30
$GPRMC,092920.976,A,5703.896,N,00954.349,E,036.9,301.8,191218,000.0,W*76
$GPGGA,092921.976,5703.903,N,00954.336,E,1,12,1.0,0.0,M,0.0,M,,*62
$GPGSA,A,3,01,02,03,04,05,06,07,08,09,10,11,12,1.0,1.0,1.0*30
$GPRMC,092921.976,A,5703.903,N,00954.336,E,036.9,301.8,191218,000.0,W*72
$GPGGA,092922.976,5703.911,N,00954.324,E,1,12,1.0,0.0,M,0.0,M,,*61
$GPGSA,A,3,01,02,03,04,05,06,07,08,09,10,11,12,1.0,1.0,1.0*30
$GPRMC,092922.976,A,5703.911,N,00954.324,E,036.9,301.8,191218,000.0,W*71
$GPGGA,092923.976,5703.919,N,00954.312,E,1,12,1.0,0.0,M,0.0,M,,*6D
$GPGSA,A,3,01,02,03,04,05,06,07,08,09,10,11,12,1.0,1.0,1.0*30
$GPRMC,092923.976,A,5703.919,N,00954.312,E,036.9,301.8,191218,000.0,W*7D
$GPGGA,092924.976,5703.927,N,00954.299,E,1,12,1.0,0.0,M,0.0,M,,*65
$GPGSA,A,3,01,02,03,04,05,06,07,08,09,10,11,12,1.0,1.0,1.0*30
$GPRMC,092924.976,A,5703.927,N,00954.299,E,036.9,301.8,191218,000.0,W*75
$GPGGA,092925.976,5703.934,N,00954.287,E,1,12,1.0,0.0,M,0.0,M,,*69
$GPGSA,A,3,01,02,03,04,05,06,07,08,09,10,11,12,1.0,1.0,1.0*30
$GPRMC,092925.976,A,5703.934,N,00954.287,E,036.9,301.8,191218,000.0,W*79
$GPGGA,092926.976,5703.942,N,00954.274,E,1,12,1.0,0.0,M,0.0,M,,*67
$GPGSA,A,3,01,02,03,04,05,06,07,08,09,10,11,12,1.0,1.0,1.0*30
$GPRMC,092926.976,A,5703.942,N,00954.274,E,036.9,301.8,191218,000.0,W*77
$GPGGA,092927.976,5703.950,N,00954.262,E,1,12,1.0,0.0,M,0.0,M,,*62
$GPGSA,A,3,01,02,03,04,05,06,07,08,09,10,11,12,1.0,1.0,1.0*30
$GPRMC,092927.976,A,5703.950,N,00954.262,E,036.9,301.8,191218,000.0,W*72
$GPGGA,092928.976,5703.957,N,00954.249,E,1,12,1.0,0.0,M,0.0,M,,*63
$GPGSA,A,3,01,02,03,04,05,06,07,08,09,10,11,12,1.0,1.0,1.0*30
$GPRMC,092928.976,A,5703.957,N,00954.249,E,036.9,301.8,191218,000.0,W*73
$GPGGA,092929.976,5703.965,N,00954.237,E,1,12,1.0,0.0,M,0.0,M,,*6A
$GPGSA,A,3,01,02,03,04,05,06,07,08,09,10,11,12,1.0,1.0,1.0*30
$GPRMC,092929.976,A,5703.965,N,00954.237,E,036.9,301.8,191218,000.0,W*7A
$GPGGA,092930.976,5703.973,N,00954.224,E,1,12,1.0,0.0,M,0.0,M,,*67
$GPGSA,A,3,01,02,03,04,05,06,07,08,09,10,11,12,1.0,1.0,1.0*30
$GPRMC,092930.976,A,5703.973,N,00954.224,E,036.9,301.8,191218,000.0,W*77
$GPGGA,092931.976,5703.980,N,00954.212,E,1,12,1.0,0.0,M,0.0,M,,*6F
$GPGSA,A,3,01,02,03,04,05,06,07,08,09,10,11,12,1.0,1.0,1.0*30
$GPRMC,092931.976,A,5703.980,N,00954.212,E,036.9,301.8,191218,000.0,W*7F
$GPGGA,092932.976,5703.988,N,00954.199,E,1,12,1.0,0.0,M,0.0,M,,*64
$GPGSA,A,3,01,02,03,04,05,06,07,08,09,10,11,12,1.0,1.0,1.0*30
$GPRMC,092932.976,A,5703.988,N,00954.199,E,036.9,301.8,191218,000.0,W*74
$GPGGA,092933.976,5703.996,N,00954.187,E,1,12,1.0,0.0,M,0.0,M,,*65
$GPGSA,A,3,01,02,03,04,05,06,07,08,09,10,11,12,1.0,1.0,1.0*30
$GPRMC,092933.976,A,5703.996,N,00954.187,E,036.9,301.8,191218,000.0,W*75
$GPGGA,092934.976,5704.004,N,00954.175,E,1,12,1.0,0.0,M,0.0,M,,*6A
$GPGSA,A,3,01,02,03,04,05,06,07,08,09,10,11,12,1.0,1.0,1.0*30
$GPRMC,092934.976,A,5704.004,N,00954.175,E,036.9,301.8,191218,000.0,W*7A
$GPGGA,092935.976,5704.011,N,00954.162,E,1,12,1.0,0.0,M,0.0,M,,*69
$GPGSA,A,3,01,02,03,04,05,06,07,08,09,10,11,12,1.0,1.0,1.0*30
$GPRMC,092935.976,A,5704.011,N,00954.162,E,036.9,301.8,191218,000.0,W*79
$GPGGA,092936.976,5704.019,N,00954.150,E,1,12,1.0,0.0,M,0.0,M,,*63
$GPGSA,A,3,01,02,03,04,05,06,07,08,09,10,11,12,1.0,1.0,1.0*30
$GPRMC,092936.976,A,5704.019,N,00954.150,E,036.9,301.8,191218,000.0,W*73
$GPGGA,092937.976,5704.027,N,00954.137,E,1,12,1.0,0.0,M,0.0,M,,*6E
$GPGSA,A,3,01,02,03,04,05,06,07,08,09,10,11,12,1.0,1.0,1.0*30
$GPRMC,092937.976,A,5704.027,N,00954.137,E,036.9,301.8,191218,000.0,W*7E
$GPGGA,092938.976,5704.034,N,00954.125,E,1,12,1.0,0.0,M,0.0,M,,*60
$GPGSA,A,3,01,02,03,04,05,06,07,08,09,10,11,12,1.0,1.0,1.0*30
$GPRMC,092938.976,A,5704.034,N,00954.125,E,036.9,301.8,191218,000.0,W*70
$GPGGA,092939.976,5704.042,N,00954.112,E,1,12,1.0,0.0,M,0.0,M,,*64
$GPGSA,A,3,01,02,03,04,05,06,07,08,09,10,11,12,1.0,1.0,1.0*30
$GPRMC,092939.976,A,5704.042,N,00954.112,E,036.9,301.8,191218,000.0,W*74
$GPGGA,092940.976,5704.050,N,00954.100,E,1,12,1.0,0.0,M,0.0,M,,*6A
$GPGSA,A,3,01,02,03,04,05,06,07,08,09,10,11,12,1.0,1.0,1.0*30
$GPRMC,092940.976,A,5704.050,N,00954.100,E,036.9,301.8,191218,000.0,W*7A
$GPGGA,092941.976,5704.057,N,00954.087,E,1,12,1.0,0.0,M,0.0,M,,*62
$GPGSA,A,3,01,02,03,04,05,06,07,08,09,10,11,12,1.0,1.0,1.0*30
$GPRMC,092941.976,A,5704.057,N,00954.087,E,036.9,301.8,191218,000.0,W*72
$GPGGA,092942.976,5704.065,N,00954.075,E,1,12,1.0,0.0,M,0.0,M,,*6D
$GPGSA,A,3,01,02,03,04,05,06,07,08,09,10,11,12,1.0,1.0,1.0*30
$GPRMC,092942.976,A,5704.065,N,00954.075,E,036.9,301.8,191218,000.0,W*7D
$GPGGA,092943.976,5704.073,N,00954.062,E,1,12,1.0,0.0,M,0.0,M,,*6D
$GPGSA,A,3,01,02,03,04,05,06,07,08,09,10,11,12,1.0,1.0,1.0*30
$GPRMC,092943.976,A,5704.073,N,00954.062,E,036.9,301.8,191218,000.0,W*7D
$GPGGA,092944.976,5704.080,N,00954.050,E,1,12,1.0,0.0,M,0.0,M,,*67
$GPGSA,A,3,01,02,03,04,05,06,07,08,09,10,11,12,1.0,1.0,1.0*30
$GPRMC,092944.976,A,5704.080,N,00954.050,E,036.9,301.8,191218,000.0,W*77
$GPGGA,092945.976,5704.088,N,00954.037,E,1,12,1.0,0.0,M,0.0,M,,*6F
$GPGSA,A,3,01,02,03,04,05,06,07,08,09,10,11,12,1.0,1.0,1.0*30
$GPRMC,092945.976,A,5704.088,N,00954.037,E,036.9,301.8,191218,000.0,W*7F
$GPGGA,092946.976,5704.096,N,00954.025,E,1,12,1.0,0.0,M,0.0,M,,*60
$GPGSA,A,3,01,02,03,04,05,06,07,08,09,10,11,12,1.0,1.0,1.0*30
$GPRMC,092946.976,A,5704.096,N,00954.025,E,036.9,301.8,191218,000.0,W*70
$GPGGA,092947.976,5704.104,N,00954.013,E,1,12,1.0,0.0,M,0.0,M,,*6E
$GPGSA,A,3,01,02,03,04,05,06,07,08,09,10,11,12,1.0,1.0,1.0*30
$GPRMC,092947.976,A,5704.104,N,00954.013,E,036.9,301.8,191218,000.0,W*7E
$GPGGA,092948.976,5704.111,N,00954.000,E,1,12,1.0,0.0,M,0.0,M,,*67
$GPGSA,A,3,01,02,03,04,05,06,07,08,09,10,11,12,1.0,1.0,1.0*30
$GPRMC,092948.976,A,5704.111,N,00954.000,E,036.9,301.8,191218,000.0,W*77
$GPGGA,092949.976,5704.119,N,00953.988,E,1,12,1.0,0.0,M,0.0,M,,*60
$GPGSA,A,3,01,02,03,04,05,06,07,08,09,10,11,12,1.0,1.0,1.0*30
$GPRMC,092949.976,A,5704.119,N,00953.988,E,036.9,301.8,191218,000.0,W*70
$GPGGA,092950.976,5704.127,N,00953.975,E,1,12,1.0,0.0,M,0.0,M,,*67
$GPGSA,A,3,01,02,03,04,05,06,07,08,09,10,11,12,1.0,1.0,1.0*30
$GPRMC,092950.976,A,5704.127,N,00953.975,E,036.9,294.3,191218,000.0,W*71
$GPGGA,092951.976,5704.133,N,00953.961,E,1,12,1.0,0.0,M,0.0,M,,*66
$GPGSA,A,3,01,02,03,04,05,06,07,08,09,10,11,12,1.0,1.0,1.0*30
$GPRMC,092951.976,A,5704.133,N,00953.961,E,036.9,294.3,191218,000.0,W*70
$GPGGA,092952.976,5704.140,N,00953.946,E,1,12,1.0,0.0,M,0.0,M,,*64
$GPGSA,A,3,01,02,03,04,05,06,07,08,09,10,11,12,1.0,1.0,1.0*30
$GPRMC,092952.976,A,5704.140,N,00953.946,E,036.9,294.3,191218,000.0,W*72
$GPGGA,092953.976,5704.146,N,00953.932,E,1,12,1.0,0.0,M,0.0,M,,*60
$GPGSA,A,3,01,02,03,04,05,06,07,08,09,10,11,12,1.0,1.0,1.0*30
$GPRMC,092953.976,A,5704.146,N,00953.932,E,036.9,294.3,191218,000.0,W*76
$GPGGA,092954.976,5704.153,N,00953.917,E,1,12,1.0,0.0,M,0.0,M,,*64
$GPGSA,A,3,01,02,03,04,05,06,07,08,09,10,11,12,1.0,1.0,1.0*30
$GPRMC,092954.976,A,5704.153,N,00953.917,E,036.9,294.3,191218,000.0,W*72
$GPGGA,092955.976,5704.159,N,00953.902,E,1,12,1.0,0.0,M,0.0,M,,*6B
$GPGSA,A,3,01,02,03,04,05,06,07,08,09,10,11,12,1.0,1.0,1.0*30
$GPRMC,092955.976,A,5704.159,N,00953.902,E,036.9,294.3,191218,000.0,W*7D
$GPGGA,092956.976,5704.166,N,00953.888,E,1,12,1.0,0.0,M,0.0,M,,*67
$GPGSA,A,3,01,02,03,04,05,06,07,08,09,10,11,12,1.0,1.0,1.0*30
$GPRMC,092956.976,A,5704.166,N,00953.888,E,036.9,294.3,191218,000.0,W*71
$GPGGA,092957.976,5704.172,N,00953.873,E,1,12,1.0,0.0,M,0.0,M,,*67
$GPGSA,A,3,01,02,03,04,05,06,07,08,09,10,11,12,1.0,1.0,1.0*30
$GPRMC,092957.976,A,5704.172,N,00953.873,E,036.9,294.3,191218,000.0,W*71
$GPGGA,092958.976,5704.179,N,00953.859,E,1,12,1.0,0.0,M,0.0,M,,*6B
$GPGSA,A,3,01,02,03,04,05,06,07,08,09,10,11,12,1.0,1.0,1.0*30
$GPRMC,092958.976,A,5704.179,N,00953.859,E,036.9,294.3,191218,000.0,W*7D
$GPGGA,092959.976,5704.185,N,00953.844,E,1,12,1.0,0.0,M,0.0,M,,*65
$GPGSA,A,3,01,02,03,04,05,06,07,08,09,10,11,12,1.0,1.0,1.0*30
$GPRMC,092959.976,A,5704.185,N,00953.844,E,036.9,294.3,191218,000.0,W*73
$GPGGA,093000.976,5704.192,N,00953.830,E,1,12,1.0,0.0,M,0.0,M,,*64
$GPGSA,A,3,01,02,03,04,05,06,07,08,09,10,11,12,1.0,1.0,1.0*30
$GPRMC,093000.976,A,5704.192,N,00953.830,E,036.9,294.3,191218,000.0,W*72
$GPGGA,093001.976,5704.198,N,00953.815,E,1,12,1.0,0.0,M,0.0,M,,*68
$GPGSA,A,3,01,02,03,04,05,06,07,08,09,10,11,12,1.0,1.0,1.0*30
$GPRMC,093001.976,A,5704.198,N,00953.815,E,036.9,294.3,191218,000.0,W*7E
$GPGGA,093002.976,5704.205,N,00953.801,E,1,12,1.0,0.0,M,0.0,M,,*69
$GPGSA,A,3,01,02,03,04,05,06,07,08,09,10,11,12,1.0,1.0,1.0*30
$GPRMC,093002.976,A,5704.205,N,00953.801,E,036.9,294.3,191218,000.0,W*7F
$GPGGA,093003.976,5704.211,N,00953.786,E,1,12,1.0,0.0,M,0.0,M,,*6D
$GPGSA,A,3,01,02,03,04,05,06,07,08,09,10,11,12,1.0,1.0,1.0*30
$GPRMC,093003.976,A,5704.211,N,00953.786,E,036.9,294.3,191218,000.0,W*7B
$GPGGA,093004.976,5704.218,N,00953.771,E,1,12,1.0,0.0,M,0.0,M,,*6B
$GPGSA,A,3,01,02,03,04,05,06,07,08,09,10,11,12,1.0,1.0,1.0*30
$GPRMC,093004.976,A,5704.218,N,00953.771,E,036.9,294.3,191218,000.0,W*7D
$GPGGA,093005.976,5704.225,N,00953.757,E,1,12,1.0,0.0,M,0.0,M,,*60
$GPGSA,A,3,01,02,03,04,05,06,07,08,09,10,11,12,1.0,1.0,1.0*30
$GPRMC,093005.976,A,5704.225,N,00953.757,E,036.9,294.3,191218,000.0,W*76
$GPGGA,093006.976,5704.231,N,00953.742,E,1,12,1.0,0.0,M,0.0,M,,*62
$GPGSA,A,3,01,02,03,04,05,06,07,08,09,10,11,12,1.0,1.0,1.0*30
$GPRMC,093006.976,A,5704.231,N,00953.742,E,036.9,294.3,191218,000.0,W*74
$GPGGA,093007.976,5704.238,N,00953.728,E,1,12,1.0,0.0,M,0.0,M,,*66
$GPGSA,A,3,01,02,03,04,05,06,07,08,09,10,11,12,1.0,1.0,1.0*30
$GPRMC,093007.976,A,5704.238,N,00953.728,E,036.9,294.3,191218,000.0,W*70
$GPGGA,093008.976,5704.244,N,00953.713,E,1,12,1.0,0.0,M,0.0,M,,*6A
$GPGSA,A,3,01,02,03,04,05,06,07,08,09,10,11,12,1.0,1.0,1.0*30
$GPRMC,093008.976,A,5704.244,N,00953.713,E,036.9,294.3,191218,000.0,W*7C
$GPGGA,093009.976,5704.251,N,00953.699,E,1,12,1.0,0.0,M,0.0,M,,*6C
$GPGSA,A,3,01,02,03,04,05,06,07,08,09,10,11,12,1.0,1.0,1.0*30
$GPRMC,093009.976,A,5704.251,N,00953.699,E,036.9,294.3,191218,000.0,W*7A
$GPGGA,093010.976,5704.257,N,00953.684,E,1,12,1.0,0.0,M,0.0,M,,*6E
$GPGSA,A,3,01,02,03,04,05,06,07,08,09,10,11,12,1.0,1.0,1.0*30
$GPRMC,093010.976,A,5704.257,N,00953.684,E,036.9,294.3,191218,000.0,W*78
$GPGGA,093011.976,5704.264,N,00953.670,E,1,12,1.0,0.0,M,0.0,M,,*64
$GPGSA,A,3,01,02,03,04,05,06,07,08,09,10,11,12,1.0,1.0,1.0*30
$GPRMC,093011.976,A,5704.264,N,00953.670,E,036.9,294.3,191218,000.0,W*72
$GPGGA,093012.976,5704.270,N,00953.655,E,1,12,1.0,0.0,M,0.0,M,,*65
$GPGSA,A,3,01,02,03,04,05,06,07,08,09,10,11,12,1.0,1.0,1.0*30
$GPRMC,093012.976,A,5704.270,N,00953.655,E,036.9,294.3,191218,000.0,W*73
$GPGGA,093013.976,5704.277,N,00953.641,E,1,12,1.0,0.0,M,0.0,M,,*66
$GPGSA,A,3,01,02,03,04,05,06,07,08,09,10,11,12,1.0,1.0,1.0*30
$GPRMC,093013.976,A,5704.277,N,00953.641,E,036.9,294.3,191218,000.0,W*70
$GPGGA,093014.976,5704.283,N,00953.626,E,1,12,1.0,0.0,M,0.0,M,,*6B
$GPGSA,A,3,01,02,03,04,05,06,07,08,09,10,11,12,1.0,1.0,1.0*30
$GPRMC,093014.976,A,5704.283,N,00953.626,E,036.9,294.3,191218,000.0,W*7D
$GPGGA,093015.976,5704.290,N,00953.611,E,1,12,1.0,0.0,M,0.0,M,,*6C
$GPGSA,A,3,01,02,03,04,05,06,07,08,09,10,11,12,1.0,1.0,1.0*30
$GPRMC,093015.976,A,5704.290,N,00953.611,E,036.9,294.3,191218,000.0,W*7A
$GPGGA,093016.976,5704.296,N,00953.597,E,1,12,1.0,0.0,M,0.0,M,,*64
$GPGSA,A,3,01,02,03,04,05,06,07,08,09,10,11,12,1.0,1.0,1.0*30
$GPRMC,093016.976,A,5704.296,N,00953.597,E,036.9,294.3,191218,000.0,W*72
$GPGGA,093017.976,5704.303,N,00953.582,E,1,12,1.0,0.0,M,0.0,M,,*6C
$GPGSA,A,3,01,02,03,04,05,06,07,08,09,10,11,12,1.0,1.0,1.0*30
$GPRMC,093017.976,A,5704.303,N,00953.582,E,036.9,342.6,191218,000.0,W*75
$GPGGA,093018.976,5704.313,N,00953.579,E,1,12,1.0,0.0,M,0.0,M,,*66
$GPGSA,A,3,01,02,03,04,05,06,07,08,09,10,11,12,1.0,1.0,1.0*30
$GPRMC,093018.976,A,5704.313,N,00953.579,E,036.9,342.6,191218,000.0,W*7F
$GPGGA,093019.976,5704.323,N,00953.576,E,1,12,1.0,0.0,M,0.0,M,,*6B
$GPGSA,A,3,01,02,03,04,05,06,07,08,09,10,11,12,1.0,1.0,1.0*30
$GPRMC,093019.976,A,5704.323,N,00953.576,E,036.9,342.6,191218,000.0,W*72
$GPGGA,093020.976,5704.333,N,00953.573,E,1,12,1.0,0.0,M,0.0,M,,*65
$GPGSA,A,3,01,02,03,04,05,06,07,08,09,10,11,12,1.0,1.0,1.0*30
$GPRMC,093020.976,A,5704.333,N,00953.573,E,036.9,342.6,191218,000.0,W*7C
$GPGGA,093021.976,5704.343,N,00953.570,E,1,12,1.0,0.0,M,0.0,M,,*60
$GPGSA,A,3,01,02,03,04,05,06,07,08,09,10,11,12,1.0,1.0,1.0*30
$GPRMC,093021.976,A,5704.343,N,00953.570,E,036.9,342.6,191218,000.0,W*79
$GPGGA,093022.976,5704.353,N,00953.566,E,1,12,1.0,0.0,M,0.0,M,,*65
$GPGSA,A,3,01,02,03,04,05,06,07,08,09,10,11,12,1.0,1.0,1.0*30
$GPRMC,093022.976,A,5704.353,N,00953.566,E,036.9,342.6,191218,000.0,W*7C
$GPGGA,093023.976,5704.363,N,00953.563,E,1,12,1.0,0.0,M,0.0,M,,*62
$GPGSA,A,3,01,02,03,04,05,06,07,08,09,10,11,12,1.0,1.0,1.0*30
$GPRMC,093023.976,A,5704.363,N,00953.563,E,036.9,342.6,191218,000.0,W*7B
$GPGGA,093024.976,5704.374,N,00953.560,E,1,12,1.0,0.0,M,0.0,M,,*60
$GPGSA,A,3,01,02,03,04,05,06,07,08,09,10,11,12,1.0,1.0,1.0*30
$GPRMC,093024.976,A,5704.374,N,00953.560,E,036.9,342.6,191218,000.0,W*79
$GPGGA,093025.976,5704.384,N,00953.557,E,1,12,1.0,0.0,M,0.0,M,,*6A
$GPGSA,A,3,01,02,03,04,05,06,07,08,09,10,11,12,1.0,1.0,1.0*30
$GPRMC,093025.976,A,5704.384,N,00953.557,E,036.9,342.6,191218,000.0,W*73
$GPGGA,093026.976,5704.394,N,00953.554,E,1,12,1.0,0.0,M,0.0,M,,*6B
$GPGSA,A,3,01,02,03,04,05,06,07,08,09,10,11,12,1.0,1.0,1.0*30
$GPRMC,093026.976,A,5704.394,N,00953.554,E,036.9,342.6,191218,000.0,W*72
$GPGGA,093027.976,5704.404,N,00953.550,E,1,12,1.0,0.0,M,0.0,M,,*60
$GPGSA,A,3,01,02,03,04,05,06,07,08,09,10,11,12,1.0,1.0,1.0*30
$GPRMC,093027.976,A,5704.404,N,00953.550,E,036.9,342.6,191218,000.0,W*79
$GPGGA,093028.976,5704.414,N,00953.547,E,1,12,1.0,0.0,M,0.0,M,,*68
$GPGSA,A,3,01,02,03,04,05,06,07,08,09,10,11,12,1.0,1.0,1.0*30
$GPRMC,093028.976,A,5704.414,N,00953.547,E,036.9,342.6,191218,000.0,W*71
$GPGGA,093029.976,5704.424,N,00953.544,E,1,12,1.0,0.0,M,0.0,M,,*69
$GPGSA,A,3,01,02,03,04,05,06,07,08,09,10,11,12,1.0,1.0,1.0*30
$GPRMC,093029.976,A,5704.424,N,00953.544,E,036.9,342.6,191218,000.0,W*70
$GPGGA,093030.976,5704.434,N,00953.541,E,1,12,1.0,0.0,M,0.0,M,,*65
$GPGSA,A,3,01,02,03,04,05,06,07,08,09,10,11,12,1.0,1.0,1.0*30
$GPRMC,093030.976,A,5704.434,N,00953.541,E,036.9,342.6,191218,000.0,W*7C
$GPGGA,093031.976,5704.444,N,00953.538,E,1,12,1.0,0.0,M,0.0,M,,*6D
$GPGSA,A,3,01,02,03,04,05,06,07,08,09,10,11,12,1.0,1.0,1.0*30
$GPRMC,093031.976,A,5704.444,N,00953.538,E,036.9,342.6,191218,000.0,W*74
$GPGGA,093032.976,5704.454,N,00953.535,E,1,12,1.0,0.0,M,0.0,M,,*62
$GPGSA,A,3,01,02,03,04,05,06,07,08,09,10,11,12,1.0,1.0,1.0*30
$GPRMC,093032.976,A,5704.454,N,00953.535,E,036.9,342.6,191218,000.0,W*7B
$GPGGA,093033.976,5704.464,N,00953.531,E,1,12,1.0,0.0,M,0.0,M,,*64
$GPGSA,A,3,01,02,03,04,05,06,07,08,09,10,11,12,1.0,1.0,1.0*30
$GPRMC,093033.976,A,5704.464,N,00953.531,E,036.9,342.6,191218,000.0,W*7D
$GPGGA,093034.976,5704.475,N,00953.528,E,1,12,1.0,0.0,M,0.0,M,,*6B
$GPGSA,A,3,01,02,03,04,05,06,07,08,09,10,11,12,1.0,1.0,1.0*30
$GPRMC,093034.976,A,5704.475,N,00953.528,E,036.9,342.6,191218,000.0,W*72
$GPGGA,093035.976,5704.485,N,00953.525,E,1,12,1.0,0.0,M,0.0,M,,*68
$GPGSA,A,3,01,02,03,04,05,06,07,08,09,10,11,12,1.0,1.0,1.0*30
$GPRMC,093035.976,A,5704.485,N,00953.525,E,036.9,342.6,191218,000.0,W*71
$GPGGA,093036.976,5704.495,N,00953.522,E,1,12,1.0,0.0,M,0.0,M,,*6D
$GPGSA,A,3,01,02,03,04,05,06,07,08,09,10,11,12,1.0,1.0,1.0*30
$GPRMC,093036.976,A,5704.495,N,00953.522,E,036.9,342.6,191218,000.0,W*74
$GPGGA,093037.976,5704.505,N,00953.519,E,1,12,1.0,0.0,M,0.0,M,,*6C
$GPGSA,A,3,01,02,03,04,05,06,07,08,09,10,11,12,1.0,1.0,1.0*30
$GPRMC,093037.976,A,5704.505,N,00953.519,E,036.9,342.6,191218,000.0,W*75
$GPGGA,093038.976,5704.515,N,00953.515,E,1,12,1.0,0.0,M,0.0,M,,*6E
$GPGSA,A,3,01,02,03,04,05,06,07,08,09,10,11,12,1.0,1.0,1.0*30
$GPRMC,093038.976,A,5704.515,N,00953.515,E,036.9,342.6,191218,000.0,W*77
$GPGGA,093039.976,5704.525,N,00953.512,E,1,12,1.0,0.0,M,0.0,M,,*6B
$GPGSA,A,3,01,02,03,04,05,06,07,08,09,10,11,12,1.0,1.0,1.0*30
$GPRMC,093039.976,A,5704.525,N,00953.512,E,036.9,342.6,191218,000.0,W*72
$GPGGA,093040.976,5704.535,N,00953.509,E,1,12,1.0,0.0,M,0.0,M,,*6E
$GPGSA,A,3,01,02,03,04,05,06,07,08,09,10,11,12,1.0,1.0,1.0*30
$GPRMC,093040.976,A,5704.535,N,00953.509,E,036.9,342.6,191218,000.0,W*77
$GPGGA,093041.976,5704.545,N,00953.506,E,1,12,1.0,0.0,M,0.0,M,,*67
$GPGSA,A,3,01,02,03,04,05,06,07,08,09,10,11,12,1.0,1.0,1.0*30
$GPRMC,093041.976,A,5704.545,N,00953.506,E,036.9,342.6,191218,000.0,W*7E
$GPGGA,093042.976,5704.555,N,00953.503,E,1,12,1.0,0.0,M,0.0,M,,*60
$GPGSA,A,3,01,02,03,04,05,06,07,08,09,10,11,12,1.0,1.0,1.0*30
$GPRMC,093042.976,A,5704.555,N,00953.503,E,036.9,342.6,191218,000.0,W*79
$GPGGA,093043.976,5704.566,N,00953.500,E,1,12,1.0,0.0,M,0.0,M,,*62
$GPGSA,A,3,01,02,03,04,05,06,07,08,09,10,11,12,1.0,1.0,1.0*30
$GPRMC,093043.976,A,5704.566,N,00953.500,E,036.9,342.6,191218,000.0,W*7B
$GPGGA,093044.976,5704.576,N,00953.496,E,1,12,1.0,0.0,M,0.0,M,,*6A
$GPGSA,A,3,01,02,03,04,05,06,07,08,09,10,11,12,1.0,1.0,1.0*30
$GPRMC,093044.976,A,5704.576,N,00953.496,E,036.9,342.6,191218,000.0,W*73
$GPGGA,093045.976,5704.586,N,00953.493,E,1,12,1.0,0.0,M,0.0,M,,*61
$GPGSA,A,3,01,02,03,04,05,06,07,08,09,10,11,12,1.0,1.0,1.0*30
$GPRMC,093045.976,A,5704.586,N,00953.493,E,036.9,342.6,191218,000.0,W*78
$GPGGA,093046.976,5704.596,N,00953.490,E,1,12,1.0,0.0,M,0.0,M,,*60
$GPGSA,A,3,01,02,03,04,05,06,07,08,09,10,11,12,1.0,1.0,1.0*30
$GPRMC,093046.976,A,5704.596,N,00953.490,E,036.9,342.6,191218,000.0,W*79
$GPGGA,093047.976,5704.606,N,00953.487,E,1,12,1.0,0.0,M,0.0,M,,*6D
$GPGSA,A,3,01,02,03,04,05,06,07,08,09,10,11,12,1.0,1.0,1.0*30
$GPRMC,093047.976,A,5704.606,N,00953.487,E,036.9,342.6,191218,000.0,W*74
$GPGGA,093048.976,5704.616,N,00953.484,E,1,12,1.0,0.0,M,0.0,M,,*60
$GPGSA,A,3,01,02,03,04,05,06,07,08,09,10,11,12,1.0,1.0,1.0*30
$GPRMC,093048.976,A,5704.616,N,00953.484,E,036.9,342.6,191218,000.0,W*79
$GPGGA,093049.976,5704.626,N,00953.480,E,1,12,1.0,0.0,M,0.0,M,,*66
$GPGSA,A,3,01,02,03,04,05,06,07,08,09,10,11,12,1.0,1.0,1.0*30
$GPRMC,093049.976,A,5704.626,N,00953.480,E,036.9,342.6,191218,000.0,W*7F
$GPGGA,093050.976,5704.636,N,00953.477,E,1,12,1.0,0.0,M,0.0,M,,*67
$GPGSA,A,3,01,02,03,04,05,06,07,08,09,10,11,12,1.0,1.0,1.0*30
$GPRMC,093050.976,A,5704.636,N,00953.477,E,036.9,342.6,191218,000.0,W*7E
$GPGGA,093051.976,5704.646,N,00953.474,E,1,12,1.0,0.0,M,0.0,M,,*62
$GPGSA,A,3,01,02,03,04,05,06,07,08,09,10,11,12,1.0,1.0,1.0*30
$GPRMC,093051.976,A,5704.646,N,00953.474,E,036.9,342.6,191218,000.0,W*7B
$GPGGA,093052.976,5704.656,N,00953.471,E,1,12,1.0,0.0,M,0.0,M,,*65
$GPGSA,A,3,01,02,03,04,05,06,07,08,09,10,11,12,1.0,1.0,1.0*30
$GPRMC,093052.976,A,5704.656,N,00953.471,E,036.9,342.6,191218,000.0,W*7C
$GPGGA,093053.976,5704.667,N,00953.468,E,1,12,1.0,0.0,M,0.0,M,,*6E
$GPGSA,A,3,01,02,03,04,05,06,07,08,09,10,11,12,1.0,1.0,1.0*30
$GPRMC,093053.976,A,5704.667,N,00953.468,E,036.9,342.6,191218,000.0,W*77
$GPGGA,093054.976,5704.677,N,00953.464,E,1,12,1.0,0.0,M,0.0,M,,*64
$GPGSA,A,3,01,02,03,04,05,06,07,08,09,10,11,12,1.0,1.0,1.0*30
$GPRMC,093054.976,A,5704.677,N,00953.464,E,036.9,342.6,191218,000.0,W*7D
$GPGGA,093055.976,5704.687,N,00953.461,E,1,12,1.0,0.0,M,0.0,M,,*6F
$GPGSA,A,3,01,02,03,04,05,06,07,08,09,10,11,12,1.0,1.0,1.0*30
$GPRMC,093055.976,A,5704.687,N,00953.461,E,036.9,342.6,191218,000.0,W*76
$GPGGA,093056.976,5704.697,N,00953.458,E,1,12,1.0,0.0,M,0.0,M,,*67
$GPGSA,A,3,01,02,03,04,05,06,07,08,09,10,11,12,1.0,1.0,1.0*30
$GPRMC,093056.976,A,5704.697,N,00953.458,E,036.9,342.6,191218,000.0,W*7E
$GPGGA,093057.976,5704.707,N,00953.455,E,1,12,1.0,0.0,M,0.0,M,,*63
$GPGSA,A,3,01,02,03,04,05,06,07,08,09,10,11,12,1.0,1.0,1.0*30
$GPRMC,093057.976,A,5704.707,N,00953.455,E,036.9,342.6,191218,000.0,W*7A
$GPGGA,093058.976,5704.717,N,00953.452,E,1,12,1.0,0.0,M,0.0,M,,*6A
$GPGSA,A,3,01,02,03,04,05,06,07,08,09,10,11,12,1.0,1.0,1.0*30
$GPRMC,093058.976,A,5704.717,N,00953.452,E,036.9,342.6,191218,000.0,W*73
$GPGGA,093059.976,5704.727,N,00953.449,E,1,12,1.0,0.0,M,0.0,M,,*62
$GPGSA,A,3,01,02,03,04,05,06,07,08,09,10,11,12,1.0,1.0,1.0*30
$GPRMC,093059.976,A,5704.727,N,00953.449,E,036.9,342.6,191218,000.0,W*7B
$GPGGA,093100.976,5704.737,N,00953.445,E,1,12,1.0,0.0,M,0.0,M,,*62
$GPGSA,A,3,01,02,03,04,05,06,07,08,09,10,11,12,1.0,1.0,1.0*30
$GPRMC,093100.976,A,5704.737,N,00953.445,E,036.9,342.6,191218,000.0,W*7B
$GPGGA,093101.976,5704.747,N,00953.442,E,1,12,1.0,0.0,M,0.0,M,,*63
$GPGSA,A,3,01,02,03,04,05,06,07,08,09,10,11,12,1.0,1.0,1.0*30
$GPRMC,093101.976,A,5704.747,N,00953.442,E,036.9,342.6,191218,000.0,W*7A
