$GPGGA,074101.680,5702.942,N,00954.419,E,1,12,1.0,0.0,M,0.0,M,,*68
$GPGSA,A,3,01,02,03,04,05,06,07,08,09,10,11,12,1.0,1.0,1.0*30
$GPRMC,074101.680,A,5702.942,N,00954.419,E,003.9,282.3,191218,000.0,W*7F
$GPGGA,074102.680,5702.943,N,00954.418,E,1,12,1.0,0.0,M,0.0,M,,*6B
$GPGSA,A,3,01,02,03,04,05,06,07,08,09,10,11,12,1.0,1.0,1.0*30
$GPRMC,074102.680,A,5702.943,N,00954.418,E,003.9,275.5,191218,000.0,W*72
$GPGGA,074103.680,5702.943,N,00954.416,E,1,12,1.0,0.0,M,0.0,M,,*64
$GPGSA,A,3,01,02,03,04,05,06,07,08,09,10,11,12,1.0,1.0,1.0*30
$GPRMC,074103.680,A,5702.943,N,00954.416,E,003.9,275.5,191218,000.0,W*7D
$GPGGA,074104.680,5702.943,N,00954.414,E,1,12,1.0,0.0,M,0.0,M,,*61
$GPGSA,A,3,01,02,03,04,05,06,07,08,09,10,11,12,1.0,1.0,1.0*30
$GPRMC,074104.680,A,5702.943,N,00954.414,E,003.9,334.1,191218,000.0,W*78
$GPGGA,074105.680,5702.944,N,00954.413,E,1,12,1.0,0.0,M,0.0,M,,*60
$GPGSA,A,3,01,02,03,04,05,06,07,08,09,10,11,12,1.0,1.0,1.0*30
$GPRMC,074105.680,A,5702.944,N,00954.413,E,003.9,334.1,191218,000.0,W*79
$GPGGA,074106.680,5702.945,N,00954.413,E,1,12,1.0,0.0,M,0.0,M,,*62
$GPGSA,A,3,01,02,03,04,05,06,07,08,09,10,11,12,1.0,1.0,1.0*30
$GPRMC,074106.680,A,5702.945,N,00954.413,E,003.9,000.2,191218,000.0,W*7C
$GPGGA,074107.680,5702.946,N,00954.413,E,1,12,1.0,0.0,M,0.0,M,,*60
$GPGSA,A,3,01,02,03,04,05,06,07,08,09,10,11,12,1.0,1.0,1.0*30
$GPRMC,074107.680,A,5702.946,N,00954.413,E,007.8,348.9,191218,000.0,W*7F
$GPGGA,074108.680,5702.949,N,00954.412,E,1,12,1.0,0.0,M,0.0,M,,*61
$GPGSA,A,3,01,02,03,04,05,06,07,08,09,10,11,12,1.0,1.0,1.0*30
$GPRMC,074108.680,A,5702.949,N,00954.412,E,007.8,016.0,191218,000.0,W*7F
$GPGGA,074109.680,5702.951,N,00954.413,E,1,12,1.0,0.0,M,0.0,M,,*68
$GPGSA,A,3,01,02,03,04,05,06,07,08,09,10,11,12,1.0,1.0,1.0*30
$GPRMC,074109.680,A,5702.951,N,00954.413,E,009.7,017.3,191218,000.0,W*75
$GPGGA,074110.680,5702.953,N,00954.414,E,1,12,1.0,0.0,M,0.0,M,,*65
$GPGSA,A,3,01,02,03,04,05,06,07,08,09,10,11,12,1.0,1.0,1.0*30
$GPRMC,074110.680,A,5702.953,N,00954.414,E,011.7,005.9,191218,000.0,W*78
$GPGGA,074111.680,5702.957,N,00954.414,E,1,12,1.0,0.0,M,0.0,M,,*60
$GPGSA,A,3,01,02,03,04,05,06,07,08,09,10,11,12,1.0,1.0,1.0*30
$GPRMC,074111.680,A,5702.957,N,00954.414,E,015.6,020.8,191218,000.0,W*7E
$GPGGA,074112.680,5702.961,N,00954.416,E,1,12,1.0,0.0,M,0.0,M,,*64
$GPGSA,A,3,01,02,03,04,05,06,07,08,09,10,11,12,1.0,1.0,1.0*30
$GPRMC,074112.680,A,5702.961,N,00954.416,E,011.7,017.2,191218,000.0,W*71
$GPGGA,074113.680,5702.964,N,00954.417,E,1,12,1.0,0.0,M,0.0,M,,*61
$GPGSA,A,3,01,02,03,04,05,06,07,08,09,10,11,12,1.0,1.0,1.0*30
$GPRMC,074113.680,A,5702.964,N,00954.417,E,009.7,021.3,191218,000.0,W*79
$GPGGA,074114.680,5702.967,N,00954.418,E,1,12,1.0,0.0,M,0.0,M,,*6A
$GPGSA,A,3,01,02,03,04,05,06,07,08,09,10,11,12,1.0,1.0,1.0*30
$GPRMC,074114.680,A,5702.967,N,00954.418,E,007.8,014.2,191218,000.0,W*74
$GPGGA,074115.680,5702.969,N,00954.418,E,1,12,1.0,0.0,M,0.0,M,,*65
$GPGSA,A,3,01,02,03,04,05,06,07,08,09,10,11,12,1.0,1.0,1.0*30
$GPRMC,074115.680,A,5702.969,N,00954.418,E,003.9,006.0,191218,000.0,W*7F
$GPGGA,074116.680,5702.970,N,00954.418,E,1,12,1.0,0.0,M,0.0,M,,*6E
$GPGSA,A,3,01,02,03,04,05,06,07,08,09,10,11,12,1.0,1.0,1.0*30
$GPRMC,074116.680,A,5702.970,N,00954.418,E,003.9,006.0,191218,000.0,W*74
$GPGGA,074117.680,5702.971,N,00954.418,E,1,12,1.0,0.0,M,0.0,M,,*6E
$GPGSA,A,3,01,02,03,04,05,06,07,08,09,10,11,12,1.0,1.0,1.0*30
$GPRMC,074117.680,A,5702.971,N,00954.418,E,002.0,020.1,191218,000.0,W*79
$GPGGA,074118.680,5702.971,N,00954.419,E,1,12,1.0,0.0,M,0.0,M,,*60
$GPGSA,A,3,01,02,03,04,05,06,07,08,09,10,11,12,1.0,1.0,1.0*30
$GPRMC,074118.680,A,5702.971,N,00954.419,E,002.0,020.1,191218,000.0,W*77
$GPGGA,074119.680,5702.972,N,00954.419,E,1,12,1.0,0.0,M,0.0,M,,*62
$GPGSA,A,3,01,02,03,04,05,06,07,08,09,10,11,12,1.0,1.0,1.0*30
$GPRMC,074119.680,A,5702.972,N,00954.419,E,001.9,020.1,191218,000.0,W*7F
$GPGGA,074120.680,5702.972,N,00954.419,E,1,12,1.0,0.0,M,0.0,M,,*68
$GPGSA,A,3,01,02,03,04,05,06,07,08,09,10,11,12,1.0,1.0,1.0*30
$GPRMC,074120.680,A,5702.972,N,00954.419,E,003.9,305.0,191218,000.0,W*72
$GPGGA,074121.680,5702.973,N,00954.418,E,1,12,1.0,0.0,M,0.0,M,,*69
$GPGSA,A,3,01,02,03,04,05,06,07,08,09,10,11,12,1.0,1.0,1.0*30
$GPRMC,074121.680,A,5702.973,N,00954.418,E,007.8,296.1,191218,000.0,W*7C
$GPGGA,074122.680,5702.975,N,00954.415,E,1,12,1.0,0.0,M,0.0,M,,*61
$GPGSA,A,3,01,02,03,04,05,06,07,08,09,10,11,12,1.0,1.0,1.0*30
$GPRMC,074122.680,A,5702.975,N,00954.415,E,011.7,277.0,191218,000.0,W*72
$GPGGA,074123.680,5702.975,N,00954.409,E,1,12,1.0,0.0,M,0.0,M,,*6D
$GPGSA,A,3,01,02,03,04,05,06,07,08,09,10,11,12,1.0,1.0,1.0*30
$GPRMC,074123.680,A,5702.975,N,00954.409,E,013.6,277.4,191218,000.0,W*79
$GPGGA,074124.680,5702.976,N,00954.402,E,1,12,1.0,0.0,M,0.0,M,,*62
$GPGSA,A,3,01,02,03,04,05,06,07,08,09,10,11,12,1.0,1.0,1.0*30
$GPRMC,074124.680,A,5702.976,N,00954.402,E,017.5,278.5,191218,000.0,W*7F
$GPGGA,074125.680,5702.978,N,00954.394,E,1,12,1.0,0.0,M,0.0,M,,*65
$GPGSA,A,3,01,02,03,04,05,06,07,08,09,10,11,12,1.0,1.0,1.0*30
$GPRMC,074125.680,A,5702.978,N,00954.394,E,021.4,274.5,191218,000.0,W*70
$GPGGA,074126.680,5702.978,N,00954.383,E,1,12,1.0,0.0,M,0.0,M,,*60
$GPGSA,A,3,01,02,03,04,05,06,07,08,09,10,11,12,1.0,1.0,1.0*30
$GPRMC,074126.680,A,5702.978,N,00954.383,E,021.4,279.0,191218,000.0,W*7D
$GPGGA,074127.680,5702.980,N,00954.372,E,1,12,1.0,0.0,M,0.0,M,,*68
$GPGSA,A,3,01,02,03,04,05,06,07,08,09,10,11,12,1.0,1.0,1.0*30
$GPRMC,074127.680,A,5702.980,N,00954.372,E,019.4,277.0,191218,000.0,W*70
$GPGGA,074128.680,5702.981,N,00954.363,E,1,12,1.0,0.0,M,0.0,M,,*66
$GPGSA,A,3,01,02,03,04,05,06,07,08,09,10,11,12,1.0,1.0,1.0*30
$GPRMC,074128.680,A,5702.981,N,00954.363,E,019.4,277.0,191218,000.0,W*7E
$GPGGA,074129.680,5702.983,N,00954.353,E,1,12,1.0,0.0,M,0.0,M,,*66
$GPGSA,A,3,01,02,03,04,05,06,07,08,09,10,11,12,1.0,1.0,1.0*30
$GPRMC,074129.680,A,5702.983,N,00954.353,E,025.3,275.8,191218,000.0,W*7C
$GPGGA,074130.680,5702.984,N,00954.340,E,1,12,1.0,0.0,M,0.0,M,,*6B
$GPGSA,A,3,01,02,03,04,05,06,07,08,09,10,11,12,1.0,1.0,1.0*30
$GPRMC,074130.680,A,5702.984,N,00954.340,E,025.3,275.8,191218,000.0,W*71
$GPGGA,074131.680,5702.985,N,00954.328,E,1,12,1.0,0.0,M,0.0,M,,*65
$GPGSA,A,3,01,02,03,04,05,06,07,08,09,10,11,12,1.0,1.0,1.0*30
$GPRMC,074131.680,A,5702.985,N,00954.328,E,025.3,275.8,191218,000.0,W*7F
$GPGGA,074132.680,5702.986,N,00954.315,E,1,12,1.0,0.0,M,0.0,M,,*6B
$GPGSA,A,3,01,02,03,04,05,06,07,08,09,10,11,12,1.0,1.0,1.0*30
$GPRMC,074132.680,A,5702.986,N,00954.315,E,025.3,275.8,191218,000.0,W*71
$GPGGA,074133.680,5702.988,N,00954.302,E,1,12,1.0,0.0,M,0.0,M,,*62
$GPGSA,A,3,01,02,03,04,05,06,07,08,09,10,11,12,1.0,1.0,1.0*30
$GPRMC,074133.680,A,5702.988,N,00954.302,E,025.3,275.8,191218,000.0,W*78
$GPGGA,074134.680,5702.989,N,00954.290,E,1,12,1.0,0.0,M,0.0,M,,*6E
$GPGSA,A,3,01,02,03,04,05,06,07,08,09,10,11,12,1.0,1.0,1.0*30
$GPRMC,074134.680,A,5702.989,N,00954.290,E,025.3,275.8,191218,000.0,W*74
$GPGGA,074135.680,5702.990,N,00954.277,E,1,12,1.0,0.0,M,0.0,M,,*6E
$GPGSA,A,3,01,02,03,04,05,06,07,08,09,10,11,12,1.0,1.0,1.0*30
$GPRMC,074135.680,A,5702.990,N,00954.277,E,025.3,275.8,191218,000.0,W*74
$GPGGA,074136.680,5702.991,N,00954.264,E,1,12,1.0,0.0,M,0.0,M,,*6E
$GPGSA,A,3,01,02,03,04,05,06,07,08,09,10,11,12,1.0,1.0,1.0*30
$GPRMC,074136.680,A,5702.991,N,00954.264,E,021.4,277.3,191218,000.0,W*7E
$GPGGA,074137.680,5702.993,N,00954.254,E,1,12,1.0,0.0,M,0.0,M,,*6E
$GPGSA,A,3,01,02,03,04,05,06,07,08,09,10,11,12,1.0,1.0,1.0*30
$GPRMC,074137.680,A,5702.993,N,00954.254,E,015.5,276.8,191218,000.0,W*72
$GPGGA,074138.680,5702.994,N,00954.246,E,1,12,1.0,0.0,M,0.0,M,,*65
$GPGSA,A,3,01,02,03,04,05,06,07,08,09,10,11,12,1.0,1.0,1.0*30
$GPRMC,074138.680,A,5702.994,N,00954.246,E,015.5,272.7,191218,000.0,W*72
$GPGGA,074139.680,5702.994,N,00954.238,E,1,12,1.0,0.0,M,0.0,M,,*6D
$GPGSA,A,3,01,02,03,04,05,06,07,08,09,10,11,12,1.0,1.0,1.0*30
$GPRMC,074139.680,A,5702.994,N,00954.238,E,009.7,273.1,191218,000.0,W*72
$GPGGA,074140.680,5702.994,N,00954.233,E,1,12,1.0,0.0,M,0.0,M,,*68
$GPGSA,A,3,01,02,03,04,05,06,07,08,09,10,11,12,1.0,1.0,1.0*30
$GPRMC,074140.680,A,5702.994,N,00954.233,E,009.7,278.3,191218,000.0,W*7E
$GPGGA,074141.680,5702.995,N,00954.228,E,1,12,1.0,0.0,M,0.0,M,,*62
$GPGSA,A,3,01,02,03,04,05,06,07,08,09,10,11,12,1.0,1.0,1.0*30
$GPRMC,074141.680,A,5702.995,N,00954.228,E,007.8,277.2,191218,000.0,W*7B
$GPGGA,074142.680,5702.996,N,00954.224,E,1,12,1.0,0.0,M,0.0,M,,*6E
$GPGSA,A,3,01,02,03,04,05,06,07,08,09,10,11,12,1.0,1.0,1.0*30
$GPRMC,074142.680,A,5702.996,N,00954.224,E,007.8,311.9,191218,000.0,W*7D
$GPGGA,074143.680,5702.997,N,00954.222,E,1,12,1.0,0.0,M,0.0,M,,*68
$GPGSA,A,3,01,02,03,04,05,06,07,08,09,10,11,12,1.0,1.0,1.0*30
$GPRMC,074143.680,A,5702.997,N,00954.222,E,011.7,005.1,191218,000.0,W*7D
$GPGGA,074144.680,5703.001,N,00954.223,E,1,12,1.0,0.0,M,0.0,M,,*69
$GPGSA,A,3,01,02,03,04,05,06,07,08,09,10,11,12,1.0,1.0,1.0*30
$GPRMC,074144.680,A,5703.001,N,00954.223,E,013.6,001.6,191218,000.0,W*7C
$GPGGA,074145.680,5703.004,N,00954.223,E,1,12,1.0,0.0,M,0.0,M,,*6D
$GPGSA,A,3,01,02,03,04,05,06,07,08,09,10,11,12,1.0,1.0,1.0*30
$GPRMC,074145.680,A,5703.004,N,00954.223,E,011.7,002.7,191218,000.0,W*79
$GPGGA,074146.680,5703.008,N,00954.223,E,1,12,1.0,0.0,M,0.0,M,,*62
$GPGSA,A,3,01,02,03,04,05,06,07,08,09,10,11,12,1.0,1.0,1.0*30
$GPRMC,074146.680,A,5703.008,N,00954.223,E,011.7,002.7,191218,000.0,W*76
$GPGGA,074147.680,5703.011,N,00954.223,E,1,12,1.0,0.0,M,0.0,M,,*6B
$GPGSA,A,3,01,02,03,04,05,06,07,08,09,10,11,12,1.0,1.0,1.0*30
$GPRMC,074147.680,A,5703.011,N,00954.223,E,021.4,014.8,191218,000.0,W*77
$GPGGA,074148.680,5703.017,N,00954.225,E,1,12,1.0,0.0,M,0.0,M,,*64
$GPGSA,A,3,01,02,03,04,05,06,07,08,09,10,11,12,1.0,1.0,1.0*30
$GPRMC,074148.680,A,5703.017,N,00954.225,E,027.2,016.9,191218,000.0,W*7B
$GPGGA,074149.680,5703.024,N,00954.227,E,1,12,1.0,0.0,M,0.0,M,,*67
$GPGSA,A,3,01,02,03,04,05,06,07,08,09,10,11,12,1.0,1.0,1.0*30
$GPRMC,074149.680,A,5703.024,N,00954.227,E,031.1,020.0,191218,000.0,W*70
$GPGGA,074150.680,5703.033,N,00954.230,E,1,12,1.0,0.0,M,0.0,M,,*6F
$GPGSA,A,3,01,02,03,04,05,06,07,08,09,10,11,12,1.0,1.0,1.0*30
$GPRMC,074150.680,A,5703.033,N,00954.230,E,025.3,026.0,191218,000.0,W*79
$GPGGA,074151.680,5703.039,N,00954.233,E,1,12,1.0,0.0,M,0.0,M,,*67
$GPGSA,A,3,01,02,03,04,05,06,07,08,09,10,11,12,1.0,1.0,1.0*30
$GPRMC,074151.680,A,5703.039,N,00954.233,E,027.2,013.6,191218,000.0,W*72
$GPGGA,074152.680,5703.047,N,00954.235,E,1,12,1.0,0.0,M,0.0,M,,*6B
$GPGSA,A,3,01,02,03,04,05,06,07,08,09,10,11,12,1.0,1.0,1.0*30
$GPRMC,074152.680,A,5703.047,N,00954.235,E,033.0,015.6,191218,000.0,W*7F
$GPGGA,074153.680,5703.056,N,00954.238,E,1,12,1.0,0.0,M,0.0,M,,*67
$GPGSA,A,3,01,02,03,04,05,06,07,08,09,10,11,12,1.0,1.0,1.0*30
$GPRMC,074153.680,A,5703.056,N,00954.238,E,033.0,020.0,191218,000.0,W*73
$GPGGA,074154.680,5703.065,N,00954.241,E,1,12,1.0,0.0,M,0.0,M,,*6E
$GPGSA,A,3,01,02,03,04,05,06,07,08,09,10,11,12,1.0,1.0,1.0*30
$GPRMC,074154.680,A,5703.065,N,00954.241,E,033.0,016.4,191218,000.0,W*7B
$GPGGA,074155.680,5703.074,N,00954.244,E,1,12,1.0,0.0,M,0.0,M,,*6A
$GPGSA,A,3,01,02,03,04,05,06,07,08,09,10,11,12,1.0,1.0,1.0*30
$GPRMC,074155.680,A,5703.074,N,00954.244,E,029.2,009.7,191218,000.0,W*7B
$GPGGA,074156.680,5703.082,N,00954.245,E,1,12,1.0,0.0,M,0.0,M,,*61
$GPGSA,A,3,01,02,03,04,05,06,07,08,09,10,11,12,1.0,1.0,1.0*30
$GPRMC,074156.680,A,5703.082,N,00954.245,E,029.2,022.4,191218,000.0,W*7A
$GPGGA,074157.680,5703.090,N,00954.248,E,1,12,1.0,0.0,M,0.0,M,,*6E
$GPGSA,A,3,01,02,03,04,05,06,07,08,09,10,11,12,1.0,1.0,1.0*30
$GPRMC,074157.680,A,5703.090,N,00954.248,E,035.0,016.2,191218,000.0,W*7B
$GPGGA,074158.680,5703.100,N,00954.251,E,1,12,1.0,0.0,M,0.0,M,,*61
$GPGSA,A,3,01,02,03,04,05,06,07,08,09,10,11,12,1.0,1.0,1.0*30
$GPRMC,074158.680,A,5703.100,N,00954.251,E,035.0,019.7,191218,000.0,W*7E
$GPGGA,074159.680,5703.109,N,00954.255,E,1,12,1.0,0.0,M,0.0,M,,*6D
$GPGSA,A,3,01,02,03,04,05,06,07,08,09,10,11,12,1.0,1.0,1.0*30
$GPRMC,074159.680,A,5703.109,N,00954.255,E,036.9,019.8,191218,000.0,W*77
$GPGGA,074200.680,5703.119,N,00954.258,E,1,12,1.0,0.0,M,0.0,M,,*6E
$GPGSA,A,3,01,02,03,04,05,06,07,08,09,10,11,12,1.0,1.0,1.0*30
$GPRMC,074200.680,A,5703.119,N,00954.258,E,027.2,015.2,191218,000.0,W*79
$GPGGA,074201.680,5703.127,N,00954.260,E,1,12,1.0,0.0,M,0.0,M,,*69
$GPGSA,A,3,01,02,03,04,05,06,07,08,09,10,11,12,1.0,1.0,1.0*30
$GPRMC,074201.680,A,5703.127,N,00954.260,E,015.5,017.9,191218,000.0,W*71
$GPGGA,074202.680,5703.131,N,00954.262,E,1,12,1.0,0.0,M,0.0,M,,*6F
$GPGSA,A,3,01,02,03,04,05,06,07,08,09,10,11,12,1.0,1.0,1.0*30
$GPRMC,074202.680,A,5703.131,N,00954.262,E,011.7,015.9,191218,000.0,W*73
$GPGGA,074203.680,5703.134,N,00954.263,E,1,12,1.0,0.0,M,0.0,M,,*6A
$GPGSA,A,3,01,02,03,04,05,06,07,08,09,10,11,12,1.0,1.0,1.0*30
$GPRMC,074203.680,A,5703.134,N,00954.263,E,009.7,003.4,191218,000.0,W*75
$GPGGA,074204.680,5703.137,N,00954.263,E,1,12,1.0,0.0,M,0.0,M,,*6E
$GPGSA,A,3,01,02,03,04,05,06,07,08,09,10,11,12,1.0,1.0,1.0*30
$GPRMC,074204.680,A,5703.137,N,00954.263,E,005.8,037.1,191218,000.0,W*70
$GPGGA,074205.680,5703.138,N,00954.264,E,1,12,1.0,0.0,M,0.0,M,,*67
$GPGSA,A,3,01,02,03,04,05,06,07,08,09,10,11,12,1.0,1.0,1.0*30
$GPRMC,074205.680,A,5703.138,N,00954.264,E,001.9,027.0,191218,000.0,W*7C
$GPGGA,074206.680,5703.139,N,00954.264,E,1,12,1.0,0.0,M,0.0,M,,*65
$GPGSA,A,3,01,02,03,04,05,06,07,08,09,10,11,12,1.0,1.0,1.0*30
$GPRMC,074206.680,A,5703.139,N,00954.264,E,002.0,027.0,191218,000.0,W*74
$GPGGA,074207.680,5703.139,N,00954.264,E,1,12,1.0,0.0,M,0.0,M,,*64
$GPGSA,A,3,01,02,03,04,05,06,07,08,09,10,11,12,1.0,1.0,1.0*30
$GPRMC,074207.680,A,5703.139,N,00954.264,E,002.0,027.0,191218,000.0,W*75
$GPGGA,074208.680,5703.140,N,00954.265,E,1,12,1.0,0.0,M,0.0,M,,*64
$GPGSA,A,3,01,02,03,04,05,06,07,08,09,10,11,12,1.0,1.0,1.0*30
$GPRMC,074208.680,A,5703.140,N,00954.265,E,005.8,004.1,191218,000.0,W*7A
$GPGGA,074209.680,5703.141,N,00954.265,E,1,12,1.0,0.0,M,0.0,M,,*64
$GPGSA,A,3,01,02,03,04,05,06,07,08,09,10,11,12,1.0,1.0,1.0*30
$GPRMC,074209.680,A,5703.141,N,00954.265,E,009.7,020.6,191218,000.0,W*78
$GPGGA,074210.680,5703.144,N,00954.266,E,1,12,1.0,0.0,M,0.0,M,,*6A
$GPGSA,A,3,01,02,03,04,05,06,07,08,09,10,11,12,1.0,1.0,1.0*30
$GPRMC,074210.680,A,5703.144,N,00954.266,E,015.6,020.4,191218,000.0,W*78
$GPGGA,074211.680,5703.148,N,00954.267,E,1,12,1.0,0.0,M,0.0,M,,*66
$GPGSA,A,3,01,02,03,04,05,06,07,08,09,10,11,12,1.0,1.0,1.0*30
$GPRMC,074211.680,A,5703.148,N,00954.267,E,017.5,016.2,191218,000.0,W*76
$GPGGA,074212.680,5703.153,N,00954.269,E,1,12,1.0,0.0,M,0.0,M,,*61
$GPGSA,A,3,01,02,03,04,05,06,07,08,09,10,11,12,1.0,1.0,1.0*30
$GPRMC,074212.680,A,5703.153,N,00954.269,E,021.4,013.5,191218,000.0,W*77
$GPGGA,074213.680,5703.159,N,00954.270,E,1,12,1.0,0.0,M,0.0,M,,*62
$GPGSA,A,3,01,02,03,04,05,06,07,08,09,10,11,12,1.0,1.0,1.0*30
$GPRMC,074213.680,A,5703.159,N,00954.270,E,025.3,020.4,191218,000.0,W*76
$GPGGA,074214.680,5703.166,N,00954.273,E,1,12,1.0,0.0,M,0.0,M,,*6A
$GPGSA,A,3,01,02,03,04,05,06,07,08,09,10,11,12,1.0,1.0,1.0*30
$GPRMC,074214.680,A,5703.166,N,00954.273,E,029.2,016.4,191218,000.0,W*76
$GPGGA,074215.680,5703.174,N,00954.275,E,1,12,1.0,0.0,M,0.0,M,,*6E
$GPGSA,A,3,01,02,03,04,05,06,07,08,09,10,11,12,1.0,1.0,1.0*30
$GPRMC,074215.680,A,5703.174,N,00954.275,E,031.1,020.2,191218,000.0,W*7B
$GPGGA,074216.680,5703.182,N,00954.278,E,1,12,1.0,0.0,M,0.0,M,,*69
$GPGSA,A,3,01,02,03,04,05,06,07,08,09,10,11,12,1.0,1.0,1.0*30
$GPRMC,074216.680,A,5703.182,N,00954.278,E,036.9,016.2,191218,000.0,W*76
$GPGGA,074217.680,5703.192,N,00954.281,E,1,12,1.0,0.0,M,0.0,M,,*6F
$GPGSA,A,3,01,02,03,04,05,06,07,08,09,10,11,12,1.0,1.0,1.0*30
$GPRMC,074217.680,A,5703.192,N,00954.281,E,033.0,025.5,191218,000.0,W*7B
$GPGGA,074218.680,5703.201,N,00954.285,E,1,12,1.0,0.0,M,0.0,M,,*6D
$GPGSA,A,3,01,02,03,04,05,06,07,08,09,10,11,12,1.0,1.0,1.0*30
$GPRMC,074218.680,A,5703.201,N,00954.285,E,019.4,018.6,191218,000.0,W*78
$GPGGA,074219.680,5703.207,N,00954.287,E,1,12,1.0,0.0,M,0.0,M,,*68
$GPGSA,A,3,01,02,03,04,05,06,07,08,09,10,11,12,1.0,1.0,1.0*30
$GPRMC,074219.680,A,5703.207,N,00954.287,E,025.3,281.2,191218,000.0,W*73
$GPGGA,074220.680,5703.209,N,00954.275,E,1,12,1.0,0.0,M,0.0,M,,*61
$GPGSA,A,3,01,02,03,04,05,06,07,08,09,10,11,12,1.0,1.0,1.0*30
$GPRMC,074220.680,A,5703.209,N,00954.275,E,029.2,280.4,191218,000.0,W*70
$GPGGA,074221.680,5703.212,N,00954.261,E,1,12,1.0,0.0,M,0.0,M,,*6F
$GPGSA,A,3,01,02,03,04,05,06,07,08,09,10,11,12,1.0,1.0,1.0*30
$GPRMC,074221.680,A,5703.212,N,00954.261,E,035.0,281.0,191218,000.0,W*74
$GPGGA,074222.680,5703.215,N,00954.244,E,1,12,1.0,0.0,M,0.0,M,,*6C
$GPGSA,A,3,01,02,03,04,05,06,07,08,09,10,11,12,1.0,1.0,1.0*30
$GPRMC,074222.680,A,5703.215,N,00954.244,E,040.8,281.5,191218,000.0,W*78
$GPGGA,074223.680,5703.219,N,00954.225,E,1,12,1.0,0.0,M,0.0,M,,*66
$GPGSA,A,3,01,02,03,04,05,06,07,08,09,10,11,12,1.0,1.0,1.0*30
$GPRMC,074223.680,A,5703.219,N,00954.225,E,042.8,281.9,191218,000.0,W*7C
$GPGGA,074224.680,5703.223,N,00954.204,E,1,12,1.0,0.0,M,0.0,M,,*6B
$GPGSA,A,3,01,02,03,04,05,06,07,08,09,10,11,12,1.0,1.0,1.0*30
$GPRMC,074224.680,A,5703.223,N,00954.204,E,042.8,284.1,191218,000.0,W*7C
$GPGGA,074225.680,5703.228,N,00954.184,E,1,12,1.0,0.0,M,0.0,M,,*6A
$GPGSA,A,3,01,02,03,04,05,06,07,08,09,10,11,12,1.0,1.0,1.0*30
$GPRMC,074225.680,A,5703.228,N,00954.184,E,042.8,283.3,191218,000.0,W*78
$GPGGA,074226.680,5703.233,N,00954.164,E,1,12,1.0,0.0,M,0.0,M,,*6D
$GPGSA,A,3,01,02,03,04,05,06,07,08,09,10,11,12,1.0,1.0,1.0*30
$GPRMC,074226.680,A,5703.233,N,00954.164,E,044.7,281.5,191218,000.0,W*72
$GPGGA,074227.680,5703.237,N,00954.143,E,1,12,1.0,0.0,M,0.0,M,,*6D
$GPGSA,A,3,01,02,03,04,05,06,07,08,09,10,11,12,1.0,1.0,1.0*30
$GPRMC,074227.680,A,5703.237,N,00954.143,E,040.8,280.6,191218,000.0,W*7B
$GPGGA,074228.680,5703.241,N,00954.123,E,1,12,1.0,0.0,M,0.0,M,,*65
$GPGSA,A,3,01,02,03,04,05,06,07,08,09,10,11,12,1.0,1.0,1.0*30
$GPRMC,074228.680,A,5703.241,N,00954.123,E,029.2,278.0,191218,000.0,W*77
$GPGGA,074229.680,5703.243,N,00954.109,E,1,12,1.0,0.0,M,0.0,M,,*6E
$GPGSA,A,3,01,02,03,04,05,06,07,08,09,10,11,12,1.0,1.0,1.0*30
$GPRMC,074229.680,A,5703.243,N,00954.109,E,027.2,281.3,191218,000.0,W*77
$GPGGA,074230.680,5703.245,N,00954.096,E,1,12,1.0,0.0,M,0.0,M,,*67
$GPGSA,A,3,01,02,03,04,05,06,07,08,09,10,11,12,1.0,1.0,1.0*30
$GPRMC,074230.680,A,5703.245,N,00954.096,E,033.0,282.6,191218,000.0,W*7F
$GPGGA,074231.680,5703.249,N,00954.080,E,1,12,1.0,0.0,M,0.0,M,,*6D
$GPGSA,A,3,01,02,03,04,05,06,07,08,09,10,11,12,1.0,1.0,1.0*30
$GPRMC,074231.680,A,5703.249,N,00954.080,E,033.0,281.0,191218,000.0,W*70
$GPGGA,074232.680,5703.252,N,00954.064,E,1,12,1.0,0.0,M,0.0,M,,*6E
$GPGSA,A,3,01,02,03,04,05,06,07,08,09,10,11,12,1.0,1.0,1.0*30
$GPRMC,074232.680,A,5703.252,N,00954.064,E,031.1,281.4,191218,000.0,W*74
$GPGGA,074233.680,5703.255,N,00954.049,E,1,12,1.0,0.0,M,0.0,M,,*67
$GPGSA,A,3,01,02,03,04,05,06,07,08,09,10,11,12,1.0,1.0,1.0*30
$GPRMC,074233.680,A,5703.255,N,00954.049,E,025.3,283.0,191218,000.0,W*7C
$GPGGA,074234.680,5703.258,N,00954.038,E,1,12,1.0,0.0,M,0.0,M,,*6B
$GPGSA,A,3,01,02,03,04,05,06,07,08,09,10,11,12,1.0,1.0,1.0*30
$GPRMC,074234.680,A,5703.258,N,00954.038,E,025.3,283.7,191218,000.0,W*77
$GPGGA,074235.680,5703.261,N,00954.026,E,1,12,1.0,0.0,M,0.0,M,,*6F
$GPGSA,A,3,01,02,03,04,05,06,07,08,09,10,11,12,1.0,1.0,1.0*30
$GPRMC,074235.680,A,5703.261,N,00954.026,E,023.3,282.3,191218,000.0,W*70
$GPGGA,074236.680,5703.263,N,00954.015,E,1,12,1.0,0.0,M,0.0,M,,*6E
$GPGSA,A,3,01,02,03,04,05,06,07,08,09,10,11,12,1.0,1.0,1.0*30
$GPRMC,074236.680,A,5703.263,N,00954.015,E,025.3,281.3,191218,000.0,W*74
$GPGGA,074237.680,5703.265,N,00954.003,E,1,12,1.0,0.0,M,0.0,M,,*6E
$GPGSA,A,3,01,02,03,04,05,06,07,08,09,10,11,12,1.0,1.0,1.0*30
$GPRMC,074237.680,A,5703.265,N,00954.003,E,025.3,279.9,191218,000.0,W*79
$GPGGA,074238.680,5703.267,N,00953.990,E,1,12,1.0,0.0,M,0.0,M,,*67
$GPGSA,A,3,01,02,03,04,05,06,07,08,09,10,11,12,1.0,1.0,1.0*30
$GPRMC,074238.680,A,5703.267,N,00953.990,E,023.3,281.1,191218,000.0,W*79
$GPGGA,074239.680,5703.270,N,00953.979,E,1,12,1.0,0.0,M,0.0,M,,*67
$GPGSA,A,3,01,02,03,04,05,06,07,08,09,10,11,12,1.0,1.0,1.0*30
$GPRMC,074239.680,A,5703.270,N,00953.979,E,019.4,281.2,191218,000.0,W*74
$GPGGA,074240.680,5703.271,N,00953.970,E,1,12,1.0,0.0,M,0.0,M,,*61
$GPGSA,A,3,01,02,03,04,05,06,07,08,09,10,11,12,1.0,1.0,1.0*30
$GPRMC,074240.680,A,5703.271,N,00953.970,E,027.2,279.3,191218,000.0,W*7F
$GPGGA,074241.680,5703.274,N,00953.956,E,1,12,1.0,0.0,M,0.0,M,,*61
$GPGSA,A,3,01,02,03,04,05,06,07,08,09,10,11,12,1.0,1.0,1.0*30
$GPRMC,074241.680,A,5703.274,N,00953.956,E,027.2,283.3,191218,000.0,W*7A
$GPGGA,074242.680,5703.277,N,00953.944,E,1,12,1.0,0.0,M,0.0,M,,*62
$GPGSA,A,3,01,02,03,04,05,06,07,08,09,10,11,12,1.0,1.0,1.0*30
$GPRMC,074242.680,A,5703.277,N,00953.944,E,023.3,281.9,191218,000.0,W*74
$GPGGA,074243.680,5703.279,N,00953.933,E,1,12,1.0,0.0,M,0.0,M,,*6D
$GPGSA,A,3,01,02,03,04,05,06,07,08,09,10,11,12,1.0,1.0,1.0*30
$GPRMC,074243.680,A,5703.279,N,00953.933,E,021.4,281.8,191218,000.0,W*7F
$GPGGA,074244.680,5703.281,N,00953.922,E,1,12,1.0,0.0,M,0.0,M,,*6D
$GPGSA,A,3,01,02,03,04,05,06,07,08,09,10,11,12,1.0,1.0,1.0*30
$GPRMC,074244.680,A,5703.281,N,00953.922,E,021.4,279.4,191218,000.0,W*74
$GPGGA,074245.680,5703.283,N,00953.912,E,1,12,1.0,0.0,M,0.0,M,,*6D
$GPGSA,A,3,01,02,03,04,05,06,07,08,09,10,11,12,1.0,1.0,1.0*30
$GPRMC,074245.680,A,5703.283,N,00953.912,E,021.4,282.4,191218,000.0,W*70
$GPGGA,074246.680,5703.285,N,00953.902,E,1,12,1.0,0.0,M,0.0,M,,*69
$GPGSA,A,3,01,02,03,04,05,06,07,08,09,10,11,12,1.0,1.0,1.0*30
$GPRMC,074246.680,A,5703.285,N,00953.902,E,021.4,284.6,191218,000.0,W*70
$GPGGA,074247.680,5703.288,N,00953.892,E,1,12,1.0,0.0,M,0.0,M,,*6D
$GPGSA,A,3,01,02,03,04,05,06,07,08,09,10,11,12,1.0,1.0,1.0*30
$GPRMC,074247.680,A,5703.288,N,00953.892,E,019.4,286.0,191218,000.0,W*7B
$GPGGA,074248.680,5703.290,N,00953.883,E,1,12,1.0,0.0,M,0.0,M,,*6B
$GPGSA,A,3,01,02,03,04,05,06,07,08,09,10,11,12,1.0,1.0,1.0*30
$GPRMC,074248.680,A,5703.290,N,00953.883,E,021.4,280.3,191218,000.0,W*73
$GPGGA,074249.680,5703.292,N,00953.873,E,1,12,1.0,0.0,M,0.0,M,,*67
$GPGSA,A,3,01,02,03,04,05,06,07,08,09,10,11,12,1.0,1.0,1.0*30
$GPRMC,074249.680,A,5703.292,N,00953.873,E,021.4,279.8,191218,000.0,W*72
$GPGGA,074250.680,5703.294,N,00953.862,E,1,12,1.0,0.0,M,0.0,M,,*69
$GPGSA,A,3,01,02,03,04,05,06,07,08,09,10,11,12,1.0,1.0,1.0*30
$GPRMC,074250.680,A,5703.294,N,00953.862,E,021.4,280.4,191218,000.0,W*76
$GPGGA,074251.680,5703.296,N,00953.852,E,1,12,1.0,0.0,M,0.0,M,,*69
$GPGSA,A,3,01,02,03,04,05,06,07,08,09,10,11,12,1.0,1.0,1.0*30
$GPRMC,074251.680,A,5703.296,N,00953.852,E,021.4,280.8,191218,000.0,W*7A
$GPGGA,074252.680,5703.298,N,00953.842,E,1,12,1.0,0.0,M,0.0,M,,*65
$GPGSA,A,3,01,02,03,04,05,06,07,08,09,10,11,12,1.0,1.0,1.0*30
$GPRMC,074252.680,A,5703.298,N,00953.842,E,021.4,280.8,191218,000.0,W*76
$GPGGA,074253.680,5703.300,N,00953.831,E,1,12,1.0,0.0,M,0.0,M,,*60
$GPGSA,A,3,01,02,03,04,05,06,07,08,09,10,11,12,1.0,1.0,1.0*30
$GPRMC,074253.680,A,5703.300,N,00953.831,E,023.3,279.5,191218,000.0,W*7D
$GPGGA,074254.680,5703.301,N,00953.820,E,1,12,1.0,0.0,M,0.0,M,,*66
$GPGSA,A,3,01,02,03,04,05,06,07,08,09,10,11,12,1.0,1.0,1.0*30
$GPRMC,074254.680,A,5703.301,N,00953.820,E,023.3,281.2,191218,000.0,W*7B
$GPGGA,074255.680,5703.304,N,00953.809,E,1,12,1.0,0.0,M,0.0,M,,*69
$GPGSA,A,3,01,02,03,04,05,06,07,08,09,10,11,12,1.0,1.0,1.0*30
$GPRMC,074255.680,A,5703.304,N,00953.809,E,021.4,286.8,191218,000.0,W*7C
$GPGGA,074256.680,5703.307,N,00953.799,E,1,12,1.0,0.0,M,0.0,M,,*6F
$GPGSA,A,3,01,02,03,04,05,06,07,08,09,10,11,12,1.0,1.0,1.0*30
$GPRMC,074256.680,A,5703.307,N,00953.799,E,021.4,279.0,191218,000.0,W*72
$GPGGA,074257.680,5703.308,N,00953.789,E,1,12,1.0,0.0,M,0.0,M,,*60
$GPGSA,A,3,01,02,03,04,05,06,07,08,09,10,11,12,1.0,1.0,1.0*30
$GPRMC,074257.680,A,5703.308,N,00953.789,E,023.3,283.6,191218,000.0,W*7B
$GPGGA,074258.680,5703.311,N,00953.778,E,1,12,1.0,0.0,M,0.0,M,,*69
$GPGSA,A,3,01,02,03,04,05,06,07,08,09,10,11,12,1.0,1.0,1.0*30
$GPRMC,074258.680,A,5703.311,N,00953.778,E,023.3,282.5,191218,000.0,W*70
$GPGGA,074259.680,5703.313,N,00953.767,E,1,12,1.0,0.0,M,0.0,M,,*64
$GPGSA,A,3,01,02,03,04,05,06,07,08,09,10,11,12,1.0,1.0,1.0*30
$GPRMC,074259.680,A,5703.313,N,00953.767,E,023.3,282.5,191218,000.0,W*7D
$GPGGA,074300.680,5703.316,N,00953.756,E,1,12,1.0,0.0,M,0.0,M,,*6E
$GPGSA,A,3,01,02,03,04,05,06,07,08,09,10,11,12,1.0,1.0,1.0*30
$GPRMC,074300.680,A,5703.316,N,00953.756,E,025.3,284.0,191218,000.0,W*72
$GPGGA,074301.680,5703.319,N,00953.744,E,1,12,1.0,0.0,M,0.0,M,,*63
$GPGSA,A,3,01,02,03,04,05,06,07,08,09,10,11,12,1.0,1.0,1.0*30
$GPRMC,074301.680,A,5703.319,N,00953.744,E,027.2,282.0,191218,000.0,W*7A
$GPGGA,074302.680,5703.321,N,00953.731,E,1,12,1.0,0.0,M,0.0,M,,*69
$GPGSA,A,3,01,02,03,04,05,06,07,08,09,10,11,12,1.0,1.0,1.0*30
$GPRMC,074302.680,A,5703.321,N,00953.731,E,029.2,277.9,191218,000.0,W*7D
$GPGGA,074303.680,5703.323,N,00953.717,E,1,12,1.0,0.0,M,0.0,M,,*6E
$GPGSA,A,3,01,02,03,04,05,06,07,08,09,10,11,12,1.0,1.0,1.0*30
$GPRMC,074303.680,A,5703.323,N,00953.717,E,029.2,286.8,191218,000.0,W*75
$GPGGA,074304.680,5703.327,N,00953.704,E,1,12,1.0,0.0,M,0.0,M,,*6F
$GPGSA,A,3,01,02,03,04,05,06,07,08,09,10,11,12,1.0,1.0,1.0*30
$GPRMC,074304.680,A,5703.327,N,00953.704,E,029.2,282.6,191218,000.0,W*7E
$GPGGA,074305.680,5703.330,N,00953.690,E,1,12,1.0,0.0,M,0.0,M,,*64
$GPGSA,A,3,01,02,03,04,05,06,07,08,09,10,11,12,1.0,1.0,1.0*30
$GPRMC,074305.680,A,5703.330,N,00953.690,E,025.3,279.1,191218,000.0,W*7B
$GPGGA,074306.680,5703.332,N,00953.678,E,1,12,1.0,0.0,M,0.0,M,,*63
$GPGSA,A,3,01,02,03,04,05,06,07,08,09,10,11,12,1.0,1.0,1.0*30
$GPRMC,074306.680,A,5703.332,N,00953.678,E,025.3,276.3,191218,000.0,W*71
$GPGGA,074307.680,5703.334,N,00953.665,E,1,12,1.0,0.0,M,0.0,M,,*68
$GPGSA,A,3,01,02,03,04,05,06,07,08,09,10,11,12,1.0,1.0,1.0*30
$GPRMC,074307.680,A,5703.334,N,00953.665,E,023.3,285.8,191218,000.0,W*7B
$GPGGA,074308.680,5703.337,N,00953.654,E,1,12,1.0,0.0,M,0.0,M,,*66
$GPGSA,A,3,01,02,03,04,05,06,07,08,09,10,11,12,1.0,1.0,1.0*30
$GPRMC,074308.680,A,5703.337,N,00953.654,E,023.3,281.5,191218,000.0,W*7C
$GPGGA,074309.680,5703.339,N,00953.643,E,1,12,1.0,0.0,M,0.0,M,,*6F
$GPGSA,A,3,01,02,03,04,05,06,07,08,09,10,11,12,1.0,1.0,1.0*30
$GPRMC,074309.680,A,5703.339,N,00953.643,E,023.3,281.5,191218,000.0,W*75
$GPGGA,074310.680,5703.341,N,00953.632,E,1,12,1.0,0.0,M,0.0,M,,*6E
$GPGSA,A,3,01,02,03,04,05,06,07,08,09,10,11,12,1.0,1.0,1.0*30
$GPRMC,074310.680,A,5703.341,N,00953.632,E,021.4,280.5,191218,000.0,W*70
$GPGGA,074311.680,5703.343,N,00953.622,E,1,12,1.0,0.0,M,0.0,M,,*6C
$GPGSA,A,3,01,02,03,04,05,06,07,08,09,10,11,12,1.0,1.0,1.0*30
$GPRMC,074311.680,A,5703.343,N,00953.622,E,021.4,276.4,191218,000.0,W*7A
$GPGGA,074312.680,5703.344,N,00953.611,E,1,12,1.0,0.0,M,0.0,M,,*68
$GPGSA,A,3,01,02,03,04,05,06,07,08,09,10,11,12,1.0,1.0,1.0*30
$GPRMC,074312.680,A,5703.344,N,00953.611,E,021.4,275.9,191218,000.0,W*70
$GPGGA,074313.680,5703.345,N,00953.600,E,1,12,1.0,0.0,M,0.0,M,,*68
$GPGSA,A,3,01,02,03,04,05,06,07,08,09,10,11,12,1.0,1.0,1.0*30
$GPRMC,074313.680,A,5703.345,N,00953.600,E,021.4,273.1,191218,000.0,W*7E
$GPGGA,074314.680,5703.346,N,00953.589,E,1,12,1.0,0.0,M,0.0,M,,*6E
$GPGSA,A,3,01,02,03,04,05,06,07,08,09,10,11,12,1.0,1.0,1.0*30
$GPRMC,074314.680,A,5703.346,N,00953.589,E,015.6,272.2,191218,000.0,W*7F
$GPGGA,074315.680,5703.346,N,00953.582,E,1,12,1.0,0.0,M,0.0,M,,*64
$GPGSA,A,3,01,02,03,04,05,06,07,08,09,10,11,12,1.0,1.0,1.0*30
$GPRMC,074315.680,A,5703.346,N,00953.582,E,019.4,274.7,191218,000.0,W*78
$GPGGA,074316.680,5703.347,N,00953.572,E,1,12,1.0,0.0,M,0.0,M,,*69
$GPGSA,A,3,01,02,03,04,05,06,07,08,09,10,11,12,1.0,1.0,1.0*30
$GPRMC,074316.680,A,5703.347,N,00953.572,E,023.3,274.7,191218,000.0,W*7B
$GPGGA,074317.680,5703.348,N,00953.560,E,1,12,1.0,0.0,M,0.0,M,,*64
$GPGSA,A,3,01,02,03,04,05,06,07,08,09,10,11,12,1.0,1.0,1.0*30
$GPRMC,074317.680,A,5703.348,N,00953.560,E,023.3,267.3,191218,000.0,W*70
$GPGGA,074318.680,5703.347,N,00953.548,E,1,12,1.0,0.0,M,0.0,M,,*6E
$GPGSA,A,3,01,02,03,04,05,06,07,08,09,10,11,12,1.0,1.0,1.0*30
$GPRMC,074318.680,A,5703.347,N,00953.548,E,023.3,267.3,191218,000.0,W*7A
$GPGGA,074319.680,5703.347,N,00953.536,E,1,12,1.0,0.0,M,0.0,M,,*66
$GPGSA,A,3,01,02,03,04,05,06,07,08,09,10,11,12,1.0,1.0,1.0*30
$GPRMC,074319.680,A,5703.347,N,00953.536,E,023.3,258.2,191218,000.0,W*7F
$GPGGA,074320.680,5703.345,N,00953.525,E,1,12,1.0,0.0,M,0.0,M,,*6C
$GPGSA,A,3,01,02,03,04,05,06,07,08,09,10,11,12,1.0,1.0,1.0*30
$GPRMC,074320.680,A,5703.345,N,00953.525,E,027.2,261.6,191218,000.0,W*7E
$GPGGA,074321.680,5703.343,N,00953.512,E,1,12,1.0,0.0,M,0.0,M,,*6F
$GPGSA,A,3,01,02,03,04,05,06,07,08,09,10,11,12,1.0,1.0,1.0*30
$GPRMC,074321.680,A,5703.343,N,00953.512,E,027.2,262.6,191218,000.0,W*7E
$GPGGA,074322.680,5703.341,N,00953.498,E,1,12,1.0,0.0,M,0.0,M,,*6D
$GPGSA,A,3,01,02,03,04,05,06,07,08,09,10,11,12,1.0,1.0,1.0*30
$GPRMC,074322.680,A,5703.341,N,00953.498,E,025.3,261.5,191218,000.0,W*7F
$GPGGA,074323.680,5703.339,N,00953.486,E,1,12,1.0,0.0,M,0.0,M,,*6C
$GPGSA,A,3,01,02,03,04,05,06,07,08,09,10,11,12,1.0,1.0,1.0*30
$GPRMC,074323.680,A,5703.339,N,00953.486,E,023.3,267.0,191218,000.0,W*7B
$GPGGA,074324.680,5703.338,N,00953.474,E,1,12,1.0,0.0,M,0.0,M,,*67
$GPGSA,A,3,01,02,03,04,05,06,07,08,09,10,11,12,1.0,1.0,1.0*30
$GPRMC,074324.680,A,5703.338,N,00953.474,E,023.3,260.6,191218,000.0,W*71
$GPGGA,074325.680,5703.336,N,00953.462,E,1,12,1.0,0.0,M,0.0,M,,*6F
$GPGSA,A,3,01,02,03,04,05,06,07,08,09,10,11,12,1.0,1.0,1.0*30
$GPRMC,074325.680,A,5703.336,N,00953.462,E,029.2,266.7,191218,000.0,W*75
$GPGGA,074326.680,5703.336,N,00953.448,E,1,12,1.0,0.0,M,0.0,M,,*64
$GPGSA,A,3,01,02,03,04,05,06,07,08,09,10,11,12,1.0,1.0,1.0*30
$GPRMC,074326.680,A,5703.336,N,00953.448,E,033.0,268.2,191218,000.0,W*7C
$GPGGA,074327.680,5703.335,N,00953.431,E,1,12,1.0,0.0,M,0.0,M,,*68
$GPGSA,A,3,01,02,03,04,05,06,07,08,09,10,11,12,1.0,1.0,1.0*30
$GPRMC,074327.680,A,5703.335,N,00953.431,E,033.0,262.5,191218,000.0,W*7D
$GPGGA,074328.680,5703.333,N,00953.414,E,1,12,1.0,0.0,M,0.0,M,,*66
$GPGSA,A,3,01,02,03,04,05,06,07,08,09,10,11,12,1.0,1.0,1.0*30
$GPRMC,074328.680,A,5703.333,N,00953.414,E,033.0,261.0,191218,000.0,W*75
$GPGGA,074329.680,5703.330,N,00953.398,E,1,12,1.0,0.0,M,0.0,M,,*67
$GPGSA,A,3,01,02,03,04,05,06,07,08,09,10,11,12,1.0,1.0,1.0*30
$GPRMC,074329.680,A,5703.330,N,00953.398,E,033.0,262.5,191218,000.0,W*72
$GPGGA,074330.680,5703.328,N,00953.382,E,1,12,1.0,0.0,M,0.0,M,,*6D
$GPGSA,A,3,01,02,03,04,05,06,07,08,09,10,11,12,1.0,1.0,1.0*30
$GPRMC,074330.680,A,5703.328,N,00953.382,E,033.0,263.5,191218,000.0,W*79
$GPGGA,074331.680,5703.326,N,00953.365,E,1,12,1.0,0.0,M,0.0,M,,*6B
$GPGSA,A,3,01,02,03,04,05,06,07,08,09,10,11,12,1.0,1.0,1.0*30
$GPRMC,074331.680,A,5703.326,N,00953.365,E,033.0,263.5,191218,000.0,W*7F
$GPGGA,074332.680,5703.325,N,00953.349,E,1,12,1.0,0.0,M,0.0,M,,*65
$GPGSA,A,3,01,02,03,04,05,06,07,08,09,10,11,12,1.0,1.0,1.0*30
$GPRMC,074332.680,A,5703.325,N,00953.349,E,031.1,265.1,191218,000.0,W*70
$GPGGA,074333.680,5703.323,N,00953.333,E,1,12,1.0,0.0,M,0.0,M,,*6F
$GPGSA,A,3,01,02,03,04,05,06,07,08,09,10,11,12,1.0,1.0,1.0*30
$GPRMC,074333.680,A,5703.323,N,00953.333,E,031.1,265.1,191218,000.0,W*7A
$GPGGA,074334.680,5703.322,N,00953.317,E,1,12,1.0,0.0,M,0.0,M,,*6F
$GPGSA,A,3,01,02,03,04,05,06,07,08,09,10,11,12,1.0,1.0,1.0*30
$GPRMC,074334.680,A,5703.322,N,00953.317,E,036.9,264.6,191218,000.0,W*73
$GPGGA,074335.680,5703.320,N,00953.299,E,1,12,1.0,0.0,M,0.0,M,,*6B
$GPGSA,A,3,01,02,03,04,05,06,07,08,09,10,11,12,1.0,1.0,1.0*30
$GPRMC,074335.680,A,5703.320,N,00953.299,E,031.1,265.6,191218,000.0,W*79
$GPGGA,074336.680,5703.319,N,00953.283,E,1,12,1.0,0.0,M,0.0,M,,*69
$GPGSA,A,3,01,02,03,04,05,06,07,08,09,10,11,12,1.0,1.0,1.0*30
$GPRMC,074336.680,A,5703.319,N,00953.283,E,031.1,265.6,191218,000.0,W*7B
$GPGGA,074337.680,5703.318,N,00953.267,E,1,12,1.0,0.0,M,0.0,M,,*63
$GPGSA,A,3,01,02,03,04,05,06,07,08,09,10,11,12,1.0,1.0,1.0*30
$GPRMC,074337.680,A,5703.318,N,00953.267,E,033.0,263.5,191218,000.0,W*77
$GPGGA,074338.680,5703.316,N,00953.251,E,1,12,1.0,0.0,M,0.0,M,,*67
$GPGSA,A,3,01,02,03,04,05,06,07,08,09,10,11,12,1.0,1.0,1.0*30
$GPRMC,074338.680,A,5703.316,N,00953.251,E,033.0,263.5,191218,000.0,W*73
$GPGGA,074339.680,5703.314,N,00953.234,E,1,12,1.0,0.0,M,0.0,M,,*67
$GPGSA,A,3,01,02,03,04,05,06,07,08,09,10,11,12,1.0,1.0,1.0*30
$GPRMC,074339.680,A,5703.314,N,00953.234,E,033.0,263.3,191218,000.0,W*75
$GPGGA,074340.680,5703.312,N,00953.218,E,1,12,1.0,0.0,M,0.0,M,,*61
$GPGSA,A,3,01,02,03,04,05,06,07,08,09,10,11,12,1.0,1.0,1.0*30
$GPRMC,074340.680,A,5703.312,N,00953.218,E,029.2,265.6,191218,000.0,W*79
$GPGGA,074341.680,5703.311,N,00953.203,E,1,12,1.0,0.0,M,0.0,M,,*69
$GPGSA,A,3,01,02,03,04,05,06,07,08,09,10,11,12,1.0,1.0,1.0*30
$GPRMC,074341.680,A,5703.311,N,00953.203,E,027.2,265.1,191218,000.0,W*78
$GPGGA,074342.680,5703.310,N,00953.189,E,1,12,1.0,0.0,M,0.0,M,,*6A
$GPGSA,A,3,01,02,03,04,05,06,07,08,09,10,11,12,1.0,1.0,1.0*30
$GPRMC,074342.680,A,5703.310,N,00953.189,E,027.2,263.0,191218,000.0,W*7C
$GPGGA,074343.680,5703.308,N,00953.176,E,1,12,1.0,0.0,M,0.0,M,,*62
$GPGSA,A,3,01,02,03,04,05,06,07,08,09,10,11,12,1.0,1.0,1.0*30
$GPRMC,074343.680,A,5703.308,N,00953.176,E,025.3,264.0,191218,000.0,W*70
$GPGGA,074344.680,5703.307,N,00953.163,E,1,12,1.0,0.0,M,0.0,M,,*6E
$GPGSA,A,3,01,02,03,04,05,06,07,08,09,10,11,12,1.0,1.0,1.0*30
$GPRMC,074344.680,A,5703.307,N,00953.163,E,027.2,266.6,191218,000.0,W*7B
$GPGGA,074345.680,5703.306,N,00953.149,E,1,12,1.0,0.0,M,0.0,M,,*66
$GPGSA,A,3,01,02,03,04,05,06,07,08,09,10,11,12,1.0,1.0,1.0*30
$GPRMC,074345.680,A,5703.306,N,00953.149,E,027.2,266.6,191218,000.0,W*73
$GPGGA,074346.680,5703.305,N,00953.136,E,1,12,1.0,0.0,M,0.0,M,,*6E
$GPGSA,A,3,01,02,03,04,05,06,07,08,09,10,11,12,1.0,1.0,1.0*30
$GPRMC,074346.680,A,5703.305,N,00953.136,E,027.2,263.6,191218,000.0,W*7E
$GPGGA,074347.680,5703.304,N,00953.122,E,1,12,1.0,0.0,M,0.0,M,,*6B
$GPGSA,A,3,01,02,03,04,05,06,07,08,09,10,11,12,1.0,1.0,1.0*30
$GPRMC,074347.680,A,5703.304,N,00953.122,E,027.2,263.6,191218,000.0,W*7B
$GPGGA,074348.680,5703.302,N,00953.108,E,1,12,1.0,0.0,M,0.0,M,,*6A
$GPGSA,A,3,01,02,03,04,05,06,07,08,09,10,11,12,1.0,1.0,1.0*30
$GPRMC,074348.680,A,5703.302,N,00953.108,E,027.2,263.6,191218,000.0,W*7A
$GPGGA,074349.680,5703.301,N,00953.095,E,1,12,1.0,0.0,M,0.0,M,,*6D
$GPGSA,A,3,01,02,03,04,05,06,07,08,09,10,11,12,1.0,1.0,1.0*30
$GPRMC,074349.680,A,5703.301,N,00953.095,E,025.3,262.6,191218,000.0,W*7F
$GPGGA,074350.680,5703.299,N,00953.082,E,1,12,1.0,0.0,M,0.0,M,,*63
$GPGSA,A,3,01,02,03,04,05,06,07,08,09,10,11,12,1.0,1.0,1.0*30
$GPRMC,074350.680,A,5703.299,N,00953.082,E,023.3,265.3,191218,000.0,W*75
$GPGGA,074351.680,5703.298,N,00953.070,E,1,12,1.0,0.0,M,0.0,M,,*6E
$GPGSA,A,3,01,02,03,04,05,06,07,08,09,10,11,12,1.0,1.0,1.0*30
$GPRMC,074351.680,A,5703.298,N,00953.070,E,023.3,259.3,191218,000.0,W*77
$GPGGA,074352.680,5703.296,N,00953.059,E,1,12,1.0,0.0,M,0.0,M,,*68
$GPGSA,A,3,01,02,03,04,05,06,07,08,09,10,11,12,1.0,1.0,1.0*30
$GPRMC,074352.680,A,5703.296,N,00953.059,E,025.3,266.3,191218,000.0,W*7B
$GPGGA,074353.680,5703.295,N,00953.046,E,1,12,1.0,0.0,M,0.0,M,,*64
$GPGSA,A,3,01,02,03,04,05,06,07,08,09,10,11,12,1.0,1.0,1.0*30
$GPRMC,074353.680,A,5703.295,N,00953.046,E,019.4,264.9,191218,000.0,W*77
$GPGGA,074354.680,5703.294,N,00953.037,E,1,12,1.0,0.0,M,0.0,M,,*64
$GPGSA,A,3,01,02,03,04,05,06,07,08,09,10,11,12,1.0,1.0,1.0*30
$GPRMC,074354.680,A,5703.294,N,00953.037,E,019.4,264.9,191218,000.0,W*77
$GPGGA,074355.680,5703.293,N,00953.027,E,1,12,1.0,0.0,M,0.0,M,,*63
$GPGSA,A,3,01,02,03,04,05,06,07,08,09,10,11,12,1.0,1.0,1.0*30
$GPRMC,074355.680,A,5703.293,N,00953.027,E,021.4,263.8,191218,000.0,W*7D
$GPGGA,074356.680,5703.292,N,00953.016,E,1,12,1.0,0.0,M,0.0,M,,*63
$GPGSA,A,3,01,02,03,04,05,06,07,08,09,10,11,12,1.0,1.0,1.0*30
$GPRMC,074356.680,A,5703.292,N,00953.016,E,025.3,264.8,191218,000.0,W*79
$GPGGA,074357.680,5703.291,N,00953.003,E,1,12,1.0,0.0,M,0.0,M,,*65
$GPGSA,A,3,01,02,03,04,05,06,07,08,09,10,11,12,1.0,1.0,1.0*30
$GPRMC,074357.680,A,5703.291,N,00953.003,E,027.2,264.2,191218,000.0,W*76
$GPGGA,074358.680,5703.290,N,00952.990,E,1,12,1.0,0.0,M,0.0,M,,*69
$GPGSA,A,3,01,02,03,04,05,06,07,08,09,10,11,12,1.0,1.0,1.0*30
$GPRMC,074358.680,A,5703.290,N,00952.990,E,027.2,263.1,191218,000.0,W*7E
$GPGGA,074359.680,5703.288,N,00952.976,E,1,12,1.0,0.0,M,0.0,M,,*69
$GPGSA,A,3,01,02,03,04,05,06,07,08,09,10,11,12,1.0,1.0,1.0*30
$GPRMC,074359.680,A,5703.288,N,00952.976,E,027.2,263.1,191218,000.0,W*7E
$GPGGA,074400.680,5703.286,N,00952.963,E,1,12,1.0,0.0,M,0.0,M,,*68
$GPGSA,A,3,01,02,03,04,05,06,07,08,09,10,11,12,1.0,1.0,1.0*30
$GPRMC,074400.680,A,5703.286,N,00952.963,E,029.2,265.4,191218,000.0,W*72
$GPGGA,074401.680,5703.285,N,00952.948,E,1,12,1.0,0.0,M,0.0,M,,*63
$GPGSA,A,3,01,02,03,04,05,06,07,08,09,10,11,12,1.0,1.0,1.0*30
$GPRMC,074401.680,A,5703.285,N,00952.948,E,025.3,262.5,191218,000.0,W*72
$GPGGA,074402.680,5703.283,N,00952.935,E,1,12,1.0,0.0,M,0.0,M,,*6C
$GPGSA,A,3,01,02,03,04,05,06,07,08,09,10,11,12,1.0,1.0,1.0*30
$GPRMC,074402.680,A,5703.283,N,00952.935,E,025.3,262.5,191218,000.0,W*7D
$GPGGA,074403.680,5703.282,N,00952.923,E,1,12,1.0,0.0,M,0.0,M,,*6B
$GPGSA,A,3,01,02,03,04,05,06,07,08,09,10,11,12,1.0,1.0,1.0*30
$GPRMC,074403.680,A,5703.282,N,00952.923,E,025.3,266.7,191218,000.0,W*7C
$GPGGA,074404.680,5703.281,N,00952.910,E,1,12,1.0,0.0,M,0.0,M,,*6F
$GPGSA,A,3,01,02,03,04,05,06,07,08,09,10,11,12,1.0,1.0,1.0*30
$GPRMC,074404.680,A,5703.281,N,00952.910,E,025.3,264.0,191218,000.0,W*7D
$GPGGA,074405.680,5703.280,N,00952.897,E,1,12,1.0,0.0,M,0.0,M,,*61
$GPGSA,A,3,01,02,03,04,05,06,07,08,09,10,11,12,1.0,1.0,1.0*30
$GPRMC,074405.680,A,5703.280,N,00952.897,E,025.3,264.0,191218,000.0,W*73
$GPGGA,074406.680,5703.278,N,00952.885,E,1,12,1.0,0.0,M,0.0,M,,*66
$GPGSA,A,3,01,02,03,04,05,06,07,08,09,10,11,12,1.0,1.0,1.0*30
$GPRMC,074406.680,A,5703.278,N,00952.885,E,025.3,264.0,191218,000.0,W*74
$GPGGA,074407.680,5703.277,N,00952.872,E,1,12,1.0,0.0,M,0.0,M,,*60
$GPGSA,A,3,01,02,03,04,05,06,07,08,09,10,11,12,1.0,1.0,1.0*30
$GPRMC,074407.680,A,5703.277,N,00952.872,E,025.3,264.0,191218,000.0,W*72
$GPGGA,074408.680,5703.276,N,00952.859,E,1,12,1.0,0.0,M,0.0,M,,*67
$GPGSA,A,3,01,02,03,04,05,06,07,08,09,10,11,12,1.0,1.0,1.0*30
$GPRMC,074408.680,A,5703.276,N,00952.859,E,025.3,264.0,191218,000.0,W*75
$GPGGA,074409.680,5703.274,N,00952.847,E,1,12,1.0,0.0,M,0.0,M,,*6B
$GPGSA,A,3,01,02,03,04,05,06,07,08,09,10,11,12,1.0,1.0,1.0*30
$GPRMC,074409.680,A,5703.274,N,00952.847,E,025.3,264.0,191218,000.0,W*79
$GPGGA,074410.680,5703.273,N,00952.834,E,1,12,1.0,0.0,M,0.0,M,,*60
$GPGSA,A,3,01,02,03,04,05,06,07,08,09,10,11,12,1.0,1.0,1.0*30
$GPRMC,074410.680,A,5703.273,N,00952.834,E,025.3,264.0,191218,000.0,W*72
$GPGGA,074411.680,5703.272,N,00952.821,E,1,12,1.0,0.0,M,0.0,M,,*64
$GPGSA,A,3,01,02,03,04,05,06,07,08,09,10,11,12,1.0,1.0,1.0*30
$GPRMC,074411.680,A,5703.272,N,00952.821,E,025.3,264.0,191218,000.0,W*76
$GPGGA,074412.680,5703.270,N,00952.809,E,1,12,1.0,0.0,M,0.0,M,,*6F
$GPGSA,A,3,01,02,03,04,05,06,07,08,09,10,11,12,1.0,1.0,1.0*30
$GPRMC,074412.680,A,5703.270,N,00952.809,E,025.3,264.0,191218,000.0,W*7D
$GPGGA,074413.680,5703.269,N,00952.796,E,1,12,1.0,0.0,M,0.0,M,,*6F
$GPGSA,A,3,01,02,03,04,05,06,07,08,09,10,11,12,1.0,1.0,1.0*30
$GPRMC,074413.680,A,5703.269,N,00952.796,E,025.3,264.0,191218,000.0,W*7D
$GPGGA,074414.680,5703.268,N,00952.783,E,1,12,1.0,0.0,M,0.0,M,,*6D
$GPGSA,A,3,01,02,03,04,05,06,07,08,09,10,11,12,1.0,1.0,1.0*30
$GPRMC,074414.680,A,5703.268,N,00952.783,E,025.3,264.0,191218,000.0,W*7F
$GPGGA,074415.680,5703.266,N,00952.771,E,1,12,1.0,0.0,M,0.0,M,,*6F
$GPGSA,A,3,01,02,03,04,05,06,07,08,09,10,11,12,1.0,1.0,1.0*30
$GPRMC,074415.680,A,5703.266,N,00952.771,E,025.3,264.0,191218,000.0,W*7D
$GPGGA,074416.680,5703.265,N,00952.758,E,1,12,1.0,0.0,M,0.0,M,,*64
$GPGSA,A,3,01,02,03,04,05,06,07,08,09,10,11,12,1.0,1.0,1.0*30
$GPRMC,074416.680,A,5703.265,N,00952.758,E,025.3,264.0,191218,000.0,W*76
$GPGGA,074417.680,5703.264,N,00952.745,E,1,12,1.0,0.0,M,0.0,M,,*68
$GPGSA,A,3,01,02,03,04,05,06,07,08,09,10,11,12,1.0,1.0,1.0*30
$GPRMC,074417.680,A,5703.264,N,00952.745,E,025.3,264.0,191218,000.0,W*7A
$GPGGA,074418.680,5703.262,N,00952.733,E,1,12,1.0,0.0,M,0.0,M,,*60
$GPGSA,A,3,01,02,03,04,05,06,07,08,09,10,11,12,1.0,1.0,1.0*30
$GPRMC,074418.680,A,5703.262,N,00952.733,E,025.3,264.0,191218,000.0,W*72
$GPGGA,074419.680,5703.261,N,00952.720,E,1,12,1.0,0.0,M,0.0,M,,*60
$GPGSA,A,3,01,02,03,04,05,06,07,08,09,10,11,12,1.0,1.0,1.0*30
$GPRMC,074419.680,A,5703.261,N,00952.720,E,025.3,264.0,191218,000.0,W*72
$GPGGA,074420.680,5703.260,N,00952.707,E,1,12,1.0,0.0,M,0.0,M,,*6E
$GPGSA,A,3,01,02,03,04,05,06,07,08,09,10,11,12,1.0,1.0,1.0*30
$GPRMC,074420.680,A,5703.260,N,00952.707,E,025.3,264.0,191218,000.0,W*7C
$GPGGA,074421.680,5703.258,N,00952.695,E,1,12,1.0,0.0,M,0.0,M,,*6E
$GPGSA,A,3,01,02,03,04,05,06,07,08,09,10,11,12,1.0,1.0,1.0*30
$GPRMC,074421.680,A,5703.258,N,00952.695,E,025.3,264.0,191218,000.0,W*7C
$GPGGA,074422.680,5703.257,N,00952.682,E,1,12,1.0,0.0,M,0.0,M,,*64
$GPGSA,A,3,01,02,03,04,05,06,07,08,09,10,11,12,1.0,1.0,1.0*30
$GPRMC,074422.680,A,5703.257,N,00952.682,E,023.3,261.1,191218,000.0,W*74
$GPGGA,074423.680,5703.255,N,00952.671,E,1,12,1.0,0.0,M,0.0,M,,*6B
$GPGSA,A,3,01,02,03,04,05,06,07,08,09,10,11,12,1.0,1.0,1.0*30
$GPRMC,074423.680,A,5703.255,N,00952.671,E,023.3,261.1,191218,000.0,W*7B
$GPGGA,074424.680,5703.253,N,00952.659,E,1,12,1.0,0.0,M,0.0,M,,*60
$GPGSA,A,3,01,02,03,04,05,06,07,08,09,10,11,12,1.0,1.0,1.0*30
$GPRMC,074424.680,A,5703.253,N,00952.659,E,023.3,261.1,191218,000.0,W*70
$GPGGA,074425.680,5703.252,N,00952.648,E,1,12,1.0,0.0,M,0.0,M,,*60
$GPGSA,A,3,01,02,03,04,05,06,07,08,09,10,11,12,1.0,1.0,1.0*30
$GPRMC,074425.680,A,5703.252,N,00952.648,E,023.3,261.1,191218,000.0,W*70
$GPGGA,074426.680,5703.250,N,00952.636,E,1,12,1.0,0.0,M,0.0,M,,*68
$GPGSA,A,3,01,02,03,04,05,06,07,08,09,10,11,12,1.0,1.0,1.0*30
$GPRMC,074426.680,A,5703.250,N,00952.636,E,023.3,261.1,191218,000.0,W*78
$GPGGA,074427.680,5703.248,N,00952.625,E,1,12,1.0,0.0,M,0.0,M,,*62
$GPGSA,A,3,01,02,03,04,05,06,07,08,09,10,11,12,1.0,1.0,1.0*30
$GPRMC,074427.680,A,5703.248,N,00952.625,E,023.3,261.1,191218,000.0,W*72
$GPGGA,074428.680,5703.246,N,00952.613,E,1,12,1.0,0.0,M,0.0,M,,*66
$GPGSA,A,3,01,02,03,04,05,06,07,08,09,10,11,12,1.0,1.0,1.0*30
$GPRMC,074428.680,A,5703.246,N,00952.613,E,023.3,261.1,191218,000.0,W*76
$GPGGA,074429.680,5703.245,N,00952.602,E,1,12,1.0,0.0,M,0.0,M,,*64
$GPGSA,A,3,01,02,03,04,05,06,07,08,09,10,11,12,1.0,1.0,1.0*30
$GPRMC,074429.680,A,5703.245,N,00952.602,E,023.3,261.1,191218,000.0,W*74
$GPGGA,074430.680,5703.243,N,00952.591,E,1,12,1.0,0.0,M,0.0,M,,*63
$GPGSA,A,3,01,02,03,04,05,06,07,08,09,10,11,12,1.0,1.0,1.0*30
$GPRMC,074430.680,A,5703.243,N,00952.591,E,023.3,261.1,191218,000.0,W*73
$GPGGA,074431.680,5703.241,N,00952.579,E,1,12,1.0,0.0,M,0.0,M,,*66
$GPGSA,A,3,01,02,03,04,05,06,07,08,09,10,11,12,1.0,1.0,1.0*30
$GPRMC,074431.680,A,5703.241,N,00952.579,E,021.4,246.2,191218,000.0,W*75
$GPGGA,074432.680,5703.237,N,00952.571,E,1,12,1.0,0.0,M,0.0,M,,*6C
$GPGSA,A,3,01,02,03,04,05,06,07,08,09,10,11,12,1.0,1.0,1.0*30
$GPRMC,074432.680,A,5703.237,N,00952.571,E,021.4,246.2,191218,000.0,W*7F
$GPGGA,074433.680,5703.234,N,00952.562,E,1,12,1.0,0.0,M,0.0,M,,*6C
$GPGSA,A,3,01,02,03,04,05,06,07,08,09,10,11,12,1.0,1.0,1.0*30
$GPRMC,074433.680,A,5703.234,N,00952.562,E,021.4,246.2,191218,000.0,W*7F
$GPGGA,074434.680,5703.230,N,00952.554,E,1,12,1.0,0.0,M,0.0,M,,*6A
$GPGSA,A,3,01,02,03,04,05,06,07,08,09,10,11,12,1.0,1.0,1.0*30
$GPRMC,074434.680,A,5703.230,N,00952.554,E,021.4,246.2,191218,000.0,W*79
$GPGGA,074435.680,5703.226,N,00952.545,E,1,12,1.0,0.0,M,0.0,M,,*6C
$GPGSA,A,3,01,02,03,04,05,06,07,08,09,10,11,12,1.0,1.0,1.0*30
$GPRMC,074435.680,A,5703.226,N,00952.545,E,027.2,240.5,191218,000.0,W*7E
$GPGGA,074436.680,5703.221,N,00952.535,E,1,12,1.0,0.0,M,0.0,M,,*6F
$GPGSA,A,3,01,02,03,04,05,06,07,08,09,10,11,12,1.0,1.0,1.0*30
$GPRMC,074436.680,A,5703.221,N,00952.535,E,027.2,240.5,191218,000.0,W*7D
$GPGGA,074437.680,5703.215,N,00952.526,E,1,12,1.0,0.0,M,0.0,M,,*6B
$GPGSA,A,3,01,02,03,04,05,06,07,08,09,10,11,12,1.0,1.0,1.0*30
$GPRMC,074437.680,A,5703.215,N,00952.526,E,027.2,240.5,191218,000.0,W*79
$GPGGA,074438.680,5703.210,N,00952.516,E,1,12,1.0,0.0,M,0.0,M,,*62
$GPGSA,A,3,01,02,03,04,05,06,07,08,09,10,11,12,1.0,1.0,1.0*30
$GPRMC,074438.680,A,5703.210,N,00952.516,E,027.2,240.5,191218,000.0,W*70
$GPGGA,074439.680,5703.204,N,00952.506,E,1,12,1.0,0.0,M,0.0,M,,*67
$GPGSA,A,3,01,02,03,04,05,06,07,08,09,10,11,12,1.0,1.0,1.0*30
$GPRMC,074439.680,A,5703.204,N,00952.506,E,027.2,240.5,191218,000.0,W*75
$GPGGA,074440.680,5703.199,N,00952.497,E,1,12,1.0,0.0,M,0.0,M,,*67
$GPGSA,A,3,01,02,03,04,05,06,07,08,09,10,11,12,1.0,1.0,1.0*30
$GPRMC,074440.680,A,5703.199,N,00952.497,E,027.2,240.5,191218,000.0,W*75
$GPGGA,074441.680,5703.194,N,00952.487,E,1,12,1.0,0.0,M,0.0,M,,*6A
$GPGSA,A,3,01,02,03,04,05,06,07,08,09,10,11,12,1.0,1.0,1.0*30
$GPRMC,074441.680,A,5703.194,N,00952.487,E,027.2,240.5,191218,000.0,W*78
$GPGGA,074442.680,5703.188,N,00952.478,E,1,12,1.0,0.0,M,0.0,M,,*64
$GPGSA,A,3,01,02,03,04,05,06,07,08,09,10,11,12,1.0,1.0,1.0*30
$GPRMC,074442.680,A,5703.188,N,00952.478,E,027.2,240.5,191218,000.0,W*76
$GPGGA,074443.680,5703.183,N,00952.468,E,1,12,1.0,0.0,M,0.0,M,,*6F
$GPGSA,A,3,01,02,03,04,05,06,07,08,09,10,11,12,1.0,1.0,1.0*30
$GPRMC,074443.680,A,5703.183,N,00952.468,E,027.2,240.5,191218,000.0,W*7D
$GPGGA,074444.680,5703.177,N,00952.458,E,1,12,1.0,0.0,M,0.0,M,,*60
$GPGSA,A,3,01,02,03,04,05,06,07,08,09,10,11,12,1.0,1.0,1.0*30
$GPRMC,074444.680,A,5703.177,N,00952.458,E,027.2,240.5,191218,000.0,W*72
$GPGGA,074445.680,5703.172,N,00952.449,E,1,12,1.0,0.0,M,0.0,M,,*64
$GPGSA,A,3,01,02,03,04,05,06,07,08,09,10,11,12,1.0,1.0,1.0*30
$GPRMC,074445.680,A,5703.172,N,00952.449,E,021.4,245.1,191218,000.0,W*77
$GPGGA,074446.680,5703.168,N,00952.440,E,1,12,1.0,0.0,M,0.0,M,,*65
$GPGSA,A,3,01,02,03,04,05,06,07,08,09,10,11,12,1.0,1.0,1.0*30
$GPRMC,074446.680,A,5703.168,N,00952.440,E,021.4,245.1,191218,000.0,W*76
$GPGGA,074447.680,5703.164,N,00952.432,E,1,12,1.0,0.0,M,0.0,M,,*6D
$GPGSA,A,3,01,02,03,04,05,06,07,08,09,10,11,12,1.0,1.0,1.0*30
$GPRMC,074447.680,A,5703.164,N,00952.432,E,021.4,245.1,191218,000.0,W*7E
$GPGGA,074448.680,5703.160,N,00952.424,E,1,12,1.0,0.0,M,0.0,M,,*61
$GPGSA,A,3,01,02,03,04,05,06,07,08,09,10,11,12,1.0,1.0,1.0*30
$GPRMC,074448.680,A,5703.160,N,00952.424,E,021.4,245.1,191218,000.0,W*72
$GPGGA,074449.680,5703.156,N,00952.415,E,1,12,1.0,0.0,M,0.0,M,,*67
$GPGSA,A,3,01,02,03,04,05,06,07,08,09,10,11,12,1.0,1.0,1.0*30
$GPRMC,074449.680,A,5703.156,N,00952.415,E,021.4,245.1,191218,000.0,W*74
$GPGGA,074450.680,5703.153,N,00952.407,E,1,12,1.0,0.0,M,0.0,M,,*69
$GPGSA,A,3,01,02,03,04,05,06,07,08,09,10,11,12,1.0,1.0,1.0*30
$GPRMC,074450.680,A,5703.153,N,00952.407,E,017.5,206.0,191218,000.0,W*78
$GPGGA,074451.680,5703.148,N,00952.405,E,1,12,1.0,0.0,M,0.0,M,,*60
$GPGSA,A,3,01,02,03,04,05,06,07,08,09,10,11,12,1.0,1.0,1.0*30
$GPRMC,074451.680,A,5703.148,N,00952.405,E,017.5,206.0,191218,000.0,W*71
$GPGGA,074452.680,5703.143,N,00952.402,E,1,12,1.0,0.0,M,0.0,M,,*6F
$GPGSA,A,3,01,02,03,04,05,06,07,08,09,10,11,12,1.0,1.0,1.0*30
$GPRMC,074452.680,A,5703.143,N,00952.402,E,009.7,158.7,191218,000.0,W*7C
$GPGGA,074453.680,5703.141,N,00952.403,E,1,12,1.0,0.0,M,0.0,M,,*6D
$GPGSA,A,3,01,02,03,04,05,06,07,08,09,10,11,12,1.0,1.0,1.0*30
$GPRMC,074453.680,A,5703.141,N,00952.403,E,009.7,158.7,191218,000.0,W*7E
$GPGGA,074454.680,5703.138,N,00952.404,E,1,12,1.0,0.0,M,0.0,M,,*63
$GPGSA,A,3,01,02,03,04,05,06,07,08,09,10,11,12,1.0,1.0,1.0*30
$GPRMC,074454.680,A,5703.138,N,00952.404,E,009.7,158.7,191218,000.0,W*70
$GPGGA,074455.680,5703.135,N,00952.405,E,1,12,1.0,0.0,M,0.0,M,,*6E
$GPGSA,A,3,01,02,03,04,05,06,07,08,09,10,11,12,1.0,1.0,1.0*30
$GPRMC,074455.680,A,5703.135,N,00952.405,E,013.6,157.2,191218,000.0,W*7D
$GPGGA,074456.680,5703.132,N,00952.407,E,1,12,1.0,0.0,M,0.0,M,,*68
$GPGSA,A,3,01,02,03,04,05,06,07,08,09,10,11,12,1.0,1.0,1.0*30
$GPRMC,074456.680,A,5703.132,N,00952.407,E,013.6,157.2,191218,000.0,W*7B
$GPGGA,074457.680,5703.128,N,00952.409,E,1,12,1.0,0.0,M,0.0,M,,*6C
$GPGSA,A,3,01,02,03,04,05,06,07,08,09,10,11,12,1.0,1.0,1.0*30
$GPRMC,074457.680,A,5703.128,N,00952.409,E,017.5,157.1,191218,000.0,W*7B
$GPGGA,074458.680,5703.123,N,00952.411,E,1,12,1.0,0.0,M,0.0,M,,*61
$GPGSA,A,3,01,02,03,04,05,06,07,08,09,10,11,12,1.0,1.0,1.0*30
$GPRMC,074458.680,A,5703.123,N,00952.411,E,017.5,157.1,191218,000.0,W*76
$GPGGA,074459.680,5703.118,N,00952.413,E,1,12,1.0,0.0,M,0.0,M,,*6A
$GPGSA,A,3,01,02,03,04,05,06,07,08,09,10,11,12,1.0,1.0,1.0*30
$GPRMC,074459.680,A,5703.118,N,00952.413,E,023.3,141.3,191218,000.0,W*79
$GPGGA,074500.680,5703.113,N,00952.417,E,1,12,1.0,0.0,M,0.0,M,,*68
$GPGSA,A,3,01,02,03,04,05,06,07,08,09,10,11,12,1.0,1.0,1.0*30
$GPRMC,074500.680,A,5703.113,N,00952.417,E,023.3,141.3,191218,000.0,W*7B
$GPGGA,074501.680,5703.107,N,00952.422,E,1,12,1.0,0.0,M,0.0,M,,*6A
$GPGSA,A,3,01,02,03,04,05,06,07,08,09,10,11,12,1.0,1.0,1.0*30
$GPRMC,074501.680,A,5703.107,N,00952.422,E,023.3,141.3,191218,000.0,W*79
$GPGGA,074502.680,5703.101,N,00952.427,E,1,12,1.0,0.0,M,0.0,M,,*6A
$GPGSA,A,3,01,02,03,04,05,06,07,08,09,10,11,12,1.0,1.0,1.0*30
$GPRMC,074502.680,A,5703.101,N,00952.427,E,023.3,141.3,191218,000.0,W*79
$GPGGA,074503.680,5703.095,N,00952.432,E,1,12,1.0,0.0,M,0.0,M,,*63
$GPGSA,A,3,01,02,03,04,05,06,07,08,09,10,11,12,1.0,1.0,1.0*30
$GPRMC,074503.680,A,5703.095,N,00952.432,E,023.3,141.3,191218,000.0,W*70
$GPGGA,074504.680,5703.089,N,00952.436,E,1,12,1.0,0.0,M,0.0,M,,*6D
$GPGSA,A,3,01,02,03,04,05,06,07,08,09,10,11,12,1.0,1.0,1.0*30
$GPRMC,074504.680,A,5703.089,N,00952.436,E,023.3,141.3,191218,000.0,W*7E
$GPGGA,074505.680,5703.083,N,00952.441,E,1,12,1.0,0.0,M,0.0,M,,*66
$GPGSA,A,3,01,02,03,04,05,06,07,08,09,10,11,12,1.0,1.0,1.0*30
$GPRMC,074505.680,A,5703.083,N,00952.441,E,023.3,141.3,191218,000.0,W*75
$GPGGA,074506.680,5703.077,N,00952.446,E,1,12,1.0,0.0,M,0.0,M,,*69
$GPGSA,A,3,01,02,03,04,05,06,07,08,09,10,11,12,1.0,1.0,1.0*30
$GPRMC,074506.680,A,5703.077,N,00952.446,E,023.3,141.3,191218,000.0,W*7A
$GPGGA,074507.680,5703.071,N,00952.451,E,1,12,1.0,0.0,M,0.0,M,,*68
$GPGSA,A,3,01,02,03,04,05,06,07,08,09,10,11,12,1.0,1.0,1.0*30
$GPRMC,074507.680,A,5703.071,N,00952.451,E,023.3,141.3,191218,000.0,W*7B
$GPGGA,074508.680,5703.065,N,00952.456,E,1,12,1.0,0.0,M,0.0,M,,*65
$GPGSA,A,3,01,02,03,04,05,06,07,08,09,10,11,12,1.0,1.0,1.0*30
$GPRMC,074508.680,A,5703.065,N,00952.456,E,023.3,141.3,191218,000.0,W*76
$GPGGA,074509.680,5703.059,N,00952.460,E,1,12,1.0,0.0,M,0.0,M,,*6E
$GPGSA,A,3,01,02,03,04,05,06,07,08,09,10,11,12,1.0,1.0,1.0*30
$GPRMC,074509.680,A,5703.059,N,00952.460,E,023.3,141.3,191218,000.0,W*7D
$GPGGA,074510.680,5703.053,N,00952.465,E,1,12,1.0,0.0,M,0.0,M,,*69
$GPGSA,A,3,01,02,03,04,05,06,07,08,09,10,11,12,1.0,1.0,1.0*30
$GPRMC,074510.680,A,5703.053,N,00952.465,E,025.3,135.0,191218,000.0,W*7C
$GPGGA,074511.680,5703.047,N,00952.471,E,1,12,1.0,0.0,M,0.0,M,,*68
$GPGSA,A,3,01,02,03,04,05,06,07,08,09,10,11,12,1.0,1.0,1.0*30
$GPRMC,074511.680,A,5703.047,N,00952.471,E,025.3,135.0,191218,000.0,W*7D
$GPGGA,074512.680,5703.041,N,00952.478,E,1,12,1.0,0.0,M,0.0,M,,*64
$GPGSA,A,3,01,02,03,04,05,06,07,08,09,10,11,12,1.0,1.0,1.0*30
$GPRMC,074512.680,A,5703.041,N,00952.478,E,025.3,135.0,191218,000.0,W*71
$GPGGA,074513.680,5703.035,N,00952.484,E,1,12,1.0,0.0,M,0.0,M,,*65
$GPGSA,A,3,01,02,03,04,05,06,07,08,09,10,11,12,1.0,1.0,1.0*30
$GPRMC,074513.680,A,5703.035,N,00952.484,E,019.4,139.1,191218,000.0,W*75
$GPGGA,074514.680,5703.030,N,00952.488,E,1,12,1.0,0.0,M,0.0,M,,*6B
$GPGSA,A,3,01,02,03,04,05,06,07,08,09,10,11,12,1.0,1.0,1.0*30
$GPRMC,074514.680,A,5703.030,N,00952.488,E,019.4,139.1,191218,000.0,W*7B
$GPGGA,074515.680,5703.025,N,00952.492,E,1,12,1.0,0.0,M,0.0,M,,*65
$GPGSA,A,3,01,02,03,04,05,06,07,08,09,10,11,12,1.0,1.0,1.0*30
$GPRMC,074515.680,A,5703.025,N,00952.492,E,019.4,139.1,191218,000.0,W*75
$GPGGA,074516.680,5703.020,N,00952.496,E,1,12,1.0,0.0,M,0.0,M,,*67
$GPGSA,A,3,01,02,03,04,05,06,07,08,09,10,11,12,1.0,1.0,1.0*30
$GPRMC,074516.680,A,5703.020,N,00952.496,E,015.6,144.1,191218,000.0,W*73
$GPGGA,074517.680,5703.016,N,00952.499,E,1,12,1.0,0.0,M,0.0,M,,*6C
$GPGSA,A,3,01,02,03,04,05,06,07,08,09,10,11,12,1.0,1.0,1.0*30
$GPRMC,074517.680,A,5703.016,N,00952.499,E,015.6,144.1,191218,000.0,W*78
$GPGGA,074518.680,5703.012,N,00952.502,E,1,12,1.0,0.0,M,0.0,M,,*64
$GPGSA,A,3,01,02,03,04,05,06,07,08,09,10,11,12,1.0,1.0,1.0*30
$GPRMC,074518.680,A,5703.012,N,00952.502,E,015.6,144.1,191218,000.0,W*70
$GPGGA,074519.680,5703.008,N,00952.505,E,1,12,1.0,0.0,M,0.0,M,,*69
$GPGSA,A,3,01,02,03,04,05,06,07,08,09,10,11,12,1.0,1.0,1.0*30
$GPRMC,074519.680,A,5703.008,N,00952.505,E,015.6,144.1,191218,000.0,W*7D
$GPGGA,074520.680,5703.004,N,00952.508,E,1,12,1.0,0.0,M,0.0,M,,*62
$GPGSA,A,3,01,02,03,04,05,06,07,08,09,10,11,12,1.0,1.0,1.0*30
$GPRMC,074520.680,A,5703.004,N,00952.508,E,015.5,144.1,191218,000.0,W*75
$GPGGA,074521.680,5703.000,N,00952.511,E,1,12,1.0,0.0,M,0.0,M,,*6F
$GPGSA,A,3,01,02,03,04,05,06,07,08,09,10,11,12,1.0,1.0,1.0*30
$GPRMC,074521.680,A,5703.000,N,00952.511,E,015.5,144.1,191218,000.0,W*78
$GPGGA,074522.680,5702.996,N,00952.514,E,1,12,1.0,0.0,M,0.0,M,,*6E
$GPGSA,A,3,01,02,03,04,05,06,07,08,09,10,11,12,1.0,1.0,1.0*30
$GPRMC,074522.680,A,5702.996,N,00952.514,E,001.9,149.0,191218,000.0,W*7C
$GPGGA,074523.680,5702.996,N,00952.514,E,1,12,1.0,0.0,M,0.0,M,,*6F
$GPGSA,A,3,01,02,03,04,05,06,07,08,09,10,11,12,1.0,1.0,1.0*30
$GPRMC,074523.680,A,5702.996,N,00952.514,E,002.0,149.0,191218,000.0,W*77
$GPGGA,074524.680,5702.995,N,00952.515,E,1,12,1.0,0.0,M,0.0,M,,*6A
$GPGSA,A,3,01,02,03,04,05,06,07,08,09,10,11,12,1.0,1.0,1.0*30
$GPRMC,074524.680,A,5702.995,N,00952.515,E,001.9,149.0,191218,000.0,W*78
$GPGGA,074525.680,5702.994,N,00952.515,E,1,12,1.0,0.0,M,0.0,M,,*6A
$GPGSA,A,3,01,02,03,04,05,06,07,08,09,10,11,12,1.0,1.0,1.0*30
$GPRMC,074525.680,A,5702.994,N,00952.515,E,001.9,149.0,191218,000.0,W*78
$GPGGA,074526.680,5702.994,N,00952.515,E,1,12,1.0,0.0,M,0.0,M,,*69
$GPGSA,A,3,01,02,03,04,05,06,07,08,09,10,11,12,1.0,1.0,1.0*30
$GPRMC,074526.680,A,5702.994,N,00952.515,E,001.9,149.0,191218,000.0,W*7B
$GPGGA,074527.680,5702.993,N,00952.516,E,1,12,1.0,0.0,M,0.0,M,,*6C
$GPGSA,A,3,01,02,03,04,05,06,07,08,09,10,11,12,1.0,1.0,1.0*30
$GPRMC,074527.680,A,5702.993,N,00952.516,E,002.0,149.0,191218,000.0,W*74
$GPGGA,074528.680,5702.993,N,00952.516,E,1,12,1.0,0.0,M,0.0,M,,*63
$GPGSA,A,3,01,02,03,04,05,06,07,08,09,10,11,12,1.0,1.0,1.0*30
$GPRMC,074528.680,A,5702.993,N,00952.516,E,002.0,149.0,191218,000.0,W*7B
$GPGGA,074529.680,5702.992,N,00952.516,E,1,12,1.0,0.0,M,0.0,M,,*63
$GPGSA,A,3,01,02,03,04,05,06,07,08,09,10,11,12,1.0,1.0,1.0*30
$GPRMC,074529.680,A,5702.992,N,00952.516,E,001.9,149.0,191218,000.0,W*71
$GPGGA,074530.680,5702.992,N,00952.516,E,1,12,1.0,0.0,M,0.0,M,,*6B
$GPGSA,A,3,01,02,03,04,05,06,07,08,09,10,11,12,1.0,1.0,1.0*30
$GPRMC,074530.680,A,5702.992,N,00952.516,E,002.0,149.0,191218,000.0,W*73
$GPGGA,074531.680,5702.991,N,00952.517,E,1,12,1.0,0.0,M,0.0,M,,*68
$GPGSA,A,3,01,02,03,04,05,06,07,08,09,10,11,12,1.0,1.0,1.0*30
$GPRMC,074531.680,A,5702.991,N,00952.517,E,002.0,149.0,191218,000.0,W*70
$GPGGA,074532.680,5702.991,N,00952.517,E,1,12,1.0,0.0,M,0.0,M,,*6B
$GPGSA,A,3,01,02,03,04,05,06,07,08,09,10,11,12,1.0,1.0,1.0*30
$GPRMC,074532.680,A,5702.991,N,00952.517,E,001.9,149.0,191218,000.0,W*79
$GPGGA,074533.680,5702.990,N,00952.517,E,1,12,1.0,0.0,M,0.0,M,,*6B
$GPGSA,A,3,01,02,03,04,05,06,07,08,09,10,11,12,1.0,1.0,1.0*30
$GPRMC,074533.680,A,5702.990,N,00952.517,E,001.9,149.0,191218,000.0,W*79
$GPGGA,074534.680,5702.990,N,00952.518,E,1,12,1.0,0.0,M,0.0,M,,*63
$GPGSA,A,3,01,02,03,04,05,06,07,08,09,10,11,12,1.0,1.0,1.0*30
$GPRMC,074534.680,A,5702.990,N,00952.518,E,001.9,149.0,191218,000.0,W*71
$GPGGA,074535.680,5702.989,N,00952.518,E,1,12,1.0,0.0,M,0.0,M,,*6A
$GPGSA,A,3,01,02,03,04,05,06,07,08,09,10,11,12,1.0,1.0,1.0*30
$GPRMC,074535.680,A,5702.989,N,00952.518,E,001.9,149.0,191218,000.0,W*78
$GPGGA,074536.680,5702.989,N,00952.518,E,1,12,1.0,0.0,M,0.0,M,,*69
$GPGSA,A,3,01,02,03,04,05,06,07,08,09,10,11,12,1.0,1.0,1.0*30
$GPRMC,074536.680,A,5702.989,N,00952.518,E,001.9,149.0,191218,000.0,W*7B
$GPGGA,074537.680,5702.988,N,00952.519,E,1,12,1.0,0.0,M,0.0,M,,*68
$GPGSA,A,3,01,02,03,04,05,06,07,08,09,10,11,12,1.0,1.0,1.0*30
$GPRMC,074537.680,A,5702.988,N,00952.519,E,011.7,166.5,191218,000.0,W*7D
$GPGGA,074538.680,5702.985,N,00952.519,E,1,12,1.0,0.0,M,0.0,M,,*6A
$GPGSA,A,3,01,02,03,04,05,06,07,08,09,10,11,12,1.0,1.0,1.0*30
$GPRMC,074538.680,A,5702.985,N,00952.519,E,011.7,166.5,191218,000.0,W*7F
$GPGGA,074539.680,5702.982,N,00952.520,E,1,12,1.0,0.0,M,0.0,M,,*66
$GPGSA,A,3,01,02,03,04,05,06,07,08,09,10,11,12,1.0,1.0,1.0*30
$GPRMC,074539.680,A,5702.982,N,00952.520,E,011.7,166.5,191218,000.0,W*73
$GPGGA,074540.680,5702.979,N,00952.521,E,1,12,1.0,0.0,M,0.0,M,,*6D
$GPGSA,A,3,01,02,03,04,05,06,07,08,09,10,11,12,1.0,1.0,1.0*30
$GPRMC,074540.680,A,5702.979,N,00952.521,E,011.7,128.7,191218,000.0,W*70
$GPGGA,074541.680,5702.976,N,00952.524,E,1,12,1.0,0.0,M,0.0,M,,*66
$GPGSA,A,3,01,02,03,04,05,06,07,08,09,10,11,12,1.0,1.0,1.0*30
$GPRMC,074541.680,A,5702.976,N,00952.524,E,011.7,128.7,191218,000.0,W*7B
$GPGGA,074542.680,5702.973,N,00952.528,E,1,12,1.0,0.0,M,0.0,M,,*6C
$GPGSA,A,3,01,02,03,04,05,06,07,08,09,10,11,12,1.0,1.0,1.0*30
$GPRMC,074542.680,A,5702.973,N,00952.528,E,017.5,221.7,191218,000.0,W*7F
$GPGGA,074543.680,5702.969,N,00952.524,E,1,12,1.0,0.0,M,0.0,M,,*6A
$GPGSA,A,3,01,02,03,04,05,06,07,08,09,10,11,12,1.0,1.0,1.0*30
$GPRMC,074543.680,A,5702.969,N,00952.524,E,017.5,221.7,191218,000.0,W*79
$GPGGA,074544.680,5702.965,N,00952.520,E,1,12,1.0,0.0,M,0.0,M,,*65
$GPGSA,A,3,01,02,03,04,05,06,07,08,09,10,11,12,1.0,1.0,1.0*30
$GPRMC,074544.680,A,5702.965,N,00952.520,E,023.3,247.4,191218,000.0,W*74
$GPGGA,074545.680,5702.961,N,00952.510,E,1,12,1.0,0.0,M,0.0,M,,*63
$GPGSA,A,3,01,02,03,04,05,06,07,08,09,10,11,12,1.0,1.0,1.0*30
$GPRMC,074545.680,A,5702.961,N,00952.510,E,023.3,247.4,191218,000.0,W*72
$GPGGA,074546.680,5702.957,N,00952.501,E,1,12,1.0,0.0,M,0.0,M,,*65
$GPGSA,A,3,01,02,03,04,05,06,07,08,09,10,11,12,1.0,1.0,1.0*30
$GPRMC,074546.680,A,5702.957,N,00952.501,E,023.3,247.4,191218,000.0,W*74
$GPGGA,074547.680,5702.953,N,00952.491,E,1,12,1.0,0.0,M,0.0,M,,*68
$GPGSA,A,3,01,02,03,04,05,06,07,08,09,10,11,12,1.0,1.0,1.0*30
$GPRMC,074547.680,A,5702.953,N,00952.491,E,023.3,247.4,191218,000.0,W*79
$GPGGA,074548.680,5702.949,N,00952.482,E,1,12,1.0,0.0,M,0.0,M,,*6E
$GPGSA,A,3,01,02,03,04,05,06,07,08,09,10,11,12,1.0,1.0,1.0*30
$GPRMC,074548.680,A,5702.949,N,00952.482,E,027.2,239.6,191218,000.0,W*71
$GPGGA,074549.680,5702.943,N,00952.472,E,1,12,1.0,0.0,M,0.0,M,,*6A
$GPGSA,A,3,01,02,03,04,05,06,07,08,09,10,11,12,1.0,1.0,1.0*30
$GPRMC,074549.680,A,5702.943,N,00952.472,E,027.2,239.6,191218,000.0,W*75
$GPGGA,074550.680,5702.938,N,00952.463,E,1,12,1.0,0.0,M,0.0,M,,*6E
$GPGSA,A,3,01,02,03,04,05,06,07,08,09,10,11,12,1.0,1.0,1.0*30
$GPRMC,074550.680,A,5702.938,N,00952.463,E,027.2,239.6,191218,000.0,W*71
$GPGGA,074551.680,5702.932,N,00952.454,E,1,12,1.0,0.0,M,0.0,M,,*61
$GPGSA,A,3,01,02,03,04,05,06,07,08,09,10,11,12,1.0,1.0,1.0*30
$GPRMC,074551.680,A,5702.932,N,00952.454,E,029.2,249.4,191218,000.0,W*75
$GPGGA,074552.680,5702.928,N,00952.441,E,1,12,1.0,0.0,M,0.0,M,,*6D
$GPGSA,A,3,01,02,03,04,05,06,07,08,09,10,11,12,1.0,1.0,1.0*30
$GPRMC,074552.680,A,5702.928,N,00952.441,E,029.2,249.4,191218,000.0,W*79
$GPGGA,074553.680,5702.923,N,00952.429,E,1,12,1.0,0.0,M,0.0,M,,*69
$GPGSA,A,3,01,02,03,04,05,06,07,08,09,10,11,12,1.0,1.0,1.0*30
$GPRMC,074553.680,A,5702.923,N,00952.429,E,029.2,249.4,191218,000.0,W*7D
$GPGGA,074554.680,5702.919,N,00952.417,E,1,12,1.0,0.0,M,0.0,M,,*6A
$GPGSA,A,3,01,02,03,04,05,06,07,08,09,10,11,12,1.0,1.0,1.0*30
$GPRMC,074554.680,A,5702.919,N,00952.417,E,025.3,252.9,191218,000.0,W*74
$GPGGA,074555.680,5702.915,N,00952.406,E,1,12,1.0,0.0,M,0.0,M,,*67
$GPGSA,A,3,01,02,03,04,05,06,07,08,09,10,11,12,1.0,1.0,1.0*30
$GPRMC,074555.680,A,5702.915,N,00952.406,E,025.3,252.9,191218,000.0,W*79
$GPGGA,074556.680,5702.912,N,00952.394,E,1,12,1.0,0.0,M,0.0,M,,*6F
$GPGSA,A,3,01,02,03,04,05,06,07,08,09,10,11,12,1.0,1.0,1.0*30
$GPRMC,074556.680,A,5702.912,N,00952.394,E,025.3,252.9,191218,000.0,W*71
$GPGGA,074557.680,5702.908,N,00952.383,E,1,12,1.0,0.0,M,0.0,M,,*63
$GPGSA,A,3,01,02,03,04,05,06,07,08,09,10,11,12,1.0,1.0,1.0*30
$GPRMC,074557.680,A,5702.908,N,00952.383,E,025.3,252.9,191218,000.0,W*7D
