$GPGGA,101005.948,5703.111,N,00954.773,E,1,12,1.0,0.0,M,0.0,M,,*65
$GPGSA,A,3,01,02,03,04,05,06,07,08,09,10,11,12,1.0,1.0,1.0*30
$GPRMC,101005.948,A,5703.111,N,00954.773,E,027.0,099.5,191218,000.0,W*73
$GPGGA,101006.948,5703.109,N,00954.786,E,1,12,1.0,0.0,M,0.0,M,,*65
$GPGSA,A,3,01,02,03,04,05,06,07,08,09,10,11,12,1.0,1.0,1.0*30
$GPRMC,101006.948,A,5703.109,N,00954.786,E,027.0,099.5,191218,000.0,W*73
$GPGGA,101007.948,5703.107,N,00954.800,E,1,12,1.0,0.0,M,0.0,M,,*6B
$GPGSA,A,3,01,02,03,04,05,06,07,08,09,10,11,12,1.0,1.0,1.0*30
$GPRMC,,A,5703.107,N,00954.800,E,027.0,099.5,191218,000.0,W*7D
$GPGGA,101008.948,5703.105,N,00954.813,E,1,12,1.0,0.0,M,0.0,M,,*64
$GPGSA,A,3,01,02,03,04,05,06,07,08,09,10,11,12,1.0,1.0,1.0*30
$GPRMC,101008.948,A,5703.105,N,00954.813,E,027.0,099.5,191218,000.0,W*72
$GPGGA,101009.948,5703.102,N,00954.826,E,1,12,1.0,0.0,M,0.0,M,,*64
$GPGSA,A,3,01,02,03,04,05,06,07,08,09,10,11,12,1.0,1.0,1.0*30
$GPRMC,101009.948,A,5703.102,N,00954.826,E,027.0,099.5,191218,000.0,W*72
$GPGGA,101010.948,5703.100,N,00954.839,E,1,12,7.0,0.0,M,0.0,M,,*60
$GPGSA,A,3,01,02,03,04,05,06,07,08,09,10,11,12,1.0,1.0,1.0*30
$GPRMC,101010.948,A,5703.100,N,00954.839,E,027.0,099.5,191218,000.0,W*76
$GPGGA,101011.948,5703.098,N,00954.852,E,1,12,1.0,0.0,M,0.0,M,,*6C
$GPGSA,A,3,01,02,03,04,05,06,07,08,09,10,11,12,1.0,1.0,1.0*30
$GPRMC,101011.948,A,5703.098,N,00954.852,E,027.0,099.5,191218,000.0,W*7A
$GPGGA,101012.948,5703.096,N,00954.865,E,1,12,1.0,0.0,M,0.0,M,,*65
$GPGSA,A,3,01,02,03,04,05,06,07,08,09,10,11,12,1.0,1.0,1.0*30
$GPRMC,101012.948,A,5703.096,N,00954.865,E,027.0,099.5,191218,000.0,W*73
$GPGGA,101013.948,5703.094,N,00954.879,E,1,12,1.0,0.0,M,0.0,M,,*6B
$GPGSA,A,3,01,02,03,04,05,06,07,08,09,10,11,12,1.0,1.0,1.0*30
$GPRMC,101013.948,A,5703.094,N,00954.879,E,027.0,099.5,191218,000.0,W*7D
$GPGGA,101014.948,5703.092,N,,E,1,12,1.0,0.0,M,0.0,M,,*6F
$GPGSA,A,3,01,02,03,04,05,06,07,08,09,10,11,12,1.0,1.0,1.0*30
$GPRMC,101014.948,A,5703.092,N,00954.892,E,027.0,099.5,191218,000.0,W*79
$GPGGA,101015.948,5703.089,N,00954.905,E,1,12,1.0,0.0,M,0.0,M,,*6B
$GPGSA,A,3,01,02,03,04,05,06,07,08,09,10,11,12,1.0,1.0,1.0*30
$GPRMC,101015.948,A,5703.089,N,00954.905,E,027.0,099.5,191218,000.0,W*7D
$GPGGA,101016.948,5703.087,N,00954.918,E,1,12,1.0,0.0,M,0.0,M,,*6A
$GPGSA,A,3,01,02,03,04,05,06,07,08,09,10,11,12,1.0,1.0,1.0*30
$GPRMC,101016.948,A,5703.087,N,00954.918,E,027.0,099.5,191218,000.0,W*7C
$GPGGA,101017.948,5703.085,N,00954.931,E,1,12,1.0,0.0,M,0.0,M,,*62
$GPGSA,A,3,01,02,03,04,05,06,07,08,09,10,11,12,1.0,1.0,1.0*30
$GPRMC,101017.948,A,5703.085,N,00954.931,E,027.0,099.5,191218,000.0,W*74
$GPGGA,101018.948,5703.083,N,00954.945,E,1,12,1.0,0.0,M,0.0,M,,*68
$GPGSA,A,3,01,02,03,04,05,06,07,08,09,10,11,12,1.0,1.0,1.0*30
$GPRMC,101018.948,A,5703.083,N,00954.945,E,027.0,099.5,191218,000.0,W*7E
$GPGGA,,5703.081,N,00954.958,E,1,12,1.0,0.0,M,0.0,M,,*67
$GPGSA,A,3,01,02,03,04,05,06,07,08,09,10,11,12,1.0,1.0,1.0*30
$GPRMC,101019.948,A,5703.081,N,00954.958,E,027.0,099.5,191218,000.0,W*71
$GPGGA,101020.948,5703.078,N,00954.971,E,1,12,1.0,0.0,M,0.0,M,,*60
$GPGSA,A,3,01,02,03,04,05,06,07,08,09,10,11,12,1.0,1.0,1.0*30
$GPRMC,101020.948,A,5703.078,N,00954.971,E,027.0,099.5,191218,000.0,W*76
$GPGGA,101021.948,5703.076,N,00954.984,E,1,12,1.0,0.0,M,0.0,M,,*65
$GPGSA,A,3,01,02,03,04,05,06,07,08,09,10,11,12,1.0,1.0,1.0*30
$GPRMC,101021.948,A,5703.076,N,00954.984,E,027.0,099.5,191218,000.0,W*73
$GPGGA,101022.948,5703.074,N,00954.997,E,1,12,1.0,0.0,M,0.0,M,,*66
$GPGSA,A,3,01,02,03,04,05,06,07,08,09,10,11,12,1.0,1.0,1.0*30
$GPRMC,101022.948,A,5703.074,N,00954.997,E,027.0,193.9,191218,000.0,W*77
$GPGGA,101023.948,5703.067,N,00954.995,E,1,12,1.0,0.0,M,0.0,M,,*67
$GPGSA,A,3,01,02,03,04,05,06,07,08,09,10,11,12,1.0,1.0,1.0*30
$GPRMC,101023.948,A,5703.067,N,00954.995,E,027.0,193.9,191218,000.0,W*76
$GPGGA,101024.948,5703.059,N,00954.994,E,1,12,1.0,0.0,M,0.0,M,,*6C
$GPGSA,A,3,01,02,03,04,05,06,07,08,09,10,11,12,1.0,1.0,1.0*30
$GPRMC,101024.948,A,5703.059,N,00954.994,E,027.0,193.9,191218,000.0,W*7D
$GPGGA,101025.948,5703.052,N,00954.992,E,1,12,1.0,0.0,M,0.0,M,,*60
$GPGSA,A,3,01,02,03,04,05,06,07,08,09,10,11,12,1.0,1.0,1.0*30
$GPRMC,101025.948,A,5703.052,N,,E,027.0,193.9,191218,000.0,W*71
$GPGGA,101026.948,5703.044,N,00954.990,E,1,12,1.0,0.0,M,0.0,M,,*66
$GPGSA,A,3,01,02,03,04,05,06,07,08,09,10,11,12,1.0,1.0,1.0*30
$GPRMC,101026.948,A,5703.044,N,00954.990,E,027.0,193.9,191218,000.0,W*77
$GPGGA,101027.948,5703.037,N,00954.988,E,1,12,1.0,0.0,M,0.0,M,,*6A
$GPGSA,A,3,01,02,03,04,05,06,07,08,09,10,11,12,1.0,1.0,1.0*30
$GPRMC,101027.948,A,5703.037,N,00954.988,E,027.0,193.9,191218,000.0,W*7B
$GPGGA,101028.948,5703.029,N,00954.986,E,1,12,1.0,0.0,M,0.0,M,,*64
$GPGSA,A,3,01,02,03,04,05,06,07,08,09,10,11,12,1.0,1.0,1.0*30
$GPRMC,101028.948,A,5703.029,N,00954.986,E,027.0,193.9,191218,000.0,W*75
$GPGGA,101029.948,5703.022,N,00954.984,E,1,12,9.0,0.0,M,0.0,M,,*6C
$GPGSA,A,3,01,02,03,04,05,06,07,08,09,10,11,12,1.0,1.0,1.0*30
$GPRMC,101029.948,A,5703.022,N,00954.984,E,027.0,193.9,191218,000.0,W*7D
$GPGGA,101030.948,5703.015,N,00954.982,E,1,12,1.0,0.0,M,0.0,M,,*66
$GPGSA,A,3,01,02,03,04,05,06,07,08,09,10,11,12,1.0,1.0,1.0*30
$GPRMC,101030.948,A,5703.015,N,00954.982,E,027.0,193.9,191218,000.0,W*77
$GPGGA,101031.948,5703.007,N,00954.981,E,1,12,1.0,0.0,M,0.0,M,,*67
$GPGSA,A,3,01,02,03,04,05,06,07,08,09,10,11,12,1.0,1.0,1.0*30
$GPRMC,101031.948,A,5703.007,N,00954.981,E,027.0,193.9,191218,000.0,W*76
$GPGGA,101032.948,5703.000,N,00954.979,E,1,12,9.0,0.0,M,0.0,M,,*64
$GPGSA,A,3,01,02,03,04,05,06,07,08,09,10,11,12,1.0,1.0,1.0*30
$GPRMC,101032.948,A,5703.000,N,00954.979,E,027.0,193.9,191218,000.0,W*75
$GPGGA,101033.948,5702.992,N,00954.977,E,1,12,1.0,0.0,M,0.0,M,,*68
$GPGSA,A,3,01,02,03,04,05,06,07,08,09,10,11,12,1.0,1.0,1.0*30
$GPRMC,101033.948,A,5702.992,N,00954.977,E,027.0,193.9,191218,000.0,W*79
$GPGGA,101034.948,5702.985,N,00954.975,E,1,12,1.0,0.0,M,0.0,M,,*6B
$GPGSA,A,3,01,02,03,04,05,06,07,08,09,10,11,12,1.0,1.0,1.0*30
$GPRMC,101034.948,A,5702.985,N,00954.975,E,027.0,193.9,191218,000.0,W*7A
$GPGGA,101035.948,5702.977,N,00954.973,E,1,12,1.0,0.0,M,0.0,M,,*61
$GPGSA,A,3,01,02,03,04,05,06,07,08,09,10,11,12,9.0,1.0,1.0*30
$GPRMC,101035.948,A,5702.977,N,00954.973,E,027.0,193.9,191218,000.0,W*70
$GPGGA,101036.948,5702.970,N,00954.971,E,1,12,1.0,0.0,M,0.0,M,,*67
$GPGSA,A,3,01,02,03,04,05,06,07,08,09,10,11,12,1.0,1.0,1.0*30
$GPRMC,101036.948,A,5702.970,N,00954.971,E,027.0,193.9,191218,000.0,W*76
$GPGGA,101037.948,5702.963,N,00954.970,E,1,12,1.0,0.0,M,0.0,M,,*65
$GPGSA,A,3,01,02,03,04,05,06,07,08,09,10,11,12,1.0,1.0,1.0*30
$GPRMC,101037.948,A,5702.963,N,00954.970,E,027.0,193.9,191218,000.0,W*74
$GPGGA,101038.948,5702.955,N,00954.968,E,1,12,1.0,0.0,M,0.0,M,,*66
$GPGSA,A,3,01,02,03,04,05,06,07,08,09,10,11,12,1.0,1.0,1.0*30
$GPRMC,101038.948,A,5702.955,N,00954.968,E,027.0,193.9,191218,000.0,W*77
$GPGGA,101039.948,5702.948,N,00954.966,E,1,12,1.0,0.0,M,0.0,M,,*65
$GPGSA,A,3,01,02,03,04,05,06,07,08,09,10,11,12,1.0,1.0,1.0*30
$GPRMC,101039.948,A,5702.948,N,00954.966,E,027.0,193.9,191218,000.0,W*74
$GPGGA,101040.948,5702.940,N,00954.964,E,1,12,1.0,0.0,M,0.0,M,,*61
$GPGSA,A,3,01,02,03,04,05,06,07,08,09,10,11,12,1.0,1.0,1.0*30
$GPRMC,101040.948,A,5702.940,N,00954.964,E,027.0,193.9,191218,000.0,W*70
$GPGGA,101041.948,,N,00954.962,E,1,12,1.0,0.0,M,0.0,M,,*62
$GPGSA,A,3,01,02,03,04,05,06,07,08,09,10,11,12,1.0,1.0,1.0*30
$GPRMC,101041.948,A,5702.933,N,00954.962,E,027.0,193.9,191218,000.0,W*73
$GPGGA,101042.948,5702.925,N,00954.960,E,1,12,1.0,0.0,M,0.0,M,,*64
$GPGSA,A,3,01,02,03,04,05,06,07,08,09,10,11,12,1.0,1.0,1.0*30
$GPRMC,101042.948,A,5702.925,N,00954.960,E,027.0,193.9,191218,000.0,W*75
$GPGGA,101043.948,5702.918,N,00954.959,E,1,12,1.0,0.0,M,0.0,M,,*61
$GPGSA,A,3,01,02,03,04,05,06,07,08,09,10,11,12,1.0,1.0,1.0*30
$GPRMC,101043.948,A,5702.918,N,00954.959,E,027.0,193.9,191218,000.0,W*70
$GPGGA,101044.948,5702.911,N,00954.957,E,1,12,1.0,0.0,M,0.0,M,,*61
$GPGSA,A,3,01,02,03,04,05,06,07,08,09,10,11,12,1.0,1.0,1.0*30
$GPRMC,101044.948,A,5702.911,N,00954.957,E,027.0,193.9,191218,000.0,W*70
$GPGGA,101045.948,5702.903,N,00954.955,E,1,12,1.0,0.0,M,0.0,M,,*61
$GPGSA,A,3,01,02,03,04,05,06,07,08,09,10,11,12,1.0,1.0,1.0*30
$GPRMC,101045.948,A,5702.903,N,00954.955,E,027.0,222.9,191218,000.0,W*79
$GPGGA,101046.948,5702.897,N,00954.949,E,1,12,1.0,0.0,M,0.0,M,,*63
$GPGSA,A,3,01,02,03,04,05,06,07,08,09,10,11,12,1.0,1.0,1.0*30
$GPRMC,101046.948,A,5702.897,N,00954.949,E,027.0,222.9,191218,000.0,W*7B
$GPGGA,101047.948,5702.890,N,00954.942,E,1,12,1.0,0.0,M,0.0,M,,*6E
$GPGSA,A,3,01,02,03,04,05,06,07,08,09,10,11,12,1.0,1.0,1.0*30
$GPRMC,101047.948,A,5702.890,N,00954.942,E,027.0,222.9,191218,000.0,W*76
$GPGGA,101048.948,5702.883,N,00954.936,E,1,12,1.0,0.0,M,0.0,M,,*60
$GPGSA,A,3,01,02,03,04,05,06,07,08,09,10,11,12,1.0,1.0,1.0*30
$GPRMC,101048.948,A,5702.883,N,00954.936,E,027.0,222.9,191218,000.0,W*78
$GPGGA,101049.948,5702.876,N,00954.930,E,1,12,1.0,0.0,M,0.0,M,,*6D
$GPGSA,A,3,01,02,03,04,05,06,07,08,09,10,11,12,1.0,1.0,1.0*30
$GPRMC,101049.948,A,5702.876,N,00954.930,E,027.0,222.9,191218,000.0,W*75
$GPGGA,101050.948,5702.870,N,00954.924,E,1,12,1.0,0.0,M,0.0,M,,*66
$GPGSA,A,3,01,02,03,04,05,06,07,08,09,10,11,12,1.0,1.0,1.0*30
$GPRMC,101050.948,A,5702.870,N,00954.924,E,027.0,222.9,191218,000.0,W*7E
$GPGGA,101051.948,5702.863,N,00954.917,E,1,12,1.0,0.0,M,0.0,M,,*65
$GPGSA,A,3,01,02,03,04,05,06,07,08,09,10,11,12,1.0,1.0,1.0*30
$GPRMC,101051.948,A,5702.863,N,00954.917,E,027.0,222.9,191218,000.0,W*7D
$GPGGA,101052.948,5702.856,N,00954.911,E,1,12,1.0,0.0,M,0.0,M,,*66
$GPGSA,A,3,01,02,03,04,05,06,07,08,09,10,11,12,1.0,1.0,1.0*30
$GPRMC,101052.948,A,5702.856,N,00954.911,E,027.0,222.9,191218,000.0,W*7E
$GPGGA,101053.948,5702.850,N,00954.905,E,1,12,1.0,0.0,M,0.0,M,,*64
$GPGSA,A,3,01,02,03,04,05,06,07,08,09,10,11,12,1.0,1.0,1.0*30
$GPRMC,101053.948,A,5702.850,N,00954.905,E,027.0,222.9,191218,000.0,W*7C
$GPGGA,101054.948,5702.843,N,00954.899,E,1,12,1.0,0.0,M,0.0,M,,*65
$GPGSA,A,3,01,02,03,04,05,06,07,08,09,10,11,12,1.0,1.0,1.0*30
$GPRMC,101054.948,A,5702.843,N,00954.899,E,027.0,222.9,191218,000.0,W*7D
$GPGGA,101055.948,5702.836,N,00954.892,E,1,12,1.0,0.0,M,0.0,M,,*6D
$GPGSA,A,3,01,02,03,04,05,06,07,08,09,10,11,12,1.0,1.0,1.0*30
$GPRMC,101055.948,A,5702.836,N,00954.892,E,027.0,222.9,191218,000.0,W*75
$GPGGA,101056.948,5702.830,N,00954.886,E,1,12,1.0,0.0,M,0.0,M,,*6D
$GPGSA,A,3,01,02,03,04,05,06,07,08,09,10,11,12,1.0,1.0,1.0*30
$GPRMC,101056.948,A,5702.830,N,00954.886,E,027.0,222.9,191218,000.0,W*75
$GPGGA,101057.948,5702.823,N,00954.880,E,1,12,1.0,0.0,M,0.0,M,,*68
$GPGSA,A,3,01,02,03,04,05,06,07,08,09,10,11,12,1.0,1.0,1.0*30
$GPRMC,101057.948,A,5702.823,N,00954.880,E,027.0,222.9,191218,000.0,W*70
$GPGGA,101058.948,5702.816,N,00954.874,E,1,12,1.0,0.0,M,0.0,M,,*6A
$GPGSA,A,3,01,02,03,04,05,06,07,08,09,10,11,12,1.0,1.0,1.0*30
$GPRMC,101058.948,A,5702.816,N,00954.874,E,027.0,239.6,191218,000.0,W*77
$GPGGA,101059.948,5702.811,N,00954.864,E,1,12,1.0,0.0,M,0.0,M,,*6D
$GPGSA,A,3,01,02,03,04,05,06,07,08,09,10,11,12,1.0,1.0,1.0*30
$GPRMC,101059.948,A,5702.811,N,00954.864,E,027.0,239.6,191218,000.0,W*70
$GPGGA,101100.948,5702.805,N,00954.855,E,1,12,1.0,0.0,M,0.0,M,,*67
$GPGSA,A,3,01,02,03,04,05,06,07,08,09,10,11,12,1.0,1.0,1.0*30
$GPRMC,101100.948,A,5702.805,N,00954.855,E,027.0,239.6,191218,000.0,W*7A
$GPGGA,101101.948,5702.800,N,00954.846,E,1,12,1.0,0.0,M,0.0,M,,*61
$GPGSA,A,3,01,02,03,04,05,06,07,08,09,10,11,12,1.0,1.0,1.0*30
$GPRMC,101101.948,A,5702.800,N,00954.846,E,027.0,239.6,191218,000.0,W*7C
$GPGGA,101102.948,5702.794,N,00954.836,E,1,12,1.0,0.0,M,0.0,M,,*67
$GPGSA,A,3,01,02,03,04,05,06,07,08,09,10,11,12,1.0,1.0,1.0*30
$GPRMC,101102.948,A,5702.794,N,00954.836,E,027.0,239.6,191218,000.0,W*7A
$GPGGA,101103.948,5702.789,N,00954.827,E,1,12,1.0,0.0,M,0.0,M,,*6A
$GPGSA,A,3,01,02,03,04,05,06,07,08,09,10,11,12,1.0,1.0,1.0*30
$GPRMC,101103.948,A,5702.789,N,00954.827,E,027.0,239.6,191218,000.0,W*77
$GPGGA,101104.948,5702.783,N,00954.817,E,1,12,1.0,0.0,M,0.0,M,,*64
$GPGSA,A,3,01,02,03,04,05,06,07,08,09,10,11,12,1.0,1.0,1.0*30
$GPRMC,101104.948,A,5702.783,N,00954.817,E,027.0,239.6,191218,000.0,W*79
$GPGGA,101105.948,5702.778,N,00954.808,E,1,12,1.0,0.0,M,0.0,M,,*6F
$GPGSA,A,3,01,02,03,04,05,06,07,08,09,10,11,12,1.0,1.0,1.0*30
$GPRMC,101105.948,A,5702.778,N,00954.808,E,027.0,218.0,191218,000.0,W*77
$GPGGA,101106.948,5702.771,N,00954.803,E,1,12,1.0,0.0,M,0.0,M,,*6E
$GPGSA,A,3,01,02,03,04,05,06,07,08,09,10,11,12,1.0,1.0,1.0*30
$GPRMC,101106.948,A,5702.771,N,00954.803,E,027.0,218.0,191218,000.0,W*76
$GPGGA,101107.948,5702.764,N,00954.797,E,1,12,1.0,0.0,M,0.0,M,,*69
$GPGSA,A,3,01,02,03,04,05,06,07,08,09,10,11,12,1.0,1.0,1.0*30
$GPRMC,101107.948,A,5702.764,N,00954.797,E,027.0,218.0,191218,000.0,W*71
$GPGGA,101108.948,5702.757,N,00954.792,E,1,12,1.0,0.0,M,0.0,M,,*63
$GPGSA,A,3,01,02,03,04,05,06,07,08,09,10,11,12,1.0,1.0,1.0*30
$GPRMC,101108.948,A,5702.757,N,00954.792,E,027.0,218.0,191218,000.0,W*7B
$GPGGA,101109.948,5702.750,N,00954.786,E,1,12,1.0,0.0,M,0.0,M,,*60
$GPGSA,A,3,01,02,03,04,05,06,07,08,09,10,11,12,1.0,1.0,1.0*30
$GPRMC,101109.948,A,5702.750,N,00954.786,E,027.0,218.0,191218,000.0,W*78
$GPGGA,101110.948,5702.743,N,00954.781,E,1,12,1.0,0.0,M,0.0,M,,*6D
$GPGSA,A,3,01,02,03,04,05,06,07,08,09,10,11,12,1.0,1.0,1.0*30
$GPRMC,101110.948,A,5702.743,N,00954.781,E,027.0,218.0,191218,000.0,W*75
$GPGGA,101111.948,5702.737,N,00954.776,E,1,12,1.0,0.0,M,0.0,M,,*67
$GPGSA,A,3,01,02,03,04,05,06,07,08,09,10,11,12,1.0,1.0,1.0*30
$GPRMC,101111.948,A,5702.737,N,00954.776,E,027.0,218.0,191218,000.0,W*7F
$GPGGA,101112.948,5702.730,N,00954.770,E,1,12,1.0,0.0,M,0.0,M,,*65
$GPGSA,A,3,01,02,03,04,05,06,07,08,09,10,11,12,1.0,1.0,1.0*30
$GPRMC,101112.948,A,5702.730,N,00954.770,E,027.0,218.0,191218,000.0,W*7D
$GPGGA,101113.948,5702.723,N,00954.765,E,1,12,1.0,0.0,M,0.0,M,,*62
$GPGSA,A,3,01,02,03,04,05,06,07,08,09,10,11,12,1.0,1.0,1.0*30
$GPRMC,101113.948,A,5702.723,N,00954.765,E,027.0,218.0,191218,000.0,W*7A
$GPGGA,101114.948,5702.716,N,00954.759,E,1,12,1.0,0.0,M,0.0,M,,*6C
$GPGSA,A,3,01,02,03,04,05,06,07,08,09,10,11,12,1.0,1.0,1.0*30
$GPRMC,101114.948,A,5702.716,N,00954.759,E,027.0,218.0,191218,000.0,W*74
$GPGGA,101115.948,5702.709,N,00954.754,E,1,12,1.0,0.0,M,0.0,M,,*6E
$GPGSA,A,3,01,02,03,04,05,06,07,08,09,10,11,12,1.0,1.0,1.0*30
$GPRMC,101115.948,A,5702.709,N,00954.754,E,027.0,218.0,191218,000.0,W*76
$GPGGA,101116.948,5702.702,N,00954.748,E,1,12,1.0,0.0,M,0.0,M,,*6B
$GPGSA,A,3,01,02,03,04,05,06,07,08,09,10,11,12,1.0,1.0,1.0*30
$GPRMC,101116.948,A,5702.702,N,00954.748,E,027.0,218.0,191218,000.0,W*73
$GPGGA,101117.948,5702.695,N,00954.743,E,1,12,1.0,0.0,M,0.0,M,,*6E
$GPGSA,A,3,01,02,03,04,05,06,07,08,09,10,11,12,1.0,1.0,1.0*30
$GPRMC,101117.948,A,5702.695,N,00954.743,E,027.0,218.0,191218,000.0,W*76
$GPGGA,101118.948,5702.688,N,00954.738,E,1,12,1.0,0.0,M,0.0,M,,*61
$GPGSA,A,3,01,02,03,04,05,06,07,08,09,10,11,12,1.0,1.0,1.0*30
$GPRMC,101118.948,A,5702.688,N,00954.738,E,027.0,218.0,191218,000.0,W*79
$GPGGA,101119.948,5702.681,N,00954.732,E,1,12,1.0,0.0,M,0.0,M,,*63
$GPGSA,A,3,01,02,03,04,05,06,07,08,09,10,11,12,1.0,1.0,1.0*30
$GPRMC,101119.948,A,5702.681,N,00954.732,E,027.0,218.0,191218,000.0,W*7B
$GPGGA,101120.948,5702.675,N,00954.727,E,1,12,1.0,0.0,M,0.0,M,,*66
$GPGSA,A,3,01,02,03,04,05,06,07,08,09,10,11,12,1.0,1.0,1.0*30
$GPRMC,101120.948,A,5702.675,N,00954.727,E,027.0,218.0,191218,000.0,W*7E
$GPGGA,101121.948,5702.668,N,00954.721,E,1,12,1.0,0.0,M,0.0,M,,*6D
$GPGSA,A,3,01,02,03,04,05,06,07,08,09,10,11,12,1.0,1.0,1.0*30
$GPRMC,101121.948,A,5702.668,N,00954.721,E,027.0,218.0,191218,000.0,W*75
$GPGGA,101122.948,5702.661,N,00954.716,E,1,12,1.0,0.0,M,0.0,M,,*63
$GPGSA,A,3,01,02,03,04,05,06,07,08,09,10,11,12,1.0,1.0,1.0*30
$GPRMC,101122.948,A,5702.661,N,00954.716,E,027.0,218.0,191218,000.0,W*7B
$GPGGA,101123.948,5702.654,N,00954.711,E,1,12,1.0,0.0,M,0.0,M,,*63
$GPGSA,A,3,01,02,03,04,05,06,07,08,09,10,11,12,1.0,1.0,1.0*30
$GPRMC,101123.948,A,5702.654,N,00954.711,E,027.0,205.9,191218,000.0,W*7E
$GPGGA,101124.948,5702.647,N,00954.707,E,1,12,1.0,0.0,M,0.0,M,,*61
$GPGSA,A,3,01,02,03,04,05,06,07,08,09,10,11,12,1.0,1.0,1.0*30
$GPRMC,101124.948,A,5702.647,N,00954.707,E,027.0,205.9,191218,000.0,W*7C
$GPGGA,101125.948,5702.639,N,00954.704,E,1,12,1.0,0.0,M,0.0,M,,*6A
$GPGSA,A,3,01,02,03,04,05,06,07,08,09,10,11,12,1.0,1.0,1.0*30
$GPRMC,101125.948,A,5702.639,N,00954.704,E,027.0,205.9,191218,000.0,W*77
$GPGGA,101126.948,5702.632,N,00954.700,E,1,12,1.0,0.0,M,0.0,M,,*66
$GPGSA,A,3,01,02,03,04,05,06,07,08,09,10,11,12,1.0,1.0,1.0*30
$GPRMC,101126.948,A,5702.632,N,00954.700,E,027.0,205.9,191218,000.0,W*7B
$GPGGA,101127.948,5702.625,N,00954.696,E,1,12,1.0,0.0,M,0.0,M,,*6F
$GPGSA,A,3,01,02,03,04,05,06,07,08,09,10,11,12,1.0,1.0,1.0*30
$GPRMC,101127.948,A,5702.625,N,00954.696,E,027.0,205.9,191218,000.0,W*72
$GPGGA,101128.948,5702.618,N,00954.693,E,1,12,1.0,0.0,M,0.0,M,,*6B
$GPGSA,A,3,01,02,03,04,05,06,07,08,09,10,11,12,1.0,1.0,1.0*30
$GPRMC,101128.948,A,5702.618,N,00954.693,E,027.0,205.9,191218,000.0,W*76
$GPGGA,101129.948,5702.610,N,00954.689,E,1,12,1.0,0.0,M,0.0,M,,*69
$GPGSA,A,3,01,02,03,04,05,06,07,08,09,10,11,12,1.0,1.0,1.0*30
$GPRMC,101129.948,A,5702.610,N,00954.689,E,027.0,205.9,191218,000.0,W*74
$GPGGA,101130.948,5702.603,N,00954.686,E,1,12,1.0,0.0,M,0.0,M,,*6C
$GPGSA,A,3,01,02,03,04,05,06,07,08,09,10,11,12,1.0,1.0,1.0*30
$GPRMC,101130.948,A,5702.603,N,00954.686,E,027.0,205.9,191218,000.0,W*71
$GPGGA,101131.948,5702.596,N,00954.682,E,1,12,1.0,0.0,M,0.0,M,,*66
$GPGSA,A,3,01,02,03,04,05,06,07,08,09,10,11,12,1.0,1.0,1.0*30
$GPRMC,101131.948,A,5702.596,N,00954.682,E,027.0,205.9,191218,000.0,W*7B
$GPGGA,101132.948,5702.589,N,00954.679,E,1,12,1.0,0.0,M,0.0,M,,*6F
$GPGSA,A,3,01,02,03,04,05,06,07,08,09,10,11,12,1.0,1.0,1.0*30
$GPRMC,101132.948,A,5702.589,N,00954.679,E,027.0,205.9,191218,000.0,W*72
$GPGGA,101133.948,5702.581,N,00954.675,E,1,12,1.0,0.0,M,0.0,M,,*6A
$GPGSA,A,3,01,02,03,04,05,06,07,08,09,10,11,12,1.0,1.0,1.0*30
$GPRMC,101133.948,A,5702.581,N,00954.675,E,027.0,205.9,191218,000.0,W*77
$GPGGA,101134.948,5702.574,N,00954.672,E,1,12,1.0,0.0,M,0.0,M,,*60
$GPGSA,A,3,01,02,03,04,05,06,07,08,09,10,11,12,1.0,1.0,1.0*30
$GPRMC,101134.948,A,5702.574,N,00954.672,E,027.0,205.9,191218,000.0,W*7D
$GPGGA,101135.948,5702.567,N,00954.668,E,1,12,1.0,0.0,M,0.0,M,,*68
$GPGSA,A,3,01,02,03,04,05,06,07,08,09,10,11,12,1.0,1.0,1.0*30
$GPRMC,101135.948,A,5702.567,N,00954.668,E,027.0,205.9,191218,000.0,W*75
$GPGGA,101136.948,5702.560,N,00954.665,E,1,12,1.0,0.0,M,0.0,M,,*61
$GPGSA,A,3,01,02,03,04,05,06,07,08,09,10,11,12,1.0,1.0,1.0*30
$GPRMC,101136.948,A,5702.560,N,00954.665,E,027.0,205.9,191218,000.0,W*7C
$GPGGA,101137.948,5702.552,N,00954.661,E,1,12,1.0,0.0,M,0.0,M,,*65
$GPGSA,A,3,01,02,03,04,05,06,07,08,09,10,11,12,1.0,1.0,1.0*30
$GPRMC,101137.948,A,5702.552,N,00954.661,E,027.0,205.9,191218,000.0,W*78
$GPGGA,101138.948,5702.545,N,00954.658,E,1,12,1.0,0.0,M,0.0,M,,*66
$GPGSA,A,3,01,02,03,04,05,06,07,08,09,10,11,12,1.0,1.0,1.0*30
$GPRMC,101138.948,A,5702.545,N,00954.658,E,027.0,205.9,191218,000.0,W*7B
$GPGGA,101139.948,5702.538,N,00954.654,E,1,12,1.0,0.0,M,0.0,M,,*61
$GPGSA,A,3,01,02,03,04,05,06,07,08,09,10,11,12,1.0,1.0,1.0*30
$GPRMC,101139.948,A,5702.538,N,00954.654,E,027.0,205.9,191218,000.0,W*7C
$GPGGA,101140.948,5702.531,N,00954.650,E,1,12,1.0,0.0,M,0.0,M,,*62
$GPGSA,A,3,01,02,03,04,05,06,07,08,09,10,11,12,1.0,1.0,1.0*30
$GPRMC,101140.948,A,5702.531,N,00954.650,E,027.0,187.0,191218,000.0,W*7F
$GPGGA,101141.948,5702.523,N,00954.650,E,1,12,1.0,0.0,M,0.0,M,,*60
$GPGSA,A,3,01,02,03,04,05,06,07,08,09,10,11,12,1.0,1.0,1.0*30
$GPRMC,101141.948,A,5702.523,N,00954.650,E,027.0,187.0,191218,000.0,W*7D
$GPGGA,101142.948,5702.516,N,00954.649,E,1,12,1.0,0.0,M,0.0,M,,*6D
$GPGSA,A,3,01,02,03,04,05,06,07,08,09,10,11,12,1.0,1.0,1.0*30
$GPRMC,101142.948,A,5702.516,N,00954.649,E,027.0,187.0,191218,000.0,W*70
$GPGGA,101143.948,5702.508,N,00954.648,E,1,12,1.0,0.0,M,0.0,M,,*62
$GPGSA,A,3,01,02,03,04,05,06,07,08,09,10,11,12,1.0,1.0,1.0*30
$GPRMC,101143.948,A,5702.508,N,00954.648,E,027.0,187.0,191218,000.0,W*7F
$GPGGA,101144.948,5702.501,N,00954.647,E,1,12,1.0,0.0,M,0.0,M,,*63
$GPGSA,A,3,01,02,03,04,05,06,07,08,09,10,11,12,1.0,1.0,1.0*30
$GPRMC,101144.948,A,5702.501,N,00954.647,E,027.0,187.0,191218,000.0,W*7E
$GPGGA,101145.948,5702.493,N,00954.646,E,1,12,1.0,0.0,M,0.0,M,,*69
$GPGSA,A,3,01,02,03,04,05,06,07,08,09,10,11,12,1.0,1.0,1.0*30
$GPRMC,101145.948,A,5702.493,N,00954.646,E,027.0,187.0,191218,000.0,W*74
$GPGGA,101146.948,5702.486,N,00954.645,E,1,12,1.0,0.0,M,0.0,M,,*6D
$GPGSA,A,3,01,02,03,04,05,06,07,08,09,10,11,12,1.0,1.0,1.0*30
$GPRMC,101146.948,A,5702.486,N,00954.645,E,027.0,187.0,191218,000.0,W*70
$GPGGA,101147.948,5702.478,N,00954.644,E,1,12,1.0,0.0,M,0.0,M,,*6C
$GPGSA,A,3,01,02,03,04,05,06,07,08,09,10,11,12,1.0,1.0,1.0*30
$GPRMC,101147.948,A,5702.478,N,00954.644,E,027.0,187.0,191218,000.0,W*71
$GPGGA,101148.948,5702.471,N,00954.643,E,1,12,1.0,0.0,M,0.0,M,,*6D
$GPGSA,A,3,01,02,03,04,05,06,07,08,09,10,11,12,1.0,1.0,1.0*30
$GPRMC,101148.948,A,5702.471,N,00954.643,E,027.0,187.0,191218,000.0,W*70
$GPGGA,101149.948,5702.463,N,00954.642,E,1,12,1.0,0.0,M,0.0,M,,*6E
$GPGSA,A,3,01,02,03,04,05,06,07,08,09,10,11,12,1.0,1.0,1.0*30
$GPRMC,101149.948,A,5702.463,N,00954.642,E,027.0,106.4,191218,000.0,W*7E
$GPGGA,101150.948,5702.460,N,00954.654,E,1,12,1.0,0.0,M,0.0,M,,*62
$GPGSA,A,3,01,02,03,04,05,06,07,08,09,10,11,12,1.0,1.0,1.0*30
$GPRMC,101150.948,A,5702.460,N,00954.654,E,027.0,106.4,191218,000.0,W*72
$GPGGA,101151.948,5702.456,N,00954.666,E,1,12,1.0,0.0,M,0.0,M,,*67
$GPGSA,A,3,01,02,03,04,05,06,07,08,09,10,11,12,1.0,1.0,1.0*30
$GPRMC,101151.948,A,5702.456,N,00954.666,E,027.0,106.4,191218,000.0,W*77
$GPGGA,101152.948,5702.453,N,00954.679,E,1,12,1.0,0.0,M,0.0,M,,*6F
$GPGSA,A,3,01,02,03,04,05,06,07,08,09,10,11,12,1.0,1.0,1.0*30
$GPRMC,101152.948,A,5702.453,N,00954.679,E,027.0,106.4,191218,000.0,W*7F
$GPGGA,101153.948,5702.449,N,00954.691,E,1,12,1.0,0.0,M,0.0,M,,*63
$GPGSA,A,3,01,02,03,04,05,06,07,08,09,10,11,12,1.0,1.0,1.0*30
$GPRMC,101153.948,A,5702.449,N,00954.691,E,027.0,106.4,191218,000.0,W*73
$GPGGA,101154.948,5702.446,N,00954.703,E,1,12,1.0,0.0,M,0.0,M,,*61
$GPGSA,A,3,01,02,03,04,05,06,07,08,09,10,11,12,1.0,1.0,1.0*30
$GPRMC,101154.948,A,5702.446,N,00954.703,E,027.0,106.4,191218,000.0,W*71
$GPGGA,101155.948,5702.442,N,00954.715,E,1,12,1.0,0.0,M,0.0,M,,*63
$GPGSA,A,3,01,02,03,04,05,06,07,08,09,10,11,12,1.0,1.0,1.0*30
$GPRMC,101155.948,A,5702.442,N,00954.715,E,027.0,106.4,191218,000.0,W*73
$GPGGA,101156.948,5702.439,N,00954.727,E,1,12,1.0,0.0,M,0.0,M,,*6D
$GPGSA,A,3,01,02,03,04,05,06,07,08,09,10,11,12,1.0,1.0,1.0*30
$GPRMC,101156.948,A,5702.439,N,00954.727,E,027.0,106.4,191218,000.0,W*7D
$GPGGA,101157.948,5702.435,N,00954.739,E,1,12,1.0,0.0,M,0.0,M,,*6F
$GPGSA,A,3,01,02,03,04,05,06,07,08,09,10,11,12,1.0,1.0,1.0*30
$GPRMC,101157.948,A,5702.435,N,00954.739,E,027.0,106.4,191218,000.0,W*7F
$GPGGA,101158.948,5702.432,N,00954.751,E,1,12,1.0,0.0,M,0.0,M,,*69
$GPGSA,A,3,01,02,03,04,05,06,07,08,09,10,11,12,1.0,1.0,1.0*30
$GPRMC,101158.948,A,5702.432,N,00954.751,E,027.0,106.4,191218,000.0,W*79
$GPGGA,101159.948,5702.428,N,00954.764,E,1,12,1.0,0.0,M,0.0,M,,*65
$GPGSA,A,3,01,02,03,04,05,06,07,08,09,10,11,12,1.0,1.0,1.0*30
$GPRMC,101159.948,A,5702.428,N,00954.764,E,027.0,106.4,191218,000.0,W*75
$GPGGA,101200.948,5702.424,N,00954.776,E,1,12,1.0,0.0,M,0.0,M,,*65
$GPGSA,A,3,01,02,03,04,05,06,07,08,09,10,11,12,1.0,1.0,1.0*30
$GPRMC,101200.948,A,5702.424,N,00954.776,E,027.0,106.4,191218,000.0,W*75
$GPGGA,101201.948,5702.421,N,00954.788,E,1,12,1.0,0.0,M,0.0,M,,*60
$GPGSA,A,3,01,02,03,04,05,06,07,08,09,10,11,12,1.0,1.0,1.0*30
$GPRMC,101201.948,A,5702.421,N,00954.788,E,027.0,106.4,191218,000.0,W*70
$GPGGA,101202.948,5702.417,N,00954.800,E,1,12,1.0,0.0,M,0.0,M,,*69
$GPGSA,A,3,01,02,03,04,05,06,07,08,09,10,11,12,1.0,1.0,1.0*30
$GPRMC,101202.948,A,5702.417,N,00954.800,E,027.0,106.4,191218,000.0,W*79
$GPGGA,101203.948,5702.414,N,00954.812,E,1,12,1.0,0.0,M,0.0,M,,*68
$GPGSA,A,3,01,02,03,04,05,06,07,08,09,10,11,12,1.0,1.0,1.0*30
$GPRMC,101203.948,A,5702.414,N,00954.812,E,027.0,097.2,191218,000.0,W*77
$GPGGA,101204.948,5702.412,N,00954.825,E,1,12,1.0,0.0,M,0.0,M,,*6D
$GPGSA,A,3,01,02,03,04,05,06,07,08,09,10,11,12,1.0,1.0,1.0*30
$GPRMC,101204.948,A,5702.412,N,00954.825,E,027.0,097.2,191218,000.0,W*72
$GPGGA,101205.948,5702.410,N,00954.839,E,1,12,1.0,0.0,M,0.0,M,,*63
$GPGSA,A,3,01,02,03,04,05,06,07,08,09,10,11,12,1.0,1.0,1.0*30
$GPRMC,101205.948,A,5702.410,N,00954.839,E,027.0,097.2,191218,000.0,W*7C
$GPGGA,101206.948,5702.409,N,00954.852,E,1,12,1.0,0.0,M,0.0,M,,*65
$GPGSA,A,3,01,02,03,04,05,06,07,08,09,10,11,12,1.0,1.0,1.0*30
$GPRMC,101206.948,A,5702.409,N,00954.852,E,027.0,097.2,191218,000.0,W*7A
$GPGGA,101207.948,5702.407,N,00954.866,E,1,12,1.0,0.0,M,0.0,M,,*6D
$GPGSA,A,3,01,02,03,04,05,06,07,08,09,10,11,12,1.0,1.0,1.0*30
$GPRMC,101207.948,A,5702.407,N,00954.866,E,027.0,097.2,191218,000.0,W*72
$GPGGA,101208.948,5702.405,N,00954.879,E,1,12,1.0,0.0,M,0.0,M,,*6E
$GPGSA,A,3,01,02,03,04,05,06,07,08,09,10,11,12,1.0,1.0,1.0*30
$GPRMC,101208.948,A,5702.405,N,00954.879,E,027.0,097.2,191218,000.0,W*71
$GPGGA,101209.948,5702.404,N,00954.893,E,1,12,1.0,0.0,M,0.0,M,,*6A
$GPGSA,A,3,01,02,03,04,05,06,07,08,09,10,11,12,1.0,1.0,1.0*30
$GPRMC,101209.948,A,5702.404,N,00954.893,E,027.0,097.2,191218,000.0,W*75
$GPGGA,101210.948,5702.402,N,00954.906,E,1,12,1.0,0.0,M,0.0,M,,*69
$GPGSA,A,3,01,02,03,04,05,06,07,08,09,10,11,12,1.0,1.0,1.0*30
$GPRMC,101210.948,A,5702.402,N,00954.906,E,027.0,097.2,191218,000.0,W*76
$GPGGA,101211.948,5702.400,N,00954.919,E,1,12,1.0,0.0,M,0.0,M,,*64
$GPGSA,A,3,01,02,03,04,05,06,07,08,09,10,11,12,1.0,1.0,1.0*30
$GPRMC,101211.948,A,5702.400,N,00954.919,E,027.0,097.2,191218,000.0,W*7B
$GPGGA,101212.948,5702.398,N,00954.933,E,1,12,1.0,0.0,M,0.0,M,,*69
$GPGSA,A,3,01,02,03,04,05,06,07,08,09,10,11,12,1.0,1.0,1.0*30
$GPRMC,101212.948,A,5702.398,N,00954.933,E,027.0,097.2,191218,000.0,W*76
$GPGGA,101213.948,5702.397,N,00954.946,E,1,12,1.0,0.0,M,0.0,M,,*65
$GPGSA,A,3,01,02,03,04,05,06,07,08,09,10,11,12,1.0,1.0,1.0*30
$GPRMC,101213.948,A,5702.397,N,00954.946,E,027.0,097.2,191218,000.0,W*7A
$GPGGA,101214.948,5702.395,N,00954.960,E,1,12,1.0,0.0,M,0.0,M,,*64
$GPGSA,A,3,01,02,03,04,05,06,07,08,09,10,11,12,1.0,1.0,1.0*30
$GPRMC,101214.948,A,5702.395,N,00954.960,E,027.0,097.2,191218,000.0,W*7B
$GPGGA,101215.948,5702.393,N,00954.973,E,1,12,1.0,0.0,M,0.0,M,,*61
$GPGSA,A,3,01,02,03,04,05,06,07,08,09,10,11,12,1.0,1.0,1.0*30
$GPRMC,101215.948,A,5702.393,N,00954.973,E,027.0,097.2,191218,000.0,W*7E
$GPGGA,101216.948,5702.392,N,00954.987,E,1,12,1.0,0.0,M,0.0,M,,*68
$GPGSA,A,3,01,02,03,04,05,06,07,08,09,10,11,12,1.0,1.0,1.0*30
$GPRMC,101216.948,A,5702.392,N,00954.987,E,027.0,097.2,191218,000.0,W*77
$GPGGA,101217.948,5702.390,N,00955.000,E,1,12,1.0,0.0,M,0.0,M,,*6C
$GPGSA,A,3,01,02,03,04,05,06,07,08,09,10,11,12,1.0,1.0,1.0*30
$GPRMC,101217.948,A,5702.390,N,00955.000,E,027.0,097.2,191218,000.0,W*73
$GPGGA,101218.948,5702.388,N,00955.013,E,1,12,1.0,0.0,M,0.0,M,,*68
$GPGSA,A,3,01,02,03,04,05,06,07,08,09,10,11,12,1.0,1.0,1.0*30
$GPRMC,101218.948,A,5702.388,N,00955.013,E,027.0,097.2,191218,000.0,W*77
$GPGGA,101219.948,5702.387,N,00955.027,E,1,12,1.0,0.0,M,0.0,M,,*61
$GPGSA,A,3,01,02,03,04,05,06,07,08,09,10,11,12,1.0,1.0,1.0*30
$GPRMC,101219.948,A,5702.387,N,00955.027,E,027.0,097.2,191218,000.0,W*7E
$GPGGA,101220.948,5702.385,N,00955.040,E,1,12,1.0,0.0,M,0.0,M,,*68
$GPGSA,A,3,01,02,03,04,05,06,07,08,09,10,11,12,1.0,1.0,1.0*30
$GPRMC,101220.948,A,5702.385,N,00955.040,E,027.0,097.2,191218,000.0,W*77
$GPGGA,101221.948,5702.383,N,00955.054,E,1,12,1.0,0.0,M,0.0,M,,*6A
$GPGSA,A,3,01,02,03,04,05,06,07,08,09,10,11,12,1.0,1.0,1.0*30
$GPRMC,101221.948,A,5702.383,N,00955.054,E,027.0,097.2,191218,000.0,W*75
$GPGGA,101222.948,5702.382,N,00955.067,E,1,12,1.0,0.0,M,0.0,M,,*68
$GPGSA,A,3,01,02,03,04,05,06,07,08,09,10,11,12,1.0,1.0,1.0*30
$GPRMC,101222.948,A,5702.382,N,00955.067,E,027.0,097.2,191218,000.0,W*77
$GPGGA,101223.948,5702.380,N,00955.080,E,1,12,1.0,0.0,M,0.0,M,,*62
$GPGSA,A,3,01,02,03,04,05,06,07,08,09,10,11,12,1.0,1.0,1.0*30
$GPRMC,101223.948,A,5702.380,N,00955.080,E,027.0,097.2,191218,000.0,W*7D
$GPGGA,101224.948,5702.378,N,00955.094,E,1,12,1.0,0.0,M,0.0,M,,*67
$GPGSA,A,3,01,02,03,04,05,06,07,08,09,10,11,12,1.0,1.0,1.0*30
$GPRMC,101224.948,A,5702.378,N,00955.094,E,027.0,097.2,191218,000.0,W*78
$GPGGA,101225.948,5702.376,N,00955.107,E,1,12,1.0,0.0,M,0.0,M,,*63
$GPGSA,A,3,01,02,03,04,05,06,07,08,09,10,11,12,1.0,1.0,1.0*30
$GPRMC,101225.948,A,5702.376,N,00955.107,E,027.0,097.2,191218,000.0,W*7C
$GPGGA,101226.948,5702.375,N,00955.121,E,1,12,1.0,0.0,M,0.0,M,,*67
$GPGSA,A,3,01,02,03,04,05,06,07,08,09,10,11,12,1.0,1.0,1.0*30
$GPRMC,101226.948,A,5702.375,N,00955.121,E,027.0,097.2,191218,000.0,W*78
$GPGGA,101227.948,5702.373,N,00955.134,E,1,12,1.0,0.0,M,0.0,M,,*64
$GPGSA,A,3,01,02,03,04,05,06,07,08,09,10,11,12,1.0,1.0,1.0*30
$GPRMC,101227.948,A,5702.373,N,00955.134,E,027.0,097.2,191218,000.0,W*7B
$GPGGA,101228.948,5702.371,N,00955.148,E,1,12,1.0,0.0,M,0.0,M,,*62
$GPGSA,A,3,01,02,03,04,05,06,07,08,09,10,11,12,1.0,1.0,1.0*30
$GPRMC,101228.948,A,5702.371,N,00955.148,E,027.0,097.2,191218,000.0,W*7D
$GPGGA,101229.948,5702.370,N,00955.161,E,1,12,1.0,0.0,M,0.0,M,,*69
$GPGSA,A,3,01,02,03,04,05,06,07,08,09,10,11,12,1.0,1.0,1.0*30
$GPRMC,101229.948,A,5702.370,N,00955.161,E,027.0,097.2,191218,000.0,W*76
$GPGGA,101230.948,5702.368,N,00955.174,E,1,12,1.0,0.0,M,0.0,M,,*6C
$GPGSA,A,3,01,02,03,04,05,06,07,08,09,10,11,12,1.0,1.0,1.0*30
$GPRMC,101230.948,A,5702.368,N,00955.174,E,027.0,097.2,191218,000.0,W*73
$GPGGA,101231.948,5702.366,N,00955.188,E,1,12,1.0,0.0,M,0.0,M,,*60
$GPGSA,A,3,01,02,03,04,05,06,07,08,09,10,11,12,1.0,1.0,1.0*30
$GPRMC,101231.948,A,5702.366,N,00955.188,E,027.0,097.2,191218,000.0,W*7F
$GPGGA,101232.948,5702.365,N,00955.201,E,1,12,1.0,0.0,M,0.0,M,,*62
$GPGSA,A,3,01,02,03,04,05,06,07,08,09,10,11,12,1.0,1.0,1.0*30
$GPRMC,101232.948,A,5702.365,N,00955.201,E,027.0,097.2,191218,000.0,W*7D
$GPGGA,101233.948,5702.363,N,00955.215,E,1,12,1.0,0.0,M,0.0,M,,*60
$GPGSA,A,3,01,02,03,04,05,06,07,08,09,10,11,12,1.0,1.0,1.0*30
$GPRMC,101233.948,A,5702.363,N,00955.215,E,027.0,097.2,191218,000.0,W*7F
$GPGGA,101234.948,5702.361,N,00955.228,E,1,12,1.0,0.0,M,0.0,M,,*6B
$GPGSA,A,3,01,02,03,04,05,06,07,08,09,10,11,12,1.0,1.0,1.0*30
$GPRMC,101234.948,A,5702.361,N,00955.228,E,027.0,097.2,191218,000.0,W*74
$GPGGA,101235.948,5702.359,N,00955.241,E,1,12,1.0,0.0,M,0.0,M,,*6E
$GPGSA,A,3,01,02,03,04,05,06,07,08,09,10,11,12,1.0,1.0,1.0*30
$GPRMC,101235.948,A,5702.359,N,00955.241,E,027.0,097.2,191218,000.0,W*71
$GPGGA,101236.948,5702.358,N,00955.255,E,1,12,1.0,0.0,M,0.0,M,,*69
$GPGSA,A,3,01,02,03,04,05,06,07,08,09,10,11,12,1.0,1.0,1.0*30
$GPRMC,101236.948,A,5702.358,N,00955.255,E,027.0,097.2,191218,000.0,W*76
$GPGGA,101237.948,5702.356,N,00955.268,E,1,12,1.0,0.0,M,0.0,M,,*68
$GPGSA,A,3,01,02,03,04,05,06,07,08,09,10,11,12,1.0,1.0,1.0*30
$GPRMC,101237.948,A,5702.356,N,00955.268,E,027.0,102.8,191218,000.0,W*70
$GPGGA,101238.948,5702.353,N,00955.281,E,1,12,1.0,0.0,M,0.0,M,,*65
$GPGSA,A,3,01,02,03,04,05,06,07,08,09,10,11,12,1.0,1.0,1.0*30
$GPRMC,101238.948,A,5702.353,N,00955.281,E,027.0,102.8,191218,000.0,W*7D
$GPGGA,101239.948,5702.350,N,00955.294,E,1,12,1.0,0.0,M,0.0,M,,*63
$GPGSA,A,3,01,02,03,04,05,06,07,08,09,10,11,12,1.0,1.0,1.0*30
$GPRMC,101239.948,A,5702.350,N,00955.294,E,027.0,102.8,191218,000.0,W*7B
$GPGGA,101240.948,5702.347,N,00955.306,E,1,12,1.0,0.0,M,0.0,M,,*61
$GPGSA,A,3,01,02,03,04,05,06,07,08,09,10,11,12,1.0,1.0,1.0*30
$GPRMC,101240.948,A,5702.347,N,00955.306,E,027.0,102.8,191218,000.0,W*79
$GPGGA,101241.948,5702.345,N,00955.319,E,1,12,1.0,0.0,M,0.0,M,,*6C
$GPGSA,A,3,01,02,03,04,05,06,07,08,09,10,11,12,1.0,1.0,1.0*30
$GPRMC,101241.948,A,5702.345,N,00955.319,E,027.0,102.8,191218,000.0,W*74
$GPGGA,101242.948,5702.342,N,00955.332,E,1,12,1.0,0.0,M,0.0,M,,*61
$GPGSA,A,3,01,02,03,04,05,06,07,08,09,10,11,12,1.0,1.0,1.0*30
$GPRMC,101242.948,A,5702.342,N,00955.332,E,027.0,102.8,191218,000.0,W*79
$GPGGA,101243.948,5702.339,N,00955.345,E,1,12,1.0,0.0,M,0.0,M,,*6C
$GPGSA,A,3,01,02,03,04,05,06,07,08,09,10,11,12,1.0,1.0,1.0*30
$GPRMC,101243.948,A,5702.339,N,00955.345,E,027.0,102.8,191218,000.0,W*74
$GPGGA,101244.948,5702.336,N,00955.357,E,1,12,1.0,0.0,M,0.0,M,,*67
$GPGSA,A,3,01,02,03,04,05,06,07,08,09,10,11,12,1.0,1.0,1.0*30
$GPRMC,101244.948,A,5702.336,N,00955.357,E,027.0,102.8,191218,000.0,W*7F
$GPGGA,101245.948,5702.333,N,00955.370,E,1,12,1.0,0.0,M,0.0,M,,*66
$GPGSA,A,3,01,02,03,04,05,06,07,08,09,10,11,12,1.0,1.0,1.0*30
$GPRMC,101245.948,A,5702.333,N,00955.370,E,027.0,102.8,191218,000.0,W*7E
$GPGGA,101246.948,5702.330,N,00955.383,E,1,12,1.0,0.0,M,0.0,M,,*6A
$GPGSA,A,3,01,02,03,04,05,06,07,08,09,10,11,12,1.0,1.0,1.0*30
$GPRMC,101246.948,A,5702.330,N,00955.383,E,027.0,102.8,191218,000.0,W*72
$GPGGA,101247.948,5702.327,N,00955.396,E,1,12,1.0,0.0,M,0.0,M,,*69
$GPGSA,A,3,01,02,03,04,05,06,07,08,09,10,11,12,1.0,1.0,1.0*30
$GPRMC,101247.948,A,5702.327,N,00955.396,E,027.0,102.8,191218,000.0,W*71
$GPGGA,101248.948,5702.325,N,00955.408,E,1,12,1.0,0.0,M,0.0,M,,*64
$GPGSA,A,3,01,02,03,04,05,06,07,08,09,10,11,12,1.0,1.0,1.0*30
$GPRMC,101248.948,A,5702.325,N,00955.408,E,027.0,102.8,191218,000.0,W*7C
$GPGGA,101249.948,5702.322,N,00955.421,E,1,12,1.0,0.0,M,0.0,M,,*69
$GPGSA,A,3,01,02,03,04,05,06,07,08,09,10,11,12,1.0,1.0,1.0*30
$GPRMC,101249.948,A,5702.322,N,00955.421,E,027.0,102.8,191218,000.0,W*71
$GPGGA,101250.948,5702.319,N,00955.434,E,1,12,1.0,0.0,M,0.0,M,,*6D
$GPGSA,A,3,01,02,03,04,05,06,07,08,09,10,11,12,1.0,1.0,1.0*30
$GPRMC,101250.948,A,5702.319,N,00955.434,E,027.0,102.8,191218,000.0,W*75
$GPGGA,101251.948,5702.316,N,00955.446,E,1,12,1.0,0.0,M,0.0,M,,*66
$GPGSA,A,3,01,02,03,04,05,06,07,08,09,10,11,12,1.0,1.0,1.0*30
$GPRMC,101251.948,A,5702.316,N,00955.446,E,027.0,102.8,191218,000.0,W*7E
$GPGGA,101252.948,5702.313,N,00955.459,E,1,12,1.0,0.0,M,0.0,M,,*6E
$GPGSA,A,3,01,02,03,04,05,06,07,08,09,10,11,12,1.0,1.0,1.0*30
$GPRMC,101252.948,A,5702.313,N,00955.459,E,027.0,102.8,191218,000.0,W*76
$GPGGA,101253.948,5702.310,N,00955.472,E,1,12,1.0,0.0,M,0.0,M,,*65
$GPGSA,A,3,01,02,03,04,05,06,07,08,09,10,11,12,1.0,1.0,1.0*30
$GPRMC,101253.948,A,5702.310,N,00955.472,E,027.0,102.8,191218,000.0,W*7D
$GPGGA,101254.948,5702.307,N,00955.485,E,1,12,1.0,0.0,M,0.0,M,,*6C
$GPGSA,A,3,01,02,03,04,05,06,07,08,09,10,11,12,1.0,1.0,1.0*30
$GPRMC,101254.948,A,5702.307,N,00955.485,E,027.0,102.8,191218,000.0,W*74
$GPGGA,101255.948,5702.304,N,00955.497,E,1,12,1.0,0.0,M,0.0,M,,*6D
$GPGSA,A,3,01,02,03,04,05,06,07,08,09,10,11,12,1.0,1.0,1.0*30
$GPRMC,101255.948,A,5702.304,N,00955.497,E,027.0,102.8,191218,000.0,W*75
$GPGGA,101256.948,5702.302,N,00955.510,E,1,12,1.0,0.0,M,0.0,M,,*66
$GPGSA,A,3,01,02,03,04,05,06,07,08,09,10,11,12,1.0,1.0,1.0*30
$GPRMC,101256.948,A,5702.302,N,00955.510,E,027.0,102.8,191218,000.0,W*7E
$GPGGA,101257.948,5702.299,N,00955.523,E,1,12,1.0,0.0,M,0.0,M,,*64
$GPGSA,A,3,01,02,03,04,05,06,07,08,09,10,11,12,1.0,1.0,1.0*30
$GPRMC,101257.948,A,5702.299,N,00955.523,E,027.0,102.8,191218,000.0,W*7C
$GPGGA,101258.948,5702.296,N,00955.536,E,1,12,1.0,0.0,M,0.0,M,,*60
$GPGSA,A,3,01,02,03,04,05,06,07,08,09,10,11,12,1.0,1.0,1.0*30
$GPRMC,101258.948,A,5702.296,N,00955.536,E,027.0,102.8,191218,000.0,W*78
$GPGGA,101259.948,5702.293,N,00955.548,E,1,12,1.0,0.0,M,0.0,M,,*6D
$GPGSA,A,3,01,02,03,04,05,06,07,08,09,10,11,12,1.0,1.0,1.0*30
$GPRMC,101259.948,A,5702.293,N,00955.548,E,027.0,102.8,191218,000.0,W*75
$GPGGA,101300.948,5702.290,N,00955.561,E,1,12,1.0,0.0,M,0.0,M,,*68
$GPGSA,A,3,01,02,03,04,05,06,07,08,09,10,11,12,1.0,1.0,1.0*30
$GPRMC,101300.948,A,5702.290,N,00955.561,E,027.0,102.8,191218,000.0,W*70
$GPGGA,101301.948,5702.287,N,00955.574,E,1,12,1.0,0.0,M,0.0,M,,*6B
$GPGSA,A,3,01,02,03,04,05,06,07,08,09,10,11,12,1.0,1.0,1.0*30
$GPRMC,101301.948,A,5702.287,N,00955.574,E,027.0,102.8,191218,000.0,W*73
$GPGGA,101302.948,5702.284,N,00955.586,E,1,12,1.0,0.0,M,0.0,M,,*66
$GPGSA,A,3,01,02,03,04,05,06,07,08,09,10,11,12,1.0,1.0,1.0*30
$GPRMC,101302.948,A,5702.284,N,00955.586,E,027.0,102.8,191218,000.0,W*7E
$GPGGA,101303.948,5702.282,N,00955.599,E,1,12,1.0,0.0,M,0.0,M,,*6F
$GPGSA,A,3,01,02,03,04,05,06,07,08,09,10,11,12,1.0,1.0,1.0*30
$GPRMC,101303.948,A,5702.282,N,00955.599,E,027.0,102.8,191218,000.0,W*77
$GPGGA,101304.948,5702.279,N,00955.612,E,1,12,1.0,0.0,M,0.0,M,,*6C
$GPGSA,A,3,01,02,03,04,05,06,07,08,09,10,11,12,1.0,1.0,1.0*30
$GPRMC,101304.948,A,5702.279,N,00955.612,E,027.0,093.0,191218,000.0,W*75
$GPGGA,101305.948,5702.278,N,00955.626,E,1,12,1.0,0.0,M,0.0,M,,*6B
$GPGSA,A,3,01,02,03,04,05,06,07,08,09,10,11,12,1.0,1.0,1.0*30
$GPRMC,101305.948,A,5702.278,N,00955.626,E,027.0,093.0,191218,000.0,W*72
$GPGGA,101306.948,5702.277,N,00955.639,E,1,12,1.0,0.0,M,0.0,M,,*69
$GPGSA,A,3,01,02,03,04,05,06,07,08,09,10,11,12,1.0,1.0,1.0*30
$GPRMC,101306.948,A,5702.277,N,00955.639,E,027.0,093.0,191218,000.0,W*70
$GPGGA,101307.948,5702.276,N,00955.653,E,1,12,1.0,0.0,M,0.0,M,,*65
$GPGSA,A,3,01,02,03,04,05,06,07,08,09,10,11,12,1.0,1.0,1.0*30
$GPRMC,101307.948,A,5702.276,N,00955.653,E,027.0,093.0,191218,000.0,W*7C
$GPGGA,101308.948,5702.276,N,00955.667,E,1,12,1.0,0.0,M,0.0,M,,*6D
$GPGSA,A,3,01,02,03,04,05,06,07,08,09,10,11,12,1.0,1.0,1.0*30
$GPRMC,101308.948,A,5702.276,N,00955.667,E,027.0,093.0,191218,000.0,W*74
$GPGGA,101309.948,5702.275,N,00955.680,E,1,12,1.0,0.0,M,0.0,M,,*66
$GPGSA,A,3,01,02,03,04,05,06,07,08,09,10,11,12,1.0,1.0,1.0*30
$GPRMC,101309.948,A,5702.275,N,00955.680,E,027.0,093.0,191218,000.0,W*7F
$GPGGA,101310.948,5702.274,N,00955.694,E,1,12,1.0,0.0,M,0.0,M,,*6A
$GPGSA,A,3,01,02,03,04,05,06,07,08,09,10,11,12,1.0,1.0,1.0*30
$GPRMC,101310.948,A,5702.274,N,00955.694,E,027.0,093.0,191218,000.0,W*73
$GPGGA,101311.948,5702.274,N,00955.708,E,1,12,1.0,0.0,M,0.0,M,,*6F
$GPGSA,A,3,01,02,03,04,05,06,07,08,09,10,11,12,1.0,1.0,1.0*30
$GPRMC,101311.948,A,5702.274,N,00955.708,E,027.0,093.0,191218,000.0,W*76
$GPGGA,101312.948,5702.273,N,00955.722,E,1,12,1.0,0.0,M,0.0,M,,*63
$GPGSA,A,3,01,02,03,04,05,06,07,08,09,10,11,12,1.0,1.0,1.0*30
$GPRMC,101312.948,A,5702.273,N,00955.722,E,027.0,093.0,191218,000.0,W*7A
$GPGGA,101313.948,5702.272,N,00955.735,E,1,12,1.0,0.0,M,0.0,M,,*65
$GPGSA,A,3,01,02,03,04,05,06,07,08,09,10,11,12,1.0,1.0,1.0*30
$GPRMC,101313.948,A,5702.272,N,00955.735,E,027.0,093.0,191218,000.0,W*7C
$GPGGA,101314.948,5702.271,N,00955.749,E,1,12,1.0,0.0,M,0.0,M,,*6A
$GPGSA,A,3,01,02,03,04,05,06,07,08,09,10,11,12,1.0,1.0,1.0*30
$GPRMC,101314.948,A,5702.271,N,00955.749,E,027.0,093.0,191218,000.0,W*73
$GPGGA,101315.948,5702.271,N,00955.763,E,1,12,1.0,0.0,M,0.0,M,,*63
$GPGSA,A,3,01,02,03,04,05,06,07,08,09,10,11,12,1.0,1.0,1.0*30
$GPRMC,101315.948,A,5702.271,N,00955.763,E,027.0,093.0,191218,000.0,W*7A
$GPGGA,101316.948,5702.270,N,00955.776,E,1,12,1.0,0.0,M,0.0,M,,*65
$GPGSA,A,3,01,02,03,04,05,06,07,08,09,10,11,12,1.0,1.0,1.0*30
$GPRMC,101316.948,A,5702.270,N,00955.776,E,027.0,093.0,191218,000.0,W*7C
$GPGGA,101317.948,5702.269,N,00955.790,E,1,12,1.0,0.0,M,0.0,M,,*64
$GPGSA,A,3,01,02,03,04,05,06,07,08,09,10,11,12,1.0,1.0,1.0*30
$GPRMC,101317.948,A,5702.269,N,00955.790,E,027.0,093.0,191218,000.0,W*7D
$GPGGA,101318.948,5702.269,N,00955.804,E,1,12,1.0,0.0,M,0.0,M,,*69
$GPGSA,A,3,01,02,03,04,05,06,07,08,09,10,11,12,1.0,1.0,1.0*30
$GPRMC,101318.948,A,5702.269,N,00955.804,E,027.0,093.0,191218,000.0,W*70
$GPGGA,101319.948,5702.268,N,00955.818,E,1,12,1.0,0.0,M,0.0,M,,*64
$GPGSA,A,3,01,02,03,04,05,06,07,08,09,10,11,12,1.0,1.0,1.0*30
$GPRMC,101319.948,A,5702.268,N,00955.818,E,027.0,093.0,191218,000.0,W*7D
$GPGGA,101320.948,5702.267,N,00955.831,E,1,12,1.0,0.0,M,0.0,M,,*6A
$GPGSA,A,3,01,02,03,04,05,06,07,08,09,10,11,12,1.0,1.0,1.0*30
$GPRMC,101320.948,A,5702.267,N,00955.831,E,027.0,093.0,191218,000.0,W*73
$GPGGA,101321.948,5702.266,N,00955.845,E,1,12,1.0,0.0,M,0.0,M,,*69
$GPGSA,A,3,01,02,03,04,05,06,07,08,09,10,11,12,1.0,1.0,1.0*30
$GPRMC,101321.948,A,5702.266,N,00955.845,E,027.0,093.0,191218,000.0,W*70
$GPGGA,101322.948,5702.266,N,00955.859,E,1,12,1.0,0.0,M,0.0,M,,*67
$GPGSA,A,3,01,02,03,04,05,06,07,08,09,10,11,12,1.0,1.0,1.0*30
$GPRMC,101322.948,A,5702.266,N,00955.859,E,027.0,093.0,191218,000.0,W*7E
$GPGGA,101323.948,5702.265,N,00955.872,E,1,12,1.0,0.0,M,0.0,M,,*6C
$GPGSA,A,3,01,02,03,04,05,06,07,08,09,10,11,12,1.0,1.0,1.0*30
$GPRMC,101323.948,A,5702.265,N,00955.872,E,043.2,188.4,191218,000.0,W*7A
$GPGGA,101324.948,5702.253,N,00955.871,E,1,12,1.0,0.0,M,0.0,M,,*6D
$GPGSA,A,3,01,02,03,04,05,06,07,08,09,10,11,12,1.0,1.0,1.0*30
$GPRMC,101324.948,A,5702.253,N,00955.871,E,043.2,188.4,191218,000.0,W*7B
$GPGGA,101325.948,5702.241,N,00955.869,E,1,12,1.0,0.0,M,0.0,M,,*66
$GPGSA,A,3,01,02,03,04,05,06,07,08,09,10,11,12,1.0,1.0,1.0*30
$GPRMC,101325.948,A,5702.241,N,00955.869,E,043.2,188.4,191218,000.0,W*70
$GPGGA,101326.948,5702.229,N,00955.867,E,1,12,1.0,0.0,M,0.0,M,,*65
$GPGSA,A,3,01,02,03,04,05,06,07,08,09,10,11,12,1.0,1.0,1.0*30
$GPRMC,101326.948,A,5702.229,N,00955.867,E,043.2,188.4,191218,000.0,W*73
$GPGGA,101327.948,5702.217,N,00955.865,E,1,12,1.0,0.0,M,0.0,M,,*6B
$GPGSA,A,3,01,02,03,04,05,06,07,08,09,10,11,12,1.0,1.0,1.0*30
$GPRMC,101327.948,A,5702.217,N,00955.865,E,043.2,188.4,191218,000.0,W*7D
$GPGGA,101328.948,5702.205,N,00955.863,E,1,12,1.0,0.0,M,0.0,M,,*61
$GPGSA,A,3,01,02,03,04,05,06,07,08,09,10,11,12,1.0,1.0,1.0*30
$GPRMC,101328.948,A,5702.205,N,00955.863,E,043.2,188.4,191218,000.0,W*77
$GPGGA,101329.948,5702.193,N,00955.862,E,1,12,1.0,0.0,M,0.0,M,,*6D
$GPGSA,A,3,01,02,03,04,05,06,07,08,09,10,11,12,1.0,1.0,1.0*30
$GPRMC,101329.948,A,5702.193,N,00955.862,E,043.2,188.4,191218,000.0,W*7B
$GPGGA,101330.948,5702.181,N,00955.860,E,1,12,1.0,0.0,M,0.0,M,,*64
$GPGSA,A,3,01,02,03,04,05,06,07,08,09,10,11,12,1.0,1.0,1.0*30
$GPRMC,101330.948,A,5702.181,N,00955.860,E,043.2,188.4,191218,000.0,W*72
$GPGGA,101331.948,5702.169,N,00955.858,E,1,12,1.0,0.0,M,0.0,M,,*68
$GPGSA,A,3,01,02,03,04,05,06,07,08,09,10,11,12,1.0,1.0,1.0*30
$GPRMC,101331.948,A,5702.169,N,00955.858,E,043.2,188.4,191218,000.0,W*7E
$GPGGA,101332.948,5702.157,N,00955.856,E,1,12,1.0,0.0,M,0.0,M,,*68
$GPGSA,A,3,01,02,03,04,05,06,07,08,09,10,11,12,1.0,1.0,1.0*30
$GPRMC,101332.948,A,5702.157,N,00955.856,E,043.2,188.4,191218,000.0,W*7E
$GPGGA,101333.948,5702.145,N,00955.855,E,1,12,1.0,0.0,M,0.0,M,,*69
$GPGSA,A,3,01,02,03,04,05,06,07,08,09,10,11,12,1.0,1.0,1.0*30
$GPRMC,101333.948,A,5702.145,N,00955.855,E,043.2,188.4,191218,000.0,W*7F
$GPGGA,101334.948,5702.133,N,00955.853,E,1,12,1.0,0.0,M,0.0,M,,*69
$GPGSA,A,3,01,02,03,04,05,06,07,08,09,10,11,12,1.0,1.0,1.0*30
$GPRMC,101334.948,A,5702.133,N,00955.853,E,043.2,188.4,191218,000.0,W*7F
$GPGGA,101335.948,5702.121,N,00955.851,E,1,12,1.0,0.0,M,0.0,M,,*69
$GPGSA,A,3,01,02,03,04,05,06,07,08,09,10,11,12,1.0,1.0,1.0*30
$GPRMC,101335.948,A,5702.121,N,00955.851,E,043.2,188.4,191218,000.0,W*7F
$GPGGA,101336.948,5702.110,N,00955.849,E,1,12,1.0,0.0,M,0.0,M,,*61
$GPGSA,A,3,01,02,03,04,05,06,07,08,09,10,11,12,1.0,1.0,1.0*30
$GPRMC,101336.948,A,5702.110,N,00955.849,E,043.2,188.4,191218,000.0,W*77
$GPGGA,101337.948,5702.098,N,00955.847,E,1,12,1.0,0.0,M,0.0,M,,*6F
$GPGSA,A,3,01,02,03,04,05,06,07,08,09,10,11,12,1.0,1.0,1.0*30
$GPRMC,101337.948,A,5702.098,N,00955.847,E,043.2,188.4,191218,000.0,W*79
$GPGGA,101338.948,5702.086,N,00955.846,E,1,12,1.0,0.0,M,0.0,M,,*6E
$GPGSA,A,3,01,02,03,04,05,06,07,08,09,10,11,12,1.0,1.0,1.0*30
$GPRMC,101338.948,A,5702.086,N,00955.846,E,043.2,211.4,191218,000.0,W*7B
$GPGGA,101339.948,5702.074,N,00955.839,E,1,12,1.0,0.0,M,0.0,M,,*6A
$GPGSA,A,3,01,02,03,04,05,06,07,08,09,10,11,12,1.0,1.0,1.0*30
$GPRMC,101339.948,A,5702.074,N,00955.839,E,043.2,211.4,191218,000.0,W*7F
$GPGGA,101340.948,5702.063,N,00955.832,E,1,12,1.0,0.0,M,0.0,M,,*69
$GPGSA,A,3,01,02,03,04,05,06,07,08,09,10,11,12,1.0,1.0,1.0*30
$GPRMC,101340.948,A,5702.063,N,00955.832,E,043.2,211.4,191218,000.0,W*7C
$GPGGA,101341.948,5702.051,N,00955.825,E,1,12,1.0,0.0,M,0.0,M,,*6F
$GPGSA,A,3,01,02,03,04,05,06,07,08,09,10,11,12,1.0,1.0,1.0*30
$GPRMC,101341.948,A,5702.051,N,00955.825,E,043.2,211.4,191218,000.0,W*7A
$GPGGA,101342.948,5702.040,N,00955.818,E,1,12,1.0,0.0,M,0.0,M,,*62
$GPGSA,A,3,01,02,03,04,05,06,07,08,09,10,11,12,1.0,1.0,1.0*30
$GPRMC,101342.948,A,5702.040,N,00955.818,E,043.2,211.4,191218,000.0,W*77
$GPGGA,101343.948,5702.029,N,00955.811,E,1,12,1.0,0.0,M,0.0,M,,*65
$GPGSA,A,3,01,02,03,04,05,06,07,08,09,10,11,12,1.0,1.0,1.0*30
$GPRMC,101343.948,A,5702.029,N,00955.811,E,043.2,211.4,191218,000.0,W*70
$GPGGA,101344.948,5702.017,N,00955.804,E,1,12,1.0,0.0,M,0.0,M,,*6B
$GPGSA,A,3,01,02,03,04,05,06,07,08,09,10,11,12,1.0,1.0,1.0*30
$GPRMC,101344.948,A,5702.017,N,00955.804,E,043.2,211.4,191218,000.0,W*7E
$GPGGA,101345.948,5702.006,N,00955.797,E,1,12,1.0,0.0,M,0.0,M,,*6F
$GPGSA,A,3,01,02,03,04,05,06,07,08,09,10,11,12,1.0,1.0,1.0*30
$GPRMC,101345.948,A,5702.006,N,00955.797,E,043.2,211.4,191218,000.0,W*7A
$GPGGA,101346.948,5701.995,N,00955.790,E,1,12,1.0,0.0,M,0.0,M,,*6B
$GPGSA,A,3,01,02,03,04,05,06,07,08,09,10,11,12,1.0,1.0,1.0*30
$GPRMC,101346.948,A,5701.995,N,00955.790,E,043.2,211.4,191218,000.0,W*7E
$GPGGA,101347.948,5701.983,N,00955.783,E,1,12,1.0,0.0,M,0.0,M,,*6F
$GPGSA,A,3,01,02,03,04,05,06,07,08,09,10,11,12,1.0,1.0,1.0*30
$GPRMC,101347.948,A,5701.983,N,00955.783,E,043.2,211.4,191218,000.0,W*7A
$GPGGA,101348.948,5701.972,N,00955.776,E,1,12,1.0,0.0,M,0.0,M,,*64
$GPGSA,A,3,01,02,03,04,05,06,07,08,09,10,11,12,1.0,1.0,1.0*30
$GPRMC,101348.948,A,5701.972,N,00955.776,E,043.2,211.4,191218,000.0,W*71
$GPGGA,101349.948,5701.961,N,00955.769,E,1,12,1.0,0.0,M,0.0,M,,*69
$GPGSA,A,3,01,02,03,04,05,06,07,08,09,10,11,12,1.0,1.0,1.0*30
$GPRMC,101349.948,A,5701.961,N,00955.769,E,043.2,211.4,191218,000.0,W*7C
$GPGGA,101350.948,5701.949,N,00955.762,E,1,12,1.0,0.0,M,0.0,M,,*60
$GPGSA,A,3,01,02,03,04,05,06,07,08,09,10,11,12,1.0,1.0,1.0*30
$GPRMC,101350.948,A,5701.949,N,00955.762,E,043.2,211.4,191218,000.0,W*75
$GPGGA,101351.948,5701.938,N,00955.755,E,1,12,1.0,0.0,M,0.0,M,,*63
$GPGSA,A,3,01,02,03,04,05,06,07,08,09,10,11,12,1.0,1.0,1.0*30
$GPRMC,101351.948,A,5701.938,N,00955.755,E,043.2,211.4,191218,000.0,W*76
$GPGGA,101352.948,5701.926,N,00955.748,E,1,12,1.0,0.0,M,0.0,M,,*63
$GPGSA,A,3,01,02,03,04,05,06,07,08,09,10,11,12,1.0,1.0,1.0*30
$GPRMC,101352.948,A,5701.926,N,00955.748,E,043.2,211.4,191218,000.0,W*76
$GPGGA,101353.948,5701.915,N,00955.741,E,1,12,1.0,0.0,M,0.0,M,,*6B
$GPGSA,A,3,01,02,03,04,05,06,07,08,09,10,11,12,1.0,1.0,1.0*30
$GPRMC,101353.948,A,5701.915,N,00955.741,E,043.2,211.4,191218,000.0,W*7E
$GPGGA,101354.948,5701.904,N,00955.734,E,1,12,1.0,0.0,M,0.0,M,,*6E
$GPGSA,A,3,01,02,03,04,05,06,07,08,09,10,11,12,1.0,1.0,1.0*30
$GPRMC,101354.948,A,5701.904,N,00955.734,E,043.2,211.4,191218,000.0,W*7B
$GPGGA,101355.948,5701.892,N,00955.727,E,1,12,1.0,0.0,M,0.0,M,,*63
$GPGSA,A,3,01,02,03,04,05,06,07,08,09,10,11,12,1.0,1.0,1.0*30
$GPRMC,101355.948,A,5701.892,N,00955.727,E,043.2,211.4,191218,000.0,W*76
$GPGGA,101356.948,5701.881,N,00955.720,E,1,12,1.0,0.0,M,0.0,M,,*65
$GPGSA,A,3,01,02,03,04,05,06,07,08,09,10,11,12,1.0,1.0,1.0*30
$GPRMC,101356.948,A,5701.881,N,00955.720,E,043.2,211.4,191218,000.0,W*70
$GPGGA,101357.948,5701.870,N,00955.713,E,1,12,1.0,0.0,M,0.0,M,,*6A
$GPGSA,A,3,01,02,03,04,05,06,07,08,09,10,11,12,1.0,1.0,1.0*30
$GPRMC,101357.948,A,5701.870,N,00955.713,E,070.2,216.3,191218,000.0,W*7F
$GPGGA,101358.948,5701.851,N,00955.700,E,1,12,1.0,0.0,M,0.0,M,,*64
$GPGSA,A,3,01,02,03,04,05,06,07,08,09,10,11,12,1.0,1.0,1.0*30
$GPRMC,101358.948,A,5701.851,N,00955.700,E,070.2,216.3,191218,000.0,W*71
$GPGGA,101359.948,5701.833,N,00955.686,E,1,12,1.0,0.0,M,0.0,M,,*6E
$GPGSA,A,3,01,02,03,04,05,06,07,08,09,10,11,12,1.0,1.0,1.0*30
$GPRMC,101359.948,A,5701.833,N,00955.686,E,070.2,216.3,191218,000.0,W*7B
$GPGGA,101400.948,5701.815,N,00955.673,E,1,12,1.0,0.0,M,0.0,M,,*6B
$GPGSA,A,3,01,02,03,04,05,06,07,08,09,10,11,12,1.0,1.0,1.0*30
$GPRMC,101400.948,A,5701.815,N,00955.673,E,070.2,216.3,191218,000.0,W*7E
$GPGGA,101401.948,5701.797,N,00955.660,E,1,12,1.0,0.0,M,0.0,M,,*6D
$GPGSA,A,3,01,02,03,04,05,06,07,08,09,10,11,12,1.0,1.0,1.0*30
$GPRMC,101401.948,A,5701.797,N,00955.660,E,070.2,216.3,191218,000.0,W*78
$GPGGA,101402.948,5701.779,N,00955.646,E,1,12,1.0,0.0,M,0.0,M,,*6A
$GPGSA,A,3,01,02,03,04,05,06,07,08,09,10,11,12,1.0,1.0,1.0*30
$GPRMC,101402.948,A,5701.779,N,00955.646,E,070.2,216.3,191218,000.0,W*7F
$GPGGA,101403.948,5701.761,N,00955.633,E,1,12,1.0,0.0,M,0.0,M,,*60
$GPGSA,A,3,01,02,03,04,05,06,07,08,09,10,11,12,1.0,1.0,1.0*30
$GPRMC,101403.948,A,5701.761,N,00955.633,E,070.2,216.3,191218,000.0,W*75
$GPGGA,101404.948,5701.743,N,00955.620,E,1,12,1.0,0.0,M,0.0,M,,*65
$GPGSA,A,3,01,02,03,04,05,06,07,08,09,10,11,12,1.0,1.0,1.0*30
$GPRMC,101404.948,A,5701.743,N,00955.620,E,070.2,216.3,191218,000.0,W*70
$GPGGA,101405.948,5701.725,N,00955.606,E,1,12,1.0,0.0,M,0.0,M,,*60
$GPGSA,A,3,01,02,03,04,05,06,07,08,09,10,11,12,1.0,1.0,1.0*30
$GPRMC,101405.948,A,5701.725,N,00955.606,E,070.2,216.3,191218,000.0,W*75
$GPGGA,101406.948,5701.707,N,00955.593,E,1,12,1.0,0.0,M,0.0,M,,*6C
$GPGSA,A,3,01,02,03,04,05,06,07,08,09,10,11,12,1.0,1.0,1.0*30
$GPRMC,101406.948,A,5701.707,N,00955.593,E,070.2,216.3,191218,000.0,W*79
$GPGGA,101407.948,5701.689,N,00955.580,E,1,12,1.0,0.0,M,0.0,M,,*68
$GPGSA,A,3,01,02,03,04,05,06,07,08,09,10,11,12,1.0,1.0,1.0*30
$GPRMC,101407.948,A,5701.689,N,00955.580,E,070.2,216.3,191218,000.0,W*7D
$GPGGA,101408.948,5701.671,N,00955.566,E,1,12,1.0,0.0,M,0.0,M,,*68
$GPGSA,A,3,01,02,03,04,05,06,07,08,09,10,11,12,1.0,1.0,1.0*30
$GPRMC,101408.948,A,5701.671,N,00955.566,E,070.2,216.3,191218,000.0,W*7D
$GPGGA,101409.948,5701.653,N,00955.553,E,1,12,1.0,0.0,M,0.0,M,,*6F
$GPGSA,A,3,01,02,03,04,05,06,07,08,09,10,11,12,1.0,1.0,1.0*30
$GPRMC,101409.948,A,5701.653,N,00955.553,E,070.2,216.3,191218,000.0,W*7A
$GPGGA,101410.948,5701.635,N,00955.539,E,1,12,1.0,0.0,M,0.0,M,,*6B
$GPGSA,A,3,01,02,03,04,05,06,07,08,09,10,11,12,1.0,1.0,1.0*30
$GPRMC,101410.948,A,5701.635,N,00955.539,E,070.2,193.3,191218,000.0,W*70
$GPGGA,101411.948,5701.615,N,00955.535,E,1,12,1.0,0.0,M,0.0,M,,*64
$GPGSA,A,3,01,02,03,04,05,06,07,08,09,10,11,12,1.0,1.0,1.0*30
$GPRMC,101411.948,A,5701.615,N,00955.535,E,070.2,193.3,191218,000.0,W*7F
$GPGGA,101412.948,5701.596,N,00955.530,E,1,12,1.0,0.0,M,0.0,M,,*6A
$GPGSA,A,3,01,02,03,04,05,06,07,08,09,10,11,12,1.0,1.0,1.0*30
$GPRMC,101412.948,A,5701.596,N,00955.530,E,070.2,193.3,191218,000.0,W*71
$GPGGA,101413.948,5701.577,N,00955.526,E,1,12,1.0,0.0,M,0.0,M,,*63
$GPGSA,A,3,01,02,03,04,05,06,07,08,09,10,11,12,1.0,1.0,1.0*30
$GPRMC,101413.948,A,5701.577,N,00955.526,E,070.2,193.3,191218,000.0,W*78
$GPGGA,101414.948,5701.557,N,00955.521,E,1,12,1.0,0.0,M,0.0,M,,*61
$GPGSA,A,3,01,02,03,04,05,06,07,08,09,10,11,12,1.0,1.0,1.0*30
$GPRMC,101414.948,A,5701.557,N,00955.521,E,070.2,193.3,191218,000.0,W*7A
$GPGGA,101415.948,5701.538,N,00955.517,E,1,12,1.0,0.0,M,0.0,M,,*6C
$GPGSA,A,3,01,02,03,04,05,06,07,08,09,10,11,12,1.0,1.0,1.0*30
$GPRMC,101415.948,A,5701.538,N,00955.517,E,070.2,193.3,191218,000.0,W*77
$GPGGA,101416.948,5701.519,N,00955.512,E,1,12,1.0,0.0,M,0.0,M,,*69
$GPGSA,A,3,01,02,03,04,05,06,07,08,09,10,11,12,1.0,1.0,1.0*30
$GPRMC,101416.948,A,5701.519,N,00955.512,E,070.2,193.3,191218,000.0,W*72
$GPGGA,101417.948,5701.499,N,00955.507,E,1,12,1.0,0.0,M,0.0,M,,*65
$GPGSA,A,3,01,02,03,04,05,06,07,08,09,10,11,12,1.0,1.0,1.0*30
$GPRMC,101417.948,A,5701.499,N,00955.507,E,070.2,193.3,191218,000.0,W*7E
$GPGGA,101418.948,5701.480,N,00955.503,E,1,12,1.0,0.0,M,0.0,M,,*66
$GPGSA,A,3,01,02,03,04,05,06,07,08,09,10,11,12,1.0,1.0,1.0*30
$GPRMC,101418.948,A,5701.480,N,00955.503,E,070.2,193.3,191218,000.0,W*7D
$GPGGA,101419.948,5701.461,N,00955.498,E,1,12,1.0,0.0,M,0.0,M,,*6B
$GPGSA,A,3,01,02,03,04,05,06,07,08,09,10,11,12,1.0,1.0,1.0*30
$GPRMC,101419.948,A,5701.461,N,00955.498,E,070.2,193.3,191218,000.0,W*70
$GPGGA,101420.948,5701.441,N,00955.494,E,1,12,1.0,0.0,M,0.0,M,,*6F
$GPGSA,A,3,01,02,03,04,05,06,07,08,09,10,11,12,1.0,1.0,1.0*30
$GPRMC,101420.948,A,5701.441,N,00955.494,E,070.2,193.3,191218,000.0,W*74
$GPGGA,101421.948,5701.422,N,00955.489,E,1,12,1.0,0.0,M,0.0,M,,*67
$GPGSA,A,3,01,02,03,04,05,06,07,08,09,10,11,12,1.0,1.0,1.0*30
$GPRMC,101421.948,A,5701.422,N,00955.489,E,070.2,193.3,191218,000.0,W*7C
$GPGGA,101422.948,5701.403,N,00955.484,E,1,12,1.0,0.0,M,0.0,M,,*6A
$GPGSA,A,3,01,02,03,04,05,06,07,08,09,10,11,12,1.0,1.0,1.0*30
$GPRMC,101422.948,A,5701.403,N,00955.484,E,070.2,193.3,191218,000.0,W*71
$GPGGA,101423.948,5701.383,N,00955.480,E,1,12,1.0,0.0,M,0.0,M,,*60
$GPGSA,A,3,01,02,03,04,05,06,07,08,09,10,11,12,1.0,1.0,1.0*30
$GPRMC,101423.948,A,5701.383,N,00955.480,E,070.2,193.3,191218,000.0,W*7B
$GPGGA,101424.948,5701.364,N,00955.475,E,1,12,1.0,0.0,M,0.0,M,,*64
$GPGSA,A,3,01,02,03,04,05,06,07,08,09,10,11,12,1.0,1.0,1.0*30
$GPRMC,101424.948,A,5701.364,N,00955.475,E,070.2,193.3,191218,000.0,W*7F
$GPGGA,101425.948,5701.345,N,00955.471,E,1,12,1.0,0.0,M,0.0,M,,*62
$GPGSA,A,3,01,02,03,04,05,06,07,08,09,10,11,12,1.0,1.0,1.0*30
$GPRMC,101425.948,A,5701.345,N,00955.471,E,070.2,193.3,191218,000.0,W*79
$GPGGA,101426.948,5701.325,N,00955.466,E,1,12,1.0,0.0,M,0.0,M,,*61
$GPGSA,A,3,01,02,03,04,05,06,07,08,09,10,11,12,1.0,1.0,1.0*30
$GPRMC,101426.948,A,5701.325,N,00955.466,E,070.2,193.3,191218,000.0,W*7A
$GPGGA,101427.948,5701.306,N,00955.462,E,1,12,1.0,0.0,M,0.0,M,,*65
$GPGSA,A,3,01,02,03,04,05,06,07,08,09,10,11,12,1.0,1.0,1.0*30
$GPRMC,101427.948,A,5701.306,N,00955.462,E,070.2,193.3,191218,000.0,W*7E
$GPGGA,101428.948,5701.287,N,00955.457,E,1,12,1.0,0.0,M,0.0,M,,*64
$GPGSA,A,3,01,02,03,04,05,06,07,08,09,10,11,12,1.0,1.0,1.0*30
$GPRMC,101428.948,A,5701.287,N,00955.457,E,070.2,193.3,191218,000.0,W*7F
$GPGGA,101429.948,5701.267,N,00955.452,E,1,12,1.0,0.0,M,0.0,M,,*6E
$GPGSA,A,3,01,02,03,04,05,06,07,08,09,10,11,12,1.0,1.0,1.0*30
$GPRMC,101429.948,A,5701.267,N,00955.452,E,070.2,193.3,191218,000.0,W*75
$GPGGA,101430.948,5701.248,N,00955.448,E,1,12,1.0,0.0,M,0.0,M,,*60
$GPGSA,A,3,01,02,03,04,05,06,07,08,09,10,11,12,1.0,1.0,1.0*30
$GPRMC,101430.948,A,5701.248,N,00955.448,E,070.2,193.3,191218,000.0,W*7B
$GPGGA,101431.948,5701.229,N,00955.443,E,1,12,1.0,0.0,M,0.0,M,,*6D
$GPGSA,A,3,01,02,03,04,05,06,07,08,09,10,11,12,1.0,1.0,1.0*30
$GPRMC,101431.948,A,5701.229,N,00955.443,E,070.2,193.3,191218,000.0,W*76
$GPGGA,101432.948,5701.209,N,00955.439,E,1,12,1.0,0.0,M,0.0,M,,*61
$GPGSA,A,3,01,02,03,04,05,06,07,08,09,10,11,12,1.0,1.0,1.0*30
$GPRMC,101432.948,A,5701.209,N,00955.439,E,070.2,193.3,191218,000.0,W*7A
$GPGGA,101433.948,5701.190,N,00955.434,E,1,12,1.0,0.0,M,0.0,M,,*6E
$GPGSA,A,3,01,02,03,04,05,06,07,08,09,10,11,12,1.0,1.0,1.0*30
$GPRMC,101433.948,A,5701.190,N,00955.434,E,070.2,193.3,191218,000.0,W*75
$GPGGA,101434.948,5701.171,N,00955.429,E,1,12,1.0,0.0,M,0.0,M,,*6A
$GPGSA,A,3,01,02,03,04,05,06,07,08,09,10,11,12,1.0,1.0,1.0*30
$GPRMC,101434.948,A,5701.171,N,00955.429,E,070.2,193.3,191218,000.0,W*71
$GPGGA,101435.948,5701.151,N,00955.425,E,1,12,1.0,0.0,M,0.0,M,,*65
$GPGSA,A,3,01,02,03,04,05,06,07,08,09,10,11,12,1.0,1.0,1.0*30
$GPRMC,101435.948,A,5701.151,N,00955.425,E,070.2,193.3,191218,000.0,W*7E
$GPGGA,101436.948,5701.132,N,00955.420,E,1,12,1.0,0.0,M,0.0,M,,*66
$GPGSA,A,3,01,02,03,04,05,06,07,08,09,10,11,12,1.0,1.0,1.0*30
$GPRMC,101436.948,A,5701.132,N,00955.420,E,070.2,193.3,191218,000.0,W*7D
$GPGGA,101437.948,5701.113,N,00955.416,E,1,12,1.0,0.0,M,0.0,M,,*61
$GPGSA,A,3,01,02,03,04,05,06,07,08,09,10,11,12,1.0,1.0,1.0*30
$GPRMC,101437.948,A,5701.113,N,00955.416,E,070.2,193.3,191218,000.0,W*7A
$GPGGA,101438.948,5701.093,N,00955.411,E,1,12,1.0,0.0,M,0.0,M,,*60
$GPGSA,A,3,01,02,03,04,05,06,07,08,09,10,11,12,1.0,1.0,1.0*30
$GPRMC,101438.948,A,5701.093,N,00955.411,E,070.2,193.3,191218,000.0,W*7B
$GPGGA,101439.948,5701.074,N,00955.407,E,1,12,1.0,0.0,M,0.0,M,,*6F
$GPGSA,A,3,01,02,03,04,05,06,07,08,09,10,11,12,1.0,1.0,1.0*30
$GPRMC,101439.948,A,5701.074,N,00955.407,E,070.2,193.3,191218,000.0,W*74
$GPGGA,101440.948,5701.055,N,00955.402,E,1,12,1.0,0.0,M,0.0,M,,*67
$GPGSA,A,3,01,02,03,04,05,06,07,08,09,10,11,12,1.0,1.0,1.0*30
$GPRMC,101440.948,A,5701.055,N,00955.402,E,070.2,193.3,191218,000.0,W*7C
$GPGGA,101441.948,5701.035,N,00955.397,E,1,12,1.0,0.0,M,0.0,M,,*6B
$GPGSA,A,3,01,02,03,04,05,06,07,08,09,10,11,12,1.0,1.0,1.0*30
$GPRMC,101441.948,A,5701.035,N,00955.397,E,070.2,184.8,191218,000.0,W*7D
$GPGGA,101442.948,5701.016,N,00955.396,E,1,12,1.0,0.0,M,0.0,M,,*68
$GPGSA,A,3,01,02,03,04,05,06,07,08,09,10,11,12,1.0,1.0,1.0*30
$GPRMC,101442.948,A,5701.016,N,00955.396,E,070.2,184.8,191218,000.0,W*7E
$GPGGA,101443.948,5700.996,N,00955.394,E,1,12,1.0,0.0,M,0.0,M,,*6B
$GPGSA,A,3,01,02,03,04,05,06,07,08,09,10,11,12,1.0,1.0,1.0*30
$GPRMC,101443.948,A,5700.996,N,00955.394,E,070.2,184.8,191218,000.0,W*7D
$GPGGA,101444.948,5700.977,N,00955.393,E,1,12,1.0,0.0,M,0.0,M,,*64
$GPGSA,A,3,01,02,03,04,05,06,07,08,09,10,11,12,1.0,1.0,1.0*30
$GPRMC,101444.948,A,5700.977,N,00955.393,E,070.2,184.8,191218,000.0,W*72
$GPGGA,101445.948,5700.958,N,00955.391,E,1,12,1.0,0.0,M,0.0,M,,*6A
$GPGSA,A,3,01,02,03,04,05,06,07,08,09,10,11,12,1.0,1.0,1.0*30
$GPRMC,101445.948,A,5700.958,N,00955.391,E,070.2,184.8,191218,000.0,W*7C
$GPGGA,101446.948,5700.938,N,00955.389,E,1,12,1.0,0.0,M,0.0,M,,*66
$GPGSA,A,3,01,02,03,04,05,06,07,08,09,10,11,12,1.0,1.0,1.0*30
$GPRMC,101446.948,A,5700.938,N,00955.389,E,070.2,184.8,191218,000.0,W*70
$GPGGA,101447.948,5700.919,N,00955.388,E,1,12,1.0,0.0,M,0.0,M,,*65
$GPGSA,A,3,01,02,03,04,05,06,07,08,09,10,11,12,1.0,1.0,1.0*30
$GPRMC,101447.948,A,5700.919,N,00955.388,E,070.2,184.8,191218,000.0,W*73
$GPGGA,101448.948,5700.899,N,00955.386,E,1,12,1.0,0.0,M,0.0,M,,*6D
$GPGSA,A,3,01,02,03,04,05,06,07,08,09,10,11,12,1.0,1.0,1.0*30
$GPRMC,101448.948,A,5700.899,N,00955.386,E,070.2,184.8,191218,000.0,W*7B
$GPGGA,101449.948,5700.880,N,00955.384,E,1,12,1.0,0.0,M,0.0,M,,*66
$GPGSA,A,3,01,02,03,04,05,06,07,08,09,10,11,12,1.0,1.0,1.0*30
$GPRMC,101449.948,A,5700.880,N,00955.384,E,070.2,184.8,191218,000.0,W*70
$GPGGA,101450.948,5700.860,N,00955.383,E,1,12,1.0,0.0,M,0.0,M,,*67
$GPGSA,A,3,01,02,03,04,05,06,07,08,09,10,11,12,1.0,1.0,1.0*30
$GPRMC,101450.948,A,5700.860,N,00955.383,E,070.2,184.8,191218,000.0,W*71
$GPGGA,101451.948,5700.841,N,00955.381,E,1,12,1.0,0.0,M,0.0,M,,*67
$GPGSA,A,3,01,02,03,04,05,06,07,08,09,10,11,12,1.0,1.0,1.0*30
$GPRMC,101451.948,A,5700.841,N,00955.381,E,070.2,184.8,191218,000.0,W*71
$GPGGA,101452.948,5700.821,N,00955.380,E,1,12,1.0,0.0,M,0.0,M,,*63
$GPGSA,A,3,01,02,03,04,05,06,07,08,09,10,11,12,1.0,1.0,1.0*30
$GPRMC,101452.948,A,5700.821,N,00955.380,E,070.2,184.8,191218,000.0,W*75
$GPGGA,101453.948,5700.802,N,00955.378,E,1,12,1.0,0.0,M,0.0,M,,*64
$GPGSA,A,3,01,02,03,04,05,06,07,08,09,10,11,12,1.0,1.0,1.0*30
$GPRMC,101453.948,A,5700.802,N,00955.378,E,070.2,184.8,191218,000.0,W*72
$GPGGA,101454.948,5700.782,N,00955.376,E,1,12,1.0,0.0,M,0.0,M,,*6A
$GPGSA,A,3,01,02,03,04,05,06,07,08,09,10,11,12,1.0,1.0,1.0*30
$GPRMC,101454.948,A,5700.782,N,00955.376,E,070.2,184.8,191218,000.0,W*7C
$GPGGA,101455.948,5700.763,N,00955.375,E,1,12,1.0,0.0,M,0.0,M,,*67
$GPGSA,A,3,01,02,03,04,05,06,07,08,09,10,11,12,1.0,1.0,1.0*30
$GPRMC,101455.948,A,5700.763,N,00955.375,E,070.2,184.8,191218,000.0,W*71
$GPGGA,101456.948,5700.743,N,00955.373,E,1,12,1.0,0.0,M,0.0,M,,*60
$GPGSA,A,3,01,02,03,04,05,06,07,08,09,10,11,12,1.0,1.0,1.0*30
$GPRMC,101456.948,A,5700.743,N,00955.373,E,070.2,184.8,191218,000.0,W*76
$GPGGA,101457.948,5700.724,N,00955.371,E,1,12,1.0,0.0,M,0.0,M,,*62
$GPGSA,A,3,01,02,03,04,05,06,07,08,09,10,11,12,1.0,1.0,1.0*30
$GPRMC,101457.948,A,5700.724,N,00955.371,E,070.2,184.8,191218,000.0,W*74
$GPGGA,101458.948,5700.705,N,00955.370,E,1,12,1.0,0.0,M,0.0,M,,*6F
$GPGSA,A,3,01,02,03,04,05,06,07,08,09,10,11,12,1.0,1.0,1.0*30
$GPRMC,101458.948,A,5700.705,N,00955.370,E,070.2,184.8,191218,000.0,W*79
$GPGGA,101459.948,5700.685,N,00955.368,E,1,12,1.0,0.0,M,0.0,M,,*6E
$GPGSA,A,3,01,02,03,04,05,06,07,08,09,10,11,12,1.0,1.0,1.0*30
$GPRMC,101459.948,A,5700.685,N,00955.368,E,070.2,237.7,191218,000.0,W*7C
$GPGGA,101500.948,5700.670,N,00955.345,E,1,12,1.0,0.0,M,0.0,M,,*66
$GPGSA,A,3,01,02,03,04,05,06,07,08,09,10,11,12,1.0,1.0,1.0*30
$GPRMC,101500.948,A,5700.670,N,00955.345,E,070.2,237.7,191218,000.0,W*74
$GPGGA,101501.948,5700.656,N,00955.321,E,1,12,1.0,0.0,M,0.0,M,,*61
$GPGSA,A,3,01,02,03,04,05,06,07,08,09,10,11,12,1.0,1.0,1.0*30
$GPRMC,101501.948,A,5700.656,N,00955.321,E,070.2,237.7,191218,000.0,W*73
