$GPGGA,102602.229,5528.079,N,00827.478,E,1,12,1.0,0.0,M,0.0,M,,*62
$GPGSA,A,3,01,02,03,04,05,06,07,08,09,10,11,12,1.0,1.0,1.0*30
$GPRMC,102602.229,A,5528.079,N,00827.478,E,097.2,020.4,191218,000.0,W*7E
$GPGGA,102603.229,5528.105,N,00827.488,E,1,12,1.0,0.0,M,0.0,M,,*66
$GPGSA,A,3,01,02,03,04,05,06,07,08,09,10,11,12,1.0,1.0,1.0*30
$GPRMC,102603.229,A,5528.105,N,00827.488,E,097.2,020.4,191218,000.0,W*7A
$GPGGA,102604.229,5528.132,N,00827.498,E,1,12,1.0,0.0,M,0.0,M,,*64
$GPGSA,A,3,01,02,03,04,05,06,07,08,09,10,11,12,1.0,1.0,1.0*30
$GPRMC,102604.229,A,5528.132,N,00827.498,E,097.2,020.4,191218,000.0,W*78
$GPGGA,102605.229,5528.158,N,00827.508,E,1,12,1.0,0.0,M,0.0,M,,*61
$GPGSA,A,3,01,02,03,04,05,06,07,08,09,10,11,12,1.0,1.0,1.0*30
$GPRMC,102605.229,A,5528.158,N,00827.508,E,097.2,020.4,191218,000.0,W*7D
$GPGGA,102606.229,5528.184,N,00827.518,E,1,12,1.0,0.0,M,0.0,M,,*62
$GPGSA,A,3,01,02,03,04,05,06,07,08,09,10,11,12,1.0,1.0,1.0*30
$GPRMC,102606.229,A,5528.184,N,00827.518,E,097.2,020.4,191218,000.0,W*7E
$GPGGA,102607.229,5528.211,N,00827.528,E,1,12,1.0,0.0,M,0.0,M,,*6F
$GPGSA,A,3,01,02,03,04,05,06,07,08,09,10,11,12,1.0,1.0,1.0*30
$GPRMC,102607.229,A,5528.211,N,00827.528,E,097.2,020.4,191218,000.0,W*73
$GPGGA,102608.229,5528.237,N,00827.537,E,1,12,1.0,0.0,M,0.0,M,,*6A
$GPGSA,A,3,01,02,03,04,05,06,07,08,09,10,11,12,1.0,1.0,1.0*30
$GPRMC,102608.229,A,5528.237,N,00827.537,E,097.2,020.4,191218,000.0,W*76
$GPGGA,102609.229,5528.264,N,00827.547,E,1,12,1.0,0.0,M,0.0,M,,*6A
$GPGSA,A,3,01,02,03,04,05,06,07,08,09,10,11,12,1.0,1.0,1.0*30
$GPRMC,102609.229,A,5528.264,N,00827.547,E,097.2,093.0,191218,000.0,W*7A
$GPGGA,102610.229,5528.261,N,00827.595,E,1,12,1.0,0.0,M,0.0,M,,*68
$GPGSA,A,3,01,02,03,04,05,06,07,08,09,10,11,12,1.0,1.0,1.0*30
$GPRMC,102610.229,A,5528.261,N,00827.595,E,097.2,093.0,191218,000.0,W*78
$GPGGA,102611.229,5528.259,N,00827.642,E,1,12,1.0,0.0,M,0.0,M,,*6B
$GPGSA,A,3,01,02,03,04,05,06,07,08,09,10,11,12,1.0,1.0,1.0*30
$GPRMC,102611.229,A,5528.259,N,00827.642,E,097.2,093.0,191218,000.0,W*7B
$GPGGA,102612.229,5528.256,N,00827.690,E,1,12,1.0,0.0,M,0.0,M,,*68
$GPGSA,A,3,01,02,03,04,05,06,07,08,09,10,11,12,1.0,1.0,1.0*30
$GPRMC,102612.229,A,5528.256,N,00827.690,E,097.2,093.0,191218,000.0,W*78
$GPGGA,102613.229,5528.254,N,00827.737,E,1,12,1.0,0.0,M,0.0,M,,*67
$GPGSA,A,3,01,02,03,04,05,06,07,08,09,10,11,12,1.0,1.0,1.0*30
$GPRMC,102613.229,A,5528.254,N,00827.737,E,097.2,093.0,191218,000.0,W*77
$GPGGA,102614.229,5528.251,N,00827.784,E,1,12,1.0,0.0,M,0.0,M,,*6D
$GPGSA,A,3,01,02,03,04,05,06,07,08,09,10,11,12,1.0,1.0,1.0*30
$GPRMC,102614.229,A,5528.251,N,00827.784,E,097.2,093.0,191218,000.0,W*7D
$GPGGA,102615.229,5528.249,N,00827.832,E,1,12,1.0,0.0,M,0.0,M,,*67
$GPGSA,A,3,01,02,03,04,05,06,07,08,09,10,11,12,1.0,1.0,1.0*30
$GPRMC,102615.229,A,5528.249,N,00827.832,E,155.5,073.8,191218,000.0,W*79
$GPGGA,102616.229,5528.268,N,00827.900,E,1,12,1.0,0.0,M,0.0,M,,*67
$GPGSA,A,3,01,02,03,04,05,06,07,08,09,10,11,12,1.0,1.0,1.0*30
$GPRMC,102616.229,A,5528.268,N,00827.900,E,155.5,073.8,191218,000.0,W*79
$GPGGA,102617.229,5528.288,N,00827.968,E,1,12,1.0,0.0,M,0.0,M,,*66
$GPGSA,A,3,01,02,03,04,05,06,07,08,09,10,11,12,1.0,1.0,1.0*30
$GPRMC,102617.229,A,5528.288,N,00827.968,E,155.5,073.8,191218,000.0,W*78
$GPGGA,102618.229,5528.307,N,00828.035,E,1,12,1.0,0.0,M,0.0,M,,*61
$GPGSA,A,3,01,02,03,04,05,06,07,08,09,10,11,12,1.0,1.0,1.0*30
$GPRMC,102618.229,A,5528.307,N,00828.035,E,155.5,073.8,191218,000.0,W*7F
$GPGGA,102619.229,5528.327,N,00828.103,E,1,12,1.0,0.0,M,0.0,M,,*66
$GPGSA,A,3,01,02,03,04,05,06,07,08,09,10,11,12,1.0,1.0,1.0*30
$GPRMC,102619.229,A,5528.327,N,00828.103,E,155.5,073.8,191218,000.0,W*78
$GPGGA,102620.229,5528.347,N,00828.171,E,1,12,1.0,0.0,M,0.0,M,,*6F
$GPGSA,A,3,01,02,03,04,05,06,07,08,09,10,11,12,1.0,1.0,1.0*30
$GPRMC,102620.229,A,5528.347,N,00828.171,E,155.5,073.8,191218,000.0,W*71
$GPGGA,102621.229,5528.366,N,00828.239,E,1,12,1.0,0.0,M,0.0,M,,*62
$GPGSA,A,3,01,02,03,04,05,06,07,08,09,10,11,12,1.0,1.0,1.0*30
$GPRMC,102621.229,A,5528.366,N,00828.239,E,155.5,073.8,191218,000.0,W*7C
$GPGGA,102622.229,5528.386,N,00828.307,E,1,12,1.0,0.0,M,0.0,M,,*63
$GPGSA,A,3,01,02,03,04,05,06,07,08,09,10,11,12,1.0,1.0,1.0*30
$GPRMC,102622.229,A,5528.386,N,00828.307,E,155.5,073.8,191218,000.0,W*7D
$GPGGA,102623.229,5528.405,N,00828.375,E,1,12,1.0,0.0,M,0.0,M,,*6B
$GPGSA,A,3,01,02,03,04,05,06,07,08,09,10,11,12,1.0,1.0,1.0*30
$GPRMC,102623.229,A,5528.405,N,00828.375,E,155.5,073.8,191218,000.0,W*75
$GPGGA,102624.229,5528.425,N,00828.443,E,1,12,1.0,0.0,M,0.0,M,,*6C
$GPGSA,A,3,01,02,03,04,05,06,07,08,09,10,11,12,1.0,1.0,1.0*30
$GPRMC,102624.229,A,5528.425,N,00828.443,E,155.5,073.8,191218,000.0,W*72
$GPGGA,102625.229,5528.444,N,00828.511,E,1,12,1.0,0.0,M,0.0,M,,*6C
$GPGSA,A,3,01,02,03,04,05,06,07,08,09,10,11,12,1.0,1.0,1.0*30
$GPRMC,102625.229,A,5528.444,N,00828.511,E,155.5,073.8,191218,000.0,W*72
$GPGGA,102626.229,5528.464,N,00828.579,E,1,12,1.0,0.0,M,0.0,M,,*63
$GPGSA,A,3,01,02,03,04,05,06,07,08,09,10,11,12,1.0,1.0,1.0*30
$GPRMC,102626.229,A,5528.464,N,00828.579,E,155.5,073.8,191218,000.0,W*7D
$GPGGA,102627.229,5528.484,N,00828.646,E,1,12,1.0,0.0,M,0.0,M,,*63
$GPGSA,A,3,01,02,03,04,05,06,07,08,09,10,11,12,1.0,1.0,1.0*30
$GPRMC,102627.229,A,5528.484,N,00828.646,E,155.5,073.8,191218,000.0,W*7D
$GPGGA,102628.229,5528.503,N,00828.714,E,1,12,1.0,0.0,M,0.0,M,,*64
$GPGSA,A,3,01,02,03,04,05,06,07,08,09,10,11,12,1.0,1.0,1.0*30
$GPRMC,102628.229,A,5528.503,N,00828.714,E,155.5,073.8,191218,000.0,W*7A
$GPGGA,102629.229,5528.523,N,00828.782,E,1,12,1.0,0.0,M,0.0,M,,*68
$GPGSA,A,3,01,02,03,04,05,06,07,08,09,10,11,12,1.0,1.0,1.0*30
$GPRMC,102629.229,A,5528.523,N,00828.782,E,155.5,073.8,191218,000.0,W*76
$GPGGA,102630.229,5528.542,N,00828.850,E,1,12,1.0,0.0,M,0.0,M,,*67
$GPGSA,A,3,01,02,03,04,05,06,07,08,09,10,11,12,1.0,1.0,1.0*30
$GPRMC,102630.229,A,5528.542,N,00828.850,E,155.5,073.8,191218,000.0,W*79
$GPGGA,102631.229,5528.562,N,00828.918,E,1,12,1.0,0.0,M,0.0,M,,*69
$GPGSA,A,3,01,02,03,04,05,06,07,08,09,10,11,12,1.0,1.0,1.0*30
$GPRMC,102631.229,A,5528.562,N,00828.918,E,155.5,073.8,191218,000.0,W*77
$GPGGA,102632.229,5528.581,N,00828.986,E,1,12,1.0,0.0,M,0.0,M,,*60
$GPGSA,A,3,01,02,03,04,05,06,07,08,09,10,11,12,1.0,1.0,1.0*30
$GPRMC,102632.229,A,5528.581,N,00828.986,E,155.5,073.8,191218,000.0,W*7E
$GPGGA,102633.229,5528.601,N,00829.054,E,1,12,1.0,0.0,M,0.0,M,,*6D
$GPGSA,A,3,01,02,03,04,05,06,07,08,09,10,11,12,1.0,1.0,1.0*30
$GPRMC,102633.229,A,5528.601,N,00829.054,E,155.5,073.8,191218,000.0,W*73
$GPGGA,102634.229,5528.621,N,00829.122,E,1,12,1.0,0.0,M,0.0,M,,*68
$GPGSA,A,3,01,02,03,04,05,06,07,08,09,10,11,12,1.0,1.0,1.0*30
$GPRMC,102634.229,A,5528.621,N,00829.122,E,155.5,073.8,191218,000.0,W*76
$GPGGA,102635.229,5528.640,N,00829.190,E,1,12,1.0,0.0,M,0.0,M,,*67
$GPGSA,A,3,01,02,03,04,05,06,07,08,09,10,11,12,1.0,1.0,1.0*30
$GPRMC,102635.229,A,5528.640,N,00829.190,E,155.5,073.8,191218,000.0,W*79
$GPGGA,102636.229,5528.660,N,00829.257,E,1,12,1.0,0.0,M,0.0,M,,*6E
$GPGSA,A,3,01,02,03,04,05,06,07,08,09,10,11,12,1.0,1.0,1.0*30
$GPRMC,102636.229,A,5528.660,N,00829.257,E,155.5,073.8,191218,000.0,W*70
$GPGGA,102637.229,5528.679,N,00829.325,E,1,12,1.0,0.0,M,0.0,M,,*63
$GPGSA,A,3,01,02,03,04,05,06,07,08,09,10,11,12,1.0,1.0,1.0*30
$GPRMC,102637.229,A,5528.679,N,00829.325,E,155.5,073.8,191218,000.0,W*7D
$GPGGA,102638.229,5528.699,N,00829.393,E,1,12,1.0,0.0,M,0.0,M,,*6F
$GPGSA,A,3,01,02,03,04,05,06,07,08,09,10,11,12,1.0,1.0,1.0*30
$GPRMC,102638.229,A,5528.699,N,00829.393,E,155.5,073.8,191218,000.0,W*71
$GPGGA,102639.229,5528.718,N,00829.461,E,1,12,1.0,0.0,M,0.0,M,,*6C
$GPGSA,A,3,01,02,03,04,05,06,07,08,09,10,11,12,1.0,1.0,1.0*30
$GPRMC,102639.229,A,5528.718,N,00829.461,E,155.5,073.8,191218,000.0,W*72
$GPGGA,102640.229,5528.738,N,00829.529,E,1,12,1.0,0.0,M,0.0,M,,*6D
$GPGSA,A,3,01,02,03,04,05,06,07,08,09,10,11,12,1.0,1.0,1.0*30
$GPRMC,102640.229,A,5528.738,N,00829.529,E,155.5,073.8,191218,000.0,W*73
$GPGGA,102641.229,5528.758,N,00829.597,E,1,12,1.0,0.0,M,0.0,M,,*6F
$GPGSA,A,3,01,02,03,04,05,06,07,08,09,10,11,12,1.0,1.0,1.0*30
$GPRMC,102641.229,A,5528.758,N,00829.597,E,155.5,073.8,191218,000.0,W*71
$GPGGA,102642.229,5528.777,N,00829.665,E,1,12,1.0,0.0,M,0.0,M,,*6F
$GPGSA,A,3,01,02,03,04,05,06,07,08,09,10,11,12,1.0,1.0,1.0*30
$GPRMC,102642.229,A,5528.777,N,00829.665,E,155.5,073.8,191218,000.0,W*71
$GPGGA,102643.229,5528.797,N,00829.733,E,1,12,1.0,0.0,M,0.0,M,,*62
$GPGSA,A,3,01,02,03,04,05,06,07,08,09,10,11,12,1.0,1.0,1.0*30
$GPRMC,102643.229,A,5528.797,N,00829.733,E,155.5,073.8,191218,000.0,W*7C
$GPGGA,102644.229,5528.816,N,00829.800,E,1,12,1.0,0.0,M,0.0,M,,*6C
$GPGSA,A,3,01,02,03,04,05,06,07,08,09,10,11,12,1.0,1.0,1.0*30
$GPRMC,102644.229,A,5528.816,N,00829.800,E,155.5,073.8,191218,000.0,W*72
$GPGGA,102645.229,5528.836,N,00829.868,E,1,12,1.0,0.0,M,0.0,M,,*61
$GPGSA,A,3,01,02,03,04,05,06,07,08,09,10,11,12,1.0,1.0,1.0*30
$GPRMC,102645.229,A,5528.836,N,00829.868,E,155.5,073.8,191218,000.0,W*7F
$GPGGA,102646.229,5528.855,N,00829.936,E,1,12,1.0,0.0,M,0.0,M,,*6D
$GPGSA,A,3,01,02,03,04,05,06,07,08,09,10,11,12,1.0,1.0,1.0*30
$GPRMC,102646.229,A,5528.855,N,00829.936,E,155.5,073.8,191218,000.0,W*73
$GPGGA,102647.229,5528.875,N,00830.004,E,1,12,1.0,0.0,M,0.0,M,,*6E
$GPGSA,A,3,01,02,03,04,05,06,07,08,09,10,11,12,1.0,1.0,1.0*30
$GPRMC,102647.229,A,5528.875,N,00830.004,E,155.5,073.8,191218,000.0,W*70
$GPGGA,102648.229,5528.895,N,00830.072,E,1,12,1.0,0.0,M,0.0,M,,*6E
$GPGSA,A,3,01,02,03,04,05,06,07,08,09,10,11,12,1.0,1.0,1.0*30
$GPRMC,102648.229,A,5528.895,N,00830.072,E,155.5,058.6,191218,000.0,W*77
$GPGGA,102649.229,5528.926,N,00830.124,E,1,12,1.0,0.0,M,0.0,M,,*64
$GPGSA,A,3,01,02,03,04,05,06,07,08,09,10,11,12,1.0,1.0,1.0*30
$GPRMC,102649.229,A,5528.926,N,00830.124,E,155.5,058.6,191218,000.0,W*7D
$GPGGA,102650.229,5528.958,N,00830.176,E,1,12,1.0,0.0,M,0.0,M,,*62
$GPGSA,A,3,01,02,03,04,05,06,07,08,09,10,11,12,1.0,1.0,1.0*30
$GPRMC,102650.229,A,5528.958,N,00830.176,E,155.5,058.6,191218,000.0,W*7B
$GPGGA,102651.229,5528.989,N,00830.228,E,1,12,1.0,0.0,M,0.0,M,,*67
$GPGSA,A,3,01,02,03,04,05,06,07,08,09,10,11,12,1.0,1.0,1.0*30
$GPRMC,102651.229,A,5528.989,N,00830.228,E,155.5,058.6,191218,000.0,W*7E
$GPGGA,102652.229,5529.021,N,00830.280,E,1,12,1.0,0.0,M,0.0,M,,*6C
$GPGSA,A,3,01,02,03,04,05,06,07,08,09,10,11,12,1.0,1.0,1.0*30
$GPRMC,102652.229,A,5529.021,N,00830.280,E,155.5,058.6,191218,000.0,W*75
$GPGGA,102653.229,5529.052,N,00830.332,E,1,12,1.0,0.0,M,0.0,M,,*61
$GPGSA,A,3,01,02,03,04,05,06,07,08,09,10,11,12,1.0,1.0,1.0*30
$GPRMC,102653.229,A,5529.052,N,00830.332,E,252.7,342.4,191218,000.0,W*74
$GPGGA,102654.229,5529.121,N,00830.310,E,1,12,1.0,0.0,M,0.0,M,,*63
$GPGSA,A,3,01,02,03,04,05,06,07,08,09,10,11,12,1.0,1.0,1.0*30
$GPRMC,102654.229,A,5529.121,N,00830.310,E,252.7,342.4,191218,000.0,W*76
$GPGGA,102655.229,5529.190,N,00830.288,E,1,12,1.0,0.0,M,0.0,M,,*68
$GPGSA,A,3,01,02,03,04,05,06,07,08,09,10,11,12,1.0,1.0,1.0*30
$GPRMC,102655.229,A,5529.190,N,00830.288,E,252.7,331.7,191218,000.0,W*7A
$GPGGA,102656.229,5529.257,N,00830.252,E,1,12,1.0,0.0,M,0.0,M,,*64
$GPGSA,A,3,01,02,03,04,05,06,07,08,09,10,11,12,1.0,1.0,1.0*30
$GPRMC,102656.229,A,5529.257,N,00830.252,E,252.7,331.7,191218,000.0,W*76
$GPGGA,102657.229,5529.324,N,00830.216,E,1,12,1.0,0.0,M,0.0,M,,*60
$GPGSA,A,3,01,02,03,04,05,06,07,08,09,10,11,12,1.0,1.0,1.0*30
$GPRMC,102657.229,A,5529.324,N,00830.216,E,252.7,331.7,191218,000.0,W*72
$GPGGA,102658.229,5529.392,N,00830.179,E,1,12,1.0,0.0,M,0.0,M,,*68
$GPGSA,A,3,01,02,03,04,05,06,07,08,09,10,11,12,1.0,1.0,1.0*30
$GPRMC,102658.229,A,5529.392,N,00830.179,E,252.7,358.5,191218,000.0,W*77
$GPGGA,102659.229,5529.462,N,00830.177,E,1,12,1.0,0.0,M,0.0,M,,*6F
$GPGSA,A,3,01,02,03,04,05,06,07,08,09,10,11,12,1.0,1.0,1.0*30
$GPRMC,102659.229,A,5529.462,N,00830.177,E,252.7,358.5,191218,000.0,W*70
$GPGGA,102700.229,5529.532,N,00830.176,E,1,12,1.0,0.0,M,0.0,M,,*67
$GPGSA,A,3,01,02,03,04,05,06,07,08,09,10,11,12,1.0,1.0,1.0*30
$GPRMC,102700.229,A,5529.532,N,00830.176,E,252.7,358.5,191218,000.0,W*78
$GPGGA,102701.229,5529.602,N,00830.174,E,1,12,1.0,0.0,M,0.0,M,,*64
$GPGSA,A,3,01,02,03,04,05,06,07,08,09,10,11,12,1.0,1.0,1.0*30
$GPRMC,102701.229,A,5529.602,N,00830.174,E,252.7,358.5,191218,000.0,W*7B
$GPGGA,102702.229,5529.672,N,00830.172,E,1,12,1.0,0.0,M,0.0,M,,*66
$GPGSA,A,3,01,02,03,04,05,06,07,08,09,10,11,12,1.0,1.0,1.0*30
$GPRMC,102702.229,A,5529.672,N,00830.172,E,252.7,358.5,191218,000.0,W*79
$GPGGA,102703.229,5529.742,N,00830.170,E,1,12,1.0,0.0,M,0.0,M,,*67
$GPGSA,A,3,01,02,03,04,05,06,07,08,09,10,11,12,1.0,1.0,1.0*30
$GPRMC,102703.229,A,5529.742,N,00830.170,E,252.7,358.5,191218,000.0,W*78
$GPGGA,102704.229,5529.812,N,00830.168,E,1,12,1.0,0.0,M,0.0,M,,*63
$GPGSA,A,3,01,02,03,04,05,06,07,08,09,10,11,12,1.0,1.0,1.0*30
$GPRMC,102704.229,A,5529.812,N,00830.168,E,252.7,358.5,191218,000.0,W*7C
$GPGGA,102705.229,5529.882,N,00830.166,E,1,12,1.0,0.0,M,0.0,M,,*65
$GPGSA,A,3,01,02,03,04,05,06,07,08,09,10,11,12,1.0,1.0,1.0*30
$GPRMC,102705.229,A,5529.882,N,00830.166,E,252.7,358.5,191218,000.0,W*7A
$GPGGA,102706.229,5529.953,N,00830.165,E,1,12,1.0,0.0,M,0.0,M,,*68
$GPGSA,A,3,01,02,03,04,05,06,07,08,09,10,11,12,1.0,1.0,1.0*30
$GPRMC,102706.229,A,5529.953,N,00830.165,E,252.7,358.5,191218,000.0,W*77
$GPGGA,102707.229,5530.023,N,00830.163,E,1,12,1.0,0.0,M,0.0,M,,*69
$GPGSA,A,3,01,02,03,04,05,06,07,08,09,10,11,12,1.0,1.0,1.0*30
$GPRMC,102707.229,A,5530.023,N,00830.163,E,252.7,358.5,191218,000.0,W*76
$GPGGA,102708.229,5530.093,N,00830.161,E,1,12,1.0,0.0,M,0.0,M,,*6F
$GPGSA,A,3,01,02,03,04,05,06,07,08,09,10,11,12,1.0,1.0,1.0*30
$GPRMC,102708.229,A,5530.093,N,00830.161,E,252.7,358.5,191218,000.0,W*70
$GPGGA,102709.229,5530.163,N,00830.159,E,1,12,1.0,0.0,M,0.0,M,,*6B
$GPGSA,A,3,01,02,03,04,05,06,07,08,09,10,11,12,1.0,1.0,1.0*30
$GPRMC,102709.229,A,5530.163,N,00830.159,E,252.7,358.5,191218,000.0,W*74
$GPGGA,102710.229,5530.233,N,00830.157,E,1,12,1.0,0.0,M,0.0,M,,*6B
$GPGSA,A,3,01,02,03,04,05,06,07,08,09,10,11,12,1.0,1.0,1.0*30
$GPRMC,102710.229,A,5530.233,N,00830.157,E,252.7,358.5,191218,000.0,W*74
$GPGGA,102711.229,5530.303,N,00830.155,E,1,12,1.0,0.0,M,0.0,M,,*6A
$GPGSA,A,3,01,02,03,04,05,06,07,08,09,10,11,12,1.0,1.0,1.0*30
$GPRMC,102711.229,A,5530.303,N,00830.155,E,252.7,007.8,191218,000.0,W*71
$GPGGA,102712.229,5530.373,N,00830.165,E,1,12,1.0,0.0,M,0.0,M,,*6D
$GPGSA,A,3,01,02,03,04,05,06,07,08,09,10,11,12,1.0,1.0,1.0*30
$GPRMC,102712.229,A,5530.373,N,00830.165,E,252.7,007.8,191218,000.0,W*76
$GPGGA,102713.229,5530.443,N,00830.175,E,1,12,1.0,0.0,M,0.0,M,,*69
$GPGSA,A,3,01,02,03,04,05,06,07,08,09,10,11,12,1.0,1.0,1.0*30
$GPRMC,102713.229,A,5530.443,N,00830.175,E,252.7,007.8,191218,000.0,W*72
$GPGGA,102714.229,5530.513,N,00830.184,E,1,12,1.0,0.0,M,0.0,M,,*64
$GPGSA,A,3,01,02,03,04,05,06,07,08,09,10,11,12,1.0,1.0,1.0*30
$GPRMC,102714.229,A,5530.513,N,00830.184,E,252.7,007.8,191218,000.0,W*7F
$GPGGA,102715.229,5530.583,N,00830.194,E,1,12,1.0,0.0,M,0.0,M,,*6D
$GPGSA,A,3,01,02,03,04,05,06,07,08,09,10,11,12,1.0,1.0,1.0*30
$GPRMC,102715.229,A,5530.583,N,00830.194,E,252.7,007.8,191218,000.0,W*76
$GPGGA,102716.229,5530.653,N,00830.204,E,1,12,1.0,0.0,M,0.0,M,,*6A
$GPGSA,A,3,01,02,03,04,05,06,07,08,09,10,11,12,1.0,1.0,1.0*30
$GPRMC,102716.229,A,5530.653,N,00830.204,E,252.7,059.1,191218,000.0,W*73
$GPGGA,102717.229,5530.704,N,00830.289,E,1,12,1.0,0.0,M,0.0,M,,*6D
$GPGSA,A,3,01,02,03,04,05,06,07,08,09,10,11,12,1.0,1.0,1.0*30
$GPRMC,102717.229,A,5530.704,N,00830.289,E,252.7,059.1,191218,000.0,W*74
$GPGGA,102718.229,5530.755,N,00830.374,E,1,12,1.0,0.0,M,0.0,M,,*65
$GPGSA,A,3,01,02,03,04,05,06,07,08,09,10,11,12,1.0,1.0,1.0*30
$GPRMC,102718.229,A,5530.755,N,00830.374,E,252.7,059.1,191218,000.0,W*7C
$GPGGA,102719.229,5530.806,N,00830.460,E,1,12,1.0,0.0,M,0.0,M,,*6F
$GPGSA,A,3,01,02,03,04,05,06,07,08,09,10,11,12,1.0,1.0,1.0*30
$GPRMC,102719.229,A,5530.806,N,00830.460,E,252.7,059.1,191218,000.0,W*76
$GPGGA,102720.229,5530.856,N,00830.545,E,1,12,1.0,0.0,M,0.0,M,,*66
$GPGSA,A,3,01,02,03,04,05,06,07,08,09,10,11,12,1.0,1.0,1.0*30
$GPRMC,102720.229,A,5530.856,N,00830.545,E,252.7,059.1,191218,000.0,W*7F
$GPGGA,102721.229,5530.907,N,00830.631,E,1,12,1.0,0.0,M,0.0,M,,*62
$GPGSA,A,3,01,02,03,04,05,06,07,08,09,10,11,12,1.0,1.0,1.0*30
$GPRMC,102721.229,A,5530.907,N,00830.631,E,252.7,073.1,191218,000.0,W*73
$GPGGA,102722.229,5530.940,N,00830.740,E,1,12,1.0,0.0,M,0.0,M,,*65
$GPGSA,A,3,01,02,03,04,05,06,07,08,09,10,11,12,1.0,1.0,1.0*30
$GPRMC,102722.229,A,5530.940,N,00830.740,E,252.7,073.1,191218,000.0,W*74
$GPGGA,102723.229,5530.973,N,00830.849,E,1,12,1.0,0.0,M,0.0,M,,*62
$GPGSA,A,3,01,02,03,04,05,06,07,08,09,10,11,12,1.0,1.0,1.0*30
$GPRMC,102723.229,A,5530.973,N,00830.849,E,252.7,073.1,191218,000.0,W*73
$GPGGA,102724.229,5531.006,N,00830.959,E,1,12,1.0,0.0,M,0.0,M,,*6F
$GPGSA,A,3,01,02,03,04,05,06,07,08,09,10,11,12,1.0,1.0,1.0*30
$GPRMC,102724.229,A,5531.006,N,00830.959,E,252.7,073.1,191218,000.0,W*7E
$GPGGA,102725.229,5531.039,N,00831.068,E,1,12,1.0,0.0,M,0.0,M,,*68
$GPGSA,A,3,01,02,03,04,05,06,07,08,09,10,11,12,1.0,1.0,1.0*30
$GPRMC,102725.229,A,5531.039,N,00831.068,E,252.7,086.2,191218,000.0,W*70
$GPGGA,102726.229,5531.047,N,00831.191,E,1,12,1.0,0.0,M,0.0,M,,*65
$GPGSA,A,3,01,02,03,04,05,06,07,08,09,10,11,12,1.0,1.0,1.0*30
$GPRMC,102726.229,A,5531.047,N,00831.191,E,252.7,086.2,191218,000.0,W*7D
$GPGGA,102727.229,5531.056,N,00831.314,E,1,12,1.0,0.0,M,0.0,M,,*6B
$GPGSA,A,3,01,02,03,04,05,06,07,08,09,10,11,12,1.0,1.0,1.0*30
$GPRMC,102727.229,A,5531.056,N,00831.314,E,252.7,086.2,191218,000.0,W*73
$GPGGA,102728.229,5531.064,N,00831.437,E,1,12,1.0,0.0,M,0.0,M,,*63
$GPGSA,A,3,01,02,03,04,05,06,07,08,09,10,11,12,1.0,1.0,1.0*30
$GPRMC,102728.229,A,5531.064,N,00831.437,E,252.7,086.2,191218,000.0,W*7B
$GPGGA,102729.229,5531.072,N,00831.560,E,1,12,1.0,0.0,M,0.0,M,,*66
$GPGSA,A,3,01,02,03,04,05,06,07,08,09,10,11,12,1.0,1.0,1.0*30
$GPRMC,102729.229,A,5531.072,N,00831.560,E,252.7,089.6,191218,000.0,W*75
$GPGGA,102730.229,5531.073,N,00831.684,E,1,12,1.0,0.0,M,0.0,M,,*66
$GPGSA,A,3,01,02,03,04,05,06,07,08,09,10,11,12,1.0,1.0,1.0*30
$GPRMC,102730.229,A,5531.073,N,00831.684,E,252.7,089.6,191218,000.0,W*75
$GPGGA,102731.229,5531.074,N,00831.808,E,1,12,1.0,0.0,M,0.0,M,,*6A
$GPGSA,A,3,01,02,03,04,05,06,07,08,09,10,11,12,1.0,1.0,1.0*30
$GPRMC,102731.229,A,5531.074,N,00831.808,E,252.7,089.6,191218,000.0,W*79
$GPGGA,102732.229,5531.074,N,00831.932,E,1,12,1.0,0.0,M,0.0,M,,*61
$GPGSA,A,3,01,02,03,04,05,06,07,08,09,10,11,12,1.0,1.0,1.0*30
$GPRMC,102732.229,A,5531.074,N,00831.932,E,252.7,089.6,191218,000.0,W*72
$GPGGA,102733.229,5531.075,N,00832.056,E,1,12,1.0,0.0,M,0.0,M,,*69
$GPGSA,A,3,01,02,03,04,05,06,07,08,09,10,11,12,1.0,1.0,1.0*30
$GPRMC,102733.229,A,5531.075,N,00832.056,E,252.7,089.6,191218,000.0,W*7A
$GPGGA,102734.229,5531.076,N,00832.180,E,1,12,1.0,0.0,M,0.0,M,,*67
$GPGSA,A,3,01,02,03,04,05,06,07,08,09,10,11,12,1.0,1.0,1.0*30
$GPRMC,102734.229,A,5531.076,N,00832.180,E,252.7,083.4,191218,000.0,W*7C
$GPGGA,102735.229,5531.090,N,00832.301,E,1,12,1.0,0.0,M,0.0,M,,*65
$GPGSA,A,3,01,02,03,04,05,06,07,08,09,10,11,12,1.0,1.0,1.0*30
$GPRMC,102735.229,A,5531.090,N,00832.301,E,252.7,083.4,191218,000.0,W*7E
$GPGGA,102736.229,5531.104,N,00832.422,E,1,12,1.0,0.0,M,0.0,M,,*6C
$GPGSA,A,3,01,02,03,04,05,06,07,08,09,10,11,12,1.0,1.0,1.0*30
$GPRMC,102736.229,A,5531.104,N,00832.422,E,252.7,083.4,191218,000.0,W*77
$GPGGA,102737.229,5531.118,N,00832.544,E,1,12,1.0,0.0,M,0.0,M,,*61
$GPGSA,A,3,01,02,03,04,05,06,07,08,09,10,11,12,1.0,1.0,1.0*30
$GPRMC,102737.229,A,5531.118,N,00832.544,E,252.7,083.4,191218,000.0,W*7A
$GPGGA,102738.229,5531.132,N,00832.665,E,1,12,1.0,0.0,M,0.0,M,,*66
$GPGSA,A,3,01,02,03,04,05,06,07,08,09,10,11,12,1.0,1.0,1.0*30
$GPRMC,102738.229,A,5531.132,N,00832.665,E,252.7,083.4,191218,000.0,W*7D
$GPGGA,102739.229,5531.146,N,00832.786,E,1,12,1.0,0.0,M,0.0,M,,*68
$GPGSA,A,3,01,02,03,04,05,06,07,08,09,10,11,12,1.0,1.0,1.0*30
$GPRMC,102739.229,A,5531.146,N,00832.786,E,252.7,083.4,191218,000.0,W*73
$GPGGA,102740.229,5531.160,N,00832.908,E,1,12,1.0,0.0,M,0.0,M,,*6A
$GPGSA,A,3,01,02,03,04,05,06,07,08,09,10,11,12,1.0,1.0,1.0*30
$GPRMC,102740.229,A,5531.160,N,00832.908,E,252.7,083.4,191218,000.0,W*71
$GPGGA,102741.229,5531.175,N,00833.029,E,1,12,1.0,0.0,M,0.0,M,,*64
$GPGSA,A,3,01,02,03,04,05,06,07,08,09,10,11,12,1.0,1.0,1.0*30
$GPRMC,102741.229,A,5531.175,N,00833.029,E,252.7,082.6,191218,000.0,W*7C
$GPGGA,102742.229,5531.190,N,00833.150,E,1,12,1.0,0.0,M,0.0,M,,*63
$GPGSA,A,3,01,02,03,04,05,06,07,08,09,10,11,12,1.0,1.0,1.0*30
$GPRMC,102742.229,A,5531.190,N,00833.150,E,252.7,082.6,191218,000.0,W*7B
$GPGGA,102743.229,5531.206,N,00833.271,E,1,12,1.0,0.0,M,0.0,M,,*6E
$GPGSA,A,3,01,02,03,04,05,06,07,08,09,10,11,12,1.0,1.0,1.0*30
$GPRMC,102743.229,A,5531.206,N,00833.271,E,252.7,082.6,191218,000.0,W*76
$GPGGA,102744.229,5531.222,N,00833.392,E,1,12,1.0,0.0,M,0.0,M,,*63
$GPGSA,A,3,01,02,03,04,05,06,07,08,09,10,11,12,1.0,1.0,1.0*30
$GPRMC,102744.229,A,5531.222,N,00833.392,E,252.7,082.6,191218,000.0,W*7B
$GPGGA,102745.229,5531.237,N,00833.512,E,1,12,1.0,0.0,M,0.0,M,,*68
$GPGSA,A,3,01,02,03,04,05,06,07,08,09,10,11,12,1.0,1.0,1.0*30
$GPRMC,102745.229,A,5531.237,N,00833.512,E,252.7,082.6,191218,000.0,W*70
$GPGGA,102746.229,5531.253,N,00833.633,E,1,12,1.0,0.0,M,0.0,M,,*69
$GPGSA,A,3,01,02,03,04,05,06,07,08,09,10,11,12,1.0,1.0,1.0*30
$GPRMC,102746.229,A,5531.253,N,00833.633,E,252.7,082.6,191218,000.0,W*71
$GPGGA,102747.229,5531.269,N,00833.754,E,1,12,1.0,0.0,M,0.0,M,,*61
$GPGSA,A,3,01,02,03,04,05,06,07,08,09,10,11,12,1.0,1.0,1.0*30
$GPRMC,102747.229,A,5531.269,N,00833.754,E,252.7,082.6,191218,000.0,W*79
$GPGGA,102748.229,5531.284,N,00833.875,E,1,12,1.0,0.0,M,0.0,M,,*61
$GPGSA,A,3,01,02,03,04,05,06,07,08,09,10,11,12,1.0,1.0,1.0*30
$GPRMC,102748.229,A,5531.284,N,00833.875,E,252.7,082.6,191218,000.0,W*79
$GPGGA,102749.229,5531.300,N,00833.995,E,1,12,1.0,0.0,M,0.0,M,,*62
$GPGSA,A,3,01,02,03,04,05,06,07,08,09,10,11,12,1.0,1.0,1.0*30
$GPRMC,102749.229,A,5531.300,N,00833.995,E,252.7,087.6,191218,000.0,W*7F
$GPGGA,102750.229,5531.305,N,00834.119,E,1,12,1.0,0.0,M,0.0,M,,*64
$GPGSA,A,3,01,02,03,04,05,06,07,08,09,10,11,12,1.0,1.0,1.0*30
$GPRMC,102750.229,A,5531.305,N,00834.119,E,252.7,087.6,191218,000.0,W*79
$GPGGA,102751.229,5531.310,N,00834.243,E,1,12,1.0,0.0,M,0.0,M,,*6D
$GPGSA,A,3,01,02,03,04,05,06,07,08,09,10,11,12,1.0,1.0,1.0*30
$GPRMC,102751.229,A,5531.310,N,00834.243,E,252.7,087.6,191218,000.0,W*70
$GPGGA,102752.229,5531.315,N,00834.366,E,1,12,1.0,0.0,M,0.0,M,,*6D
$GPGSA,A,3,01,02,03,04,05,06,07,08,09,10,11,12,1.0,1.0,1.0*30
$GPRMC,102752.229,A,5531.315,N,00834.366,E,252.7,087.6,191218,000.0,W*70
$GPGGA,102753.229,5531.320,N,00834.490,E,1,12,1.0,0.0,M,0.0,M,,*64
$GPGSA,A,3,01,02,03,04,05,06,07,08,09,10,11,12,1.0,1.0,1.0*30
$GPRMC,102753.229,A,5531.320,N,00834.490,E,252.7,087.6,191218,000.0,W*79
$GPGGA,102754.229,5531.325,N,00834.613,E,1,12,1.0,0.0,M,0.0,M,,*6F
$GPGSA,A,3,01,02,03,04,05,06,07,08,09,10,11,12,1.0,1.0,1.0*30
$GPRMC,102754.229,A,5531.325,N,00834.613,E,252.7,087.6,191218,000.0,W*72
$GPGGA,102755.229,5531.330,N,00834.737,E,1,12,1.0,0.0,M,0.0,M,,*6D
$GPGSA,A,3,01,02,03,04,05,06,07,08,09,10,11,12,1.0,1.0,1.0*30
$GPRMC,102755.229,A,5531.330,N,00834.737,E,252.7,087.6,191218,000.0,W*70
$GPGGA,102756.229,5531.335,N,00834.861,E,1,12,1.0,0.0,M,0.0,M,,*67
$GPGSA,A,3,01,02,03,04,05,06,07,08,09,10,11,12,1.0,1.0,1.0*30
$GPRMC,102756.229,A,5531.335,N,00834.861,E,252.7,092.4,191218,000.0,W*7C
$GPGGA,102757.229,5531.330,N,00834.984,E,1,12,1.0,0.0,M,0.0,M,,*69
$GPGSA,A,3,01,02,03,04,05,06,07,08,09,10,11,12,1.0,1.0,1.0*30
$GPRMC,102757.229,A,5531.330,N,00834.984,E,252.7,092.4,191218,000.0,W*72
$GPGGA,102758.229,5531.325,N,00835.108,E,1,12,1.0,0.0,M,0.0,M,,*6F
$GPGSA,A,3,01,02,03,04,05,06,07,08,09,10,11,12,1.0,1.0,1.0*30
$GPRMC,102758.229,A,5531.325,N,00835.108,E,252.7,092.4,191218,000.0,W*74
$GPGGA,102759.229,5531.320,N,00835.231,E,1,12,1.0,0.0,M,0.0,M,,*62
$GPGSA,A,3,01,02,03,04,05,06,07,08,09,10,11,12,1.0,1.0,1.0*30
$GPRMC,102759.229,A,5531.320,N,00835.231,E,252.7,092.4,191218,000.0,W*79
$GPGGA,102800.229,5531.314,N,00835.355,E,1,12,1.0,0.0,M,0.0,M,,*65
$GPGSA,A,3,01,02,03,04,05,06,07,08,09,10,11,12,1.0,1.0,1.0*30
$GPRMC,102800.229,A,5531.314,N,00835.355,E,252.7,092.4,191218,000.0,W*7E
$GPGGA,102801.229,5531.309,N,00835.478,E,1,12,1.0,0.0,M,0.0,M,,*60
$GPGSA,A,3,01,02,03,04,05,06,07,08,09,10,11,12,1.0,1.0,1.0*30
$GPRMC,102801.229,A,5531.309,N,00835.478,E,252.7,092.4,191218,000.0,W*7B
$GPGGA,102802.229,5531.304,N,00835.602,E,1,12,1.0,0.0,M,0.0,M,,*61
$GPGSA,A,3,01,02,03,04,05,06,07,08,09,10,11,12,1.0,1.0,1.0*30
$GPRMC,102802.229,A,5531.304,N,00835.602,E,252.7,092.4,191218,000.0,W*7A
$GPGGA,102803.229,5531.299,N,00835.726,E,1,12,1.0,0.0,M,0.0,M,,*62
$GPGSA,A,3,01,02,03,04,05,06,07,08,09,10,11,12,1.0,1.0,1.0*30
$GPRMC,102803.229,A,5531.299,N,00835.726,E,252.7,092.4,191218,000.0,W*79
$GPGGA,102804.229,5531.293,N,00835.849,E,1,12,1.0,0.0,M,0.0,M,,*69
$GPGSA,A,3,01,02,03,04,05,06,07,08,09,10,11,12,1.0,1.0,1.0*30
$GPRMC,102804.229,A,5531.293,N,00835.849,E,252.7,092.4,191218,000.0,W*72
$GPGGA,102805.229,5531.288,N,00835.973,E,1,12,1.0,0.0,M,0.0,M,,*6A
$GPGSA,A,3,01,02,03,04,05,06,07,08,09,10,11,12,1.0,1.0,1.0*30
$GPRMC,102805.229,A,5531.288,N,00835.973,E,252.7,100.9,191218,000.0,W*76
$GPGGA,102806.229,5531.266,N,00836.090,E,1,12,1.0,0.0,M,0.0,M,,*6E
$GPGSA,A,3,01,02,03,04,05,06,07,08,09,10,11,12,1.0,1.0,1.0*30
$GPRMC,102806.229,A,5531.266,N,00836.090,E,252.7,100.9,191218,000.0,W*72
$GPGGA,102807.229,5531.243,N,00836.207,E,1,12,1.0,0.0,M,0.0,M,,*64
$GPGSA,A,3,01,02,03,04,05,06,07,08,09,10,11,12,1.0,1.0,1.0*30
$GPRMC,102807.229,A,5531.243,N,00836.207,E,252.7,100.9,191218,000.0,W*78
$GPGGA,102808.229,5531.220,N,00836.325,E,1,12,1.0,0.0,M,0.0,M,,*6F
$GPGSA,A,3,01,02,03,04,05,06,07,08,09,10,11,12,1.0,1.0,1.0*30
$GPRMC,102808.229,A,5531.220,N,00836.325,E,252.7,100.9,191218,000.0,W*73
$GPGGA,102809.229,5531.198,N,00836.442,E,1,12,1.0,0.0,M,0.0,M,,*68
$GPGSA,A,3,01,02,03,04,05,06,07,08,09,10,11,12,1.0,1.0,1.0*30
$GPRMC,102809.229,A,5531.198,N,00836.442,E,252.7,100.9,191218,000.0,W*74
$GPGGA,102810.229,5531.175,N,00836.559,E,1,12,1.0,0.0,M,0.0,M,,*68
$GPGSA,A,3,01,02,03,04,05,06,07,08,09,10,11,12,1.0,1.0,1.0*30
$GPRMC,102810.229,A,5531.175,N,00836.559,E,252.7,100.9,191218,000.0,W*74
$GPGGA,102811.229,5531.153,N,00836.677,E,1,12,1.0,0.0,M,0.0,M,,*62
$GPGSA,A,3,01,02,03,04,05,06,07,08,09,10,11,12,1.0,1.0,1.0*30
$GPRMC,102811.229,A,5531.153,N,00836.677,E,252.7,100.9,191218,000.0,W*7E
$GPGGA,102812.229,5531.130,N,00836.794,E,1,12,1.0,0.0,M,0.0,M,,*68
$GPGSA,A,3,01,02,03,04,05,06,07,08,09,10,11,12,1.0,1.0,1.0*30
$GPRMC,102812.229,A,5531.130,N,00836.794,E,252.7,100.9,191218,000.0,W*74
$GPGGA,102813.229,5531.108,N,00836.911,E,1,12,1.0,0.0,M,0.0,M,,*61
$GPGSA,A,3,01,02,03,04,05,06,07,08,09,10,11,12,1.0,1.0,1.0*30
$GPRMC,102813.229,A,5531.108,N,00836.911,E,252.7,105.4,191218,000.0,W*75
$GPGGA,102814.229,5531.077,N,00837.023,E,1,12,1.0,0.0,M,0.0,M,,*66
$GPGSA,A,3,01,02,03,04,05,06,07,08,09,10,11,12,1.0,1.0,1.0*30
$GPRMC,102814.229,A,5531.077,N,00837.023,E,252.7,105.4,191218,000.0,W*72
$GPGGA,102815.229,5531.046,N,00837.134,E,1,12,1.0,0.0,M,0.0,M,,*62
$GPGSA,A,3,01,02,03,04,05,06,07,08,09,10,11,12,1.0,1.0,1.0*30
$GPRMC,102815.229,A,5531.046,N,00837.134,E,252.7,105.4,191218,000.0,W*76
$GPGGA,102816.229,5531.016,N,00837.246,E,1,12,1.0,0.0,M,0.0,M,,*62
$GPGSA,A,3,01,02,03,04,05,06,07,08,09,10,11,12,1.0,1.0,1.0*30
$GPRMC,102816.229,A,5531.016,N,00837.246,E,252.7,105.4,191218,000.0,W*76
$GPGGA,102817.229,5530.985,N,00837.357,E,1,12,1.0,0.0,M,0.0,M,,*60
$GPGSA,A,3,01,02,03,04,05,06,07,08,09,10,11,12,1.0,1.0,1.0*30
$GPRMC,102817.229,A,5530.985,N,00837.357,E,252.7,105.4,191218,000.0,W*74
$GPGGA,102818.229,5530.954,N,00837.468,E,1,12,1.0,0.0,M,0.0,M,,*68
$GPGSA,A,3,01,02,03,04,05,06,07,08,09,10,11,12,1.0,1.0,1.0*30
$GPRMC,102818.229,A,5530.954,N,00837.468,E,252.7,105.4,191218,000.0,W*7C
$GPGGA,102819.229,5530.924,N,00837.580,E,1,12,1.0,0.0,M,0.0,M,,*69
$GPGSA,A,3,01,02,03,04,05,06,07,08,09,10,11,12,1.0,1.0,1.0*30
$GPRMC,102819.229,A,5530.924,N,00837.580,E,252.7,105.4,191218,000.0,W*7D
$GPGGA,102820.229,5530.893,N,00837.691,E,1,12,1.0,0.0,M,0.0,M,,*6D
$GPGSA,A,3,01,02,03,04,05,06,07,08,09,10,11,12,1.0,1.0,1.0*30
$GPRMC,102820.229,A,5530.893,N,00837.691,E,252.7,105.4,191218,000.0,W*79
$GPGGA,102821.229,5530.862,N,00837.803,E,1,12,1.0,0.0,M,0.0,M,,*67
$GPGSA,A,3,01,02,03,04,05,06,07,08,09,10,11,12,1.0,1.0,1.0*30
$GPRMC,102821.229,A,5530.862,N,00837.803,E,252.7,105.4,191218,000.0,W*73
$GPGGA,102822.229,5530.832,N,00837.914,E,1,12,1.0,0.0,M,0.0,M,,*66
$GPGSA,A,3,01,02,03,04,05,06,07,08,09,10,11,12,1.0,1.0,1.0*30
$GPRMC,102822.229,A,5530.832,N,00837.914,E,252.7,105.4,191218,000.0,W*72
$GPGGA,102823.229,5530.801,N,00838.026,E,1,12,1.0,0.0,M,0.0,M,,*60
$GPGSA,A,3,01,02,03,04,05,06,07,08,09,10,11,12,1.0,1.0,1.0*30
$GPRMC,102823.229,A,5530.801,N,00838.026,E,252.7,105.1,191218,000.0,W*71
$GPGGA,102824.229,5530.771,N,00838.138,E,1,12,1.0,0.0,M,0.0,M,,*61
$GPGSA,A,3,01,02,03,04,05,06,07,08,09,10,11,12,1.0,1.0,1.0*30
$GPRMC,102824.229,A,5530.771,N,00838.138,E,252.7,105.1,191218,000.0,W*70
$GPGGA,102825.229,5530.741,N,00838.249,E,1,12,1.0,0.0,M,0.0,M,,*66
$GPGSA,A,3,01,02,03,04,05,06,07,08,09,10,11,12,1.0,1.0,1.0*30
$GPRMC,102825.229,A,5530.741,N,00838.249,E,252.7,105.1,191218,000.0,W*77
$GPGGA,102826.229,5530.711,N,00838.361,E,1,12,1.0,0.0,M,0.0,M,,*6B
$GPGSA,A,3,01,02,03,04,05,06,07,08,09,10,11,12,1.0,1.0,1.0*30
$GPRMC,102826.229,A,5530.711,N,00838.361,E,252.7,105.1,191218,000.0,W*7A
$GPGGA,102827.229,5530.681,N,00838.473,E,1,12,1.0,0.0,M,0.0,M,,*66
$GPGSA,A,3,01,02,03,04,05,06,07,08,09,10,11,12,1.0,1.0,1.0*30
$GPRMC,102827.229,A,5530.681,N,00838.473,E,252.7,105.1,191218,000.0,W*77
$GPGGA,102828.229,5530.650,N,00838.585,E,1,12,1.0,0.0,M,0.0,M,,*6D
$GPGSA,A,3,01,02,03,04,05,06,07,08,09,10,11,12,1.0,1.0,1.0*30
$GPRMC,102828.229,A,5530.650,N,00838.585,E,252.7,105.1,191218,000.0,W*7C
$GPGGA,102829.229,5530.620,N,00838.697,E,1,12,1.0,0.0,M,0.0,M,,*6B
$GPGSA,A,3,01,02,03,04,05,06,07,08,09,10,11,12,1.0,1.0,1.0*30
$GPRMC,102829.229,A,5530.620,N,00838.697,E,252.7,105.1,191218,000.0,W*7A
$GPGGA,102830.229,5530.590,N,00838.809,E,1,12,1.0,0.0,M,0.0,M,,*62
$GPGSA,A,3,01,02,03,04,05,06,07,08,09,10,11,12,1.0,1.0,1.0*30
$GPRMC,102830.229,A,5530.590,N,00838.809,E,252.7,105.1,191218,000.0,W*73
$GPGGA,102831.229,5530.560,N,00838.921,E,1,12,1.0,0.0,M,0.0,M,,*67
$GPGSA,A,3,01,02,03,04,05,06,07,08,09,10,11,12,1.0,1.0,1.0*30
$GPRMC,102831.229,A,5530.560,N,00838.921,E,252.7,105.1,191218,000.0,W*76
$GPGGA,102832.229,5530.530,N,00839.032,E,1,12,1.0,0.0,M,0.0,M,,*6B
$GPGSA,A,3,01,02,03,04,05,06,07,08,09,10,11,12,1.0,1.0,1.0*30
$GPRMC,102832.229,A,5530.530,N,00839.032,E,252.7,098.9,191218,000.0,W*77
$GPGGA,102833.229,5530.511,N,00839.152,E,1,12,1.0,0.0,M,0.0,M,,*6E
$GPGSA,A,3,01,02,03,04,05,06,07,08,09,10,11,12,1.0,1.0,1.0*30
$GPRMC,102833.229,A,5530.511,N,00839.152,E,252.7,098.9,191218,000.0,W*72
$GPGGA,102834.229,5530.493,N,00839.271,E,1,12,1.0,0.0,M,0.0,M,,*60
$GPGSA,A,3,01,02,03,04,05,06,07,08,09,10,11,12,1.0,1.0,1.0*30
$GPRMC,102834.229,A,5530.493,N,00839.271,E,252.7,098.9,191218,000.0,W*7C
$GPGGA,102835.229,5530.474,N,00839.391,E,1,12,1.0,0.0,M,0.0,M,,*67
$GPGSA,A,3,01,02,03,04,05,06,07,08,09,10,11,12,1.0,1.0,1.0*30
$GPRMC,102835.229,A,5530.474,N,00839.391,E,252.7,098.9,191218,000.0,W*7B
$GPGGA,102836.229,5530.455,N,00839.510,E,1,12,1.0,0.0,M,0.0,M,,*68
$GPGSA,A,3,01,02,03,04,05,06,07,08,09,10,11,12,1.0,1.0,1.0*30
$GPRMC,102836.229,A,5530.455,N,00839.510,E,252.7,098.9,191218,000.0,W*74
$GPGGA,102837.229,5530.437,N,00839.629,E,1,12,1.0,0.0,M,0.0,M,,*64
$GPGSA,A,3,01,02,03,04,05,06,07,08,09,10,11,12,1.0,1.0,1.0*30
$GPRMC,102837.229,A,5530.437,N,00839.629,E,252.7,098.9,191218,000.0,W*78
$GPGGA,102838.229,5530.418,N,00839.749,E,1,12,1.0,0.0,M,0.0,M,,*61
$GPGSA,A,3,01,02,03,04,05,06,07,08,09,10,11,12,1.0,1.0,1.0*30
$GPRMC,102838.229,A,5530.418,N,00839.749,E,252.7,098.9,191218,000.0,W*7D
$GPGGA,102839.229,5530.399,N,00839.868,E,1,12,1.0,0.0,M,0.0,M,,*62
$GPGSA,A,3,01,02,03,04,05,06,07,08,09,10,11,12,1.0,1.0,1.0*30
$GPRMC,102839.229,A,5530.399,N,00839.868,E,252.7,094.8,191218,000.0,W*73
$GPGGA,102840.229,5530.389,N,00839.991,E,1,12,1.0,0.0,M,0.0,M,,*6A
$GPGSA,A,3,01,02,03,04,05,06,07,08,09,10,11,12,1.0,1.0,1.0*30
$GPRMC,102840.229,A,5530.389,N,00839.991,E,252.7,094.8,191218,000.0,W*7B
$GPGGA,102841.229,5530.379,N,00840.113,E,1,12,1.0,0.0,M,0.0,M,,*68
$GPGSA,A,3,01,02,03,04,05,06,07,08,09,10,11,12,1.0,1.0,1.0*30
$GPRMC,102841.229,A,5530.379,N,00840.113,E,252.7,094.8,191218,000.0,W*79
$GPGGA,102842.229,5530.369,N,00840.236,E,1,12,1.0,0.0,M,0.0,M,,*6E
$GPGSA,A,3,01,02,03,04,05,06,07,08,09,10,11,12,1.0,1.0,1.0*30
$GPRMC,102842.229,A,5530.369,N,00840.236,E,252.7,094.8,191218,000.0,W*7F
$GPGGA,102843.229,5530.358,N,00840.358,E,1,12,1.0,0.0,M,0.0,M,,*64
$GPGSA,A,3,01,02,03,04,05,06,07,08,09,10,11,12,1.0,1.0,1.0*30
$GPRMC,102843.229,A,5530.358,N,00840.358,E,252.7,094.8,191218,000.0,W*75
$GPGGA,102844.229,5530.348,N,00840.481,E,1,12,1.0,0.0,M,0.0,M,,*61
$GPGSA,A,3,01,02,03,04,05,06,07,08,09,10,11,12,1.0,1.0,1.0*30
$GPRMC,102844.229,A,5530.348,N,00840.481,E,252.7,094.8,191218,000.0,W*70
$GPGGA,102845.229,5530.338,N,00840.604,E,1,12,1.0,0.0,M,0.0,M,,*68
$GPGSA,A,3,01,02,03,04,05,06,07,08,09,10,11,12,1.0,1.0,1.0*30
$GPRMC,102845.229,A,5530.338,N,00840.604,E,252.7,094.8,191218,000.0,W*79
$GPGGA,102846.229,5530.328,N,00840.726,E,1,12,1.0,0.0,M,0.0,M,,*6B
$GPGSA,A,3,01,02,03,04,05,06,07,08,09,10,11,12,1.0,1.0,1.0*30
$GPRMC,102846.229,A,5530.328,N,00840.726,E,252.7,094.8,191218,000.0,W*7A
$GPGGA,102847.229,5530.317,N,00840.849,E,1,12,1.0,0.0,M,0.0,M,,*60
$GPGSA,A,3,01,02,03,04,05,06,07,08,09,10,11,12,1.0,1.0,1.0*30
$GPRMC,102847.229,A,5530.317,N,00840.849,E,252.7,094.8,191218,000.0,W*71
$GPGGA,102848.229,5530.307,N,00840.971,E,1,12,1.0,0.0,M,0.0,M,,*64
$GPGSA,A,3,01,02,03,04,05,06,07,08,09,10,11,12,1.0,1.0,1.0*30
$GPRMC,102848.229,A,5530.307,N,00840.971,E,252.7,089.5,191218,000.0,W*74
$GPGGA,102849.229,5530.308,N,00841.095,E,1,12,1.0,0.0,M,0.0,M,,*68
$GPGSA,A,3,01,02,03,04,05,06,07,08,09,10,11,12,1.0,1.0,1.0*30
$GPRMC,102849.229,A,5530.308,N,00841.095,E,252.7,089.5,191218,000.0,W*78
$GPGGA,102850.229,5530.309,N,00841.219,E,1,12,1.0,0.0,M,0.0,M,,*67
$GPGSA,A,3,01,02,03,04,05,06,07,08,09,10,11,12,1.0,1.0,1.0*30
$GPRMC,102850.229,A,5530.309,N,00841.219,E,252.7,089.5,191218,000.0,W*77
$GPGGA,102851.229,5530.311,N,00841.343,E,1,12,1.0,0.0,M,0.0,M,,*61
$GPGSA,A,3,01,02,03,04,05,06,07,08,09,10,11,12,1.0,1.0,1.0*30
$GPRMC,102851.229,A,5530.311,N,00841.343,E,252.7,089.5,191218,000.0,W*71
$GPGGA,102852.229,5530.312,N,00841.467,E,1,12,1.0,0.0,M,0.0,M,,*60
$GPGSA,A,3,01,02,03,04,05,06,07,08,09,10,11,12,1.0,1.0,1.0*30
$GPRMC,102852.229,A,5530.312,N,00841.467,E,252.7,089.5,191218,000.0,W*70
$GPGGA,102853.229,5530.313,N,00841.590,E,1,12,1.0,0.0,M,0.0,M,,*69
$GPGSA,A,3,01,02,03,04,05,06,07,08,09,10,11,12,1.0,1.0,1.0*30
$GPRMC,102853.229,A,5530.313,N,00841.590,E,252.7,089.5,191218,000.0,W*79
$GPGGA,102854.229,5530.314,N,00841.714,E,1,12,1.0,0.0,M,0.0,M,,*67
$GPGSA,A,3,01,02,03,04,05,06,07,08,09,10,11,12,1.0,1.0,1.0*30
$GPRMC,102854.229,A,5530.314,N,00841.714,E,252.7,089.5,191218,000.0,W*77
$GPGGA,102855.229,5530.315,N,00841.838,E,1,12,1.0,0.0,M,0.0,M,,*66
$GPGSA,A,3,01,02,03,04,05,06,07,08,09,10,11,12,1.0,1.0,1.0*30
$GPRMC,102855.229,A,5530.315,N,00841.838,E,252.7,089.5,191218,000.0,W*76
$GPGGA,102856.229,5530.316,N,00841.962,E,1,12,1.0,0.0,M,0.0,M,,*68
$GPGSA,A,3,01,02,03,04,05,06,07,08,09,10,11,12,1.0,1.0,1.0*30
$GPRMC,102856.229,A,5530.316,N,00841.962,E,252.7,089.5,191218,000.0,W*78
$GPGGA,102857.229,5530.317,N,00842.086,E,1,12,1.0,0.0,M,0.0,M,,*68
$GPGSA,A,3,01,02,03,04,05,06,07,08,09,10,11,12,1.0,1.0,1.0*30
$GPRMC,102857.229,A,5530.317,N,00842.086,E,252.7,089.5,191218,000.0,W*78
$GPGGA,102858.229,5530.318,N,00842.210,E,1,12,1.0,0.0,M,0.0,M,,*65
$GPGSA,A,3,01,02,03,04,05,06,07,08,09,10,11,12,1.0,1.0,1.0*30
$GPRMC,102858.229,A,5530.318,N,00842.210,E,252.7,086.4,191218,000.0,W*7B
$GPGGA,102859.229,5530.326,N,00842.333,E,1,12,1.0,0.0,M,0.0,M,,*69
$GPGSA,A,3,01,02,03,04,05,06,07,08,09,10,11,12,1.0,1.0,1.0*30
$GPRMC,102859.229,A,5530.326,N,00842.333,E,252.7,086.4,191218,000.0,W*77
$GPGGA,102900.229,5530.334,N,00842.456,E,1,12,1.0,0.0,M,0.0,M,,*63
$GPGSA,A,3,01,02,03,04,05,06,07,08,09,10,11,12,1.0,1.0,1.0*30
$GPRMC,102900.229,A,5530.334,N,00842.456,E,252.7,086.4,191218,000.0,W*7D
$GPGGA,102901.229,5530.342,N,00842.579,E,1,12,1.0,0.0,M,0.0,M,,*6F
$GPGSA,A,3,01,02,03,04,05,06,07,08,09,10,11,12,1.0,1.0,1.0*30
$GPRMC,102901.229,A,5530.342,N,00842.579,E,252.7,086.4,191218,000.0,W*71
$GPGGA,102902.229,5530.349,N,00842.702,E,1,12,1.0,0.0,M,0.0,M,,*69
$GPGSA,A,3,01,02,03,04,05,06,07,08,09,10,11,12,1.0,1.0,1.0*30
$GPRMC,102902.229,A,5530.349,N,00842.702,E,252.7,086.4,191218,000.0,W*77
$GPGGA,102903.229,5530.357,N,00842.825,E,1,12,1.0,0.0,M,0.0,M,,*6D
$GPGSA,A,3,01,02,03,04,05,06,07,08,09,10,11,12,1.0,1.0,1.0*30
$GPRMC,102903.229,A,5530.357,N,00842.825,E,252.7,086.4,191218,000.0,W*73
$GPGGA,102904.229,5530.365,N,00842.948,E,1,12,1.0,0.0,M,0.0,M,,*61
$GPGSA,A,3,01,02,03,04,05,06,07,08,09,10,11,12,1.0,1.0,1.0*30
$GPRMC,102904.229,A,5530.365,N,00842.948,E,252.7,086.4,191218,000.0,W*7F
$GPGGA,102905.229,5530.373,N,00843.071,E,1,12,1.0,0.0,M,0.0,M,,*65
$GPGSA,A,3,01,02,03,04,05,06,07,08,09,10,11,12,1.0,1.0,1.0*30
$GPRMC,102905.229,A,5530.373,N,00843.071,E,252.7,086.4,191218,000.0,W*7B
$GPGGA,102906.229,5530.381,N,00843.194,E,1,12,1.0,0.0,M,0.0,M,,*61
$GPGSA,A,3,01,02,03,04,05,06,07,08,09,10,11,12,1.0,1.0,1.0*30
$GPRMC,102906.229,A,5530.381,N,00843.194,E,252.7,079.2,191218,000.0,W*79
$GPGGA,102907.229,5530.403,N,00843.312,E,1,12,1.0,0.0,M,0.0,M,,*61
$GPGSA,A,3,01,02,03,04,05,06,07,08,09,10,11,12,1.0,1.0,1.0*30
$GPRMC,102907.229,A,5530.403,N,00843.312,E,252.7,079.2,191218,000.0,W*79
$GPGGA,102908.229,5530.425,N,00843.429,E,1,12,1.0,0.0,M,0.0,M,,*65
$GPGSA,A,3,01,02,03,04,05,06,07,08,09,10,11,12,1.0,1.0,1.0*30
$GPRMC,102908.229,A,5530.425,N,00843.429,E,252.7,079.2,191218,000.0,W*7D
$GPGGA,102909.229,5530.448,N,00843.547,E,1,12,1.0,0.0,M,0.0,M,,*66
$GPGSA,A,3,01,02,03,04,05,06,07,08,09,10,11,12,1.0,1.0,1.0*30
$GPRMC,102909.229,A,5530.448,N,00843.547,E,252.7,079.2,191218,000.0,W*7E
$GPGGA,102910.229,5530.470,N,00843.664,E,1,12,1.0,0.0,M,0.0,M,,*67
$GPGSA,A,3,01,02,03,04,05,06,07,08,09,10,11,12,1.0,1.0,1.0*30
$GPRMC,102910.229,A,5530.470,N,00843.664,E,252.7,079.2,191218,000.0,W*7F
$GPGGA,102911.229,5530.492,N,00843.782,E,1,12,1.0,0.0,M,0.0,M,,*63
$GPGSA,A,3,01,02,03,04,05,06,07,08,09,10,11,12,1.0,1.0,1.0*30
$GPRMC,102911.229,A,5530.492,N,00843.782,E,252.7,079.2,191218,000.0,W*7B
$GPGGA,102912.229,5530.515,N,00843.899,E,1,12,1.0,0.0,M,0.0,M,,*6B
$GPGSA,A,3,01,02,03,04,05,06,07,08,09,10,11,12,1.0,1.0,1.0*30
$GPRMC,102912.229,A,5530.515,N,00843.899,E,252.7,079.2,191218,000.0,W*73
$GPGGA,102913.229,5530.537,N,00844.016,E,1,12,1.0,0.0,M,0.0,M,,*62
$GPGSA,A,3,01,02,03,04,05,06,07,08,09,10,11,12,1.0,1.0,1.0*30
$GPRMC,102913.229,A,5530.537,N,00844.016,E,252.7,079.2,191218,000.0,W*7A
$GPGGA,102914.229,5530.559,N,00844.134,E,1,12,1.0,0.0,M,0.0,M,,*6C
$GPGSA,A,3,01,02,03,04,05,06,07,08,09,10,11,12,1.0,1.0,1.0*30
$GPRMC,102914.229,A,5530.559,N,00844.134,E,252.7,079.2,191218,000.0,W*74
$GPGGA,102915.229,5530.582,N,00844.251,E,1,12,1.0,0.0,M,0.0,M,,*6B
$GPGSA,A,3,01,02,03,04,05,06,07,08,09,10,11,12,1.0,1.0,1.0*30
$GPRMC,102915.229,A,5530.582,N,00844.251,E,252.7,079.2,191218,000.0,W*73
$GPGGA,102916.229,5530.604,N,00844.369,E,1,12,1.0,0.0,M,0.0,M,,*6F
$GPGSA,A,3,01,02,03,04,05,06,07,08,09,10,11,12,1.0,1.0,1.0*30
$GPRMC,102916.229,A,5530.604,N,00844.369,E,252.7,079.2,191218,000.0,W*77
$GPGGA,102917.229,5530.626,N,00844.486,E,1,12,1.0,0.0,M,0.0,M,,*68
$GPGSA,A,3,01,02,03,04,05,06,07,08,09,10,11,12,1.0,1.0,1.0*30
$GPRMC,102917.229,A,5530.626,N,00844.486,E,252.7,079.2,191218,000.0,W*70
$GPGGA,102918.229,5530.648,N,00844.604,E,1,12,1.0,0.0,M,0.0,M,,*67
$GPGSA,A,3,01,02,03,04,05,06,07,08,09,10,11,12,1.0,1.0,1.0*30
$GPRMC,102918.229,A,5530.648,N,00844.604,E,252.7,079.2,191218,000.0,W*7F
$GPGGA,102919.229,5530.671,N,00844.721,E,1,12,1.0,0.0,M,0.0,M,,*6A
$GPGSA,A,3,01,02,03,04,05,06,07,08,09,10,11,12,1.0,1.0,1.0*30
$GPRMC,102919.229,A,5530.671,N,00844.721,E,252.7,084.5,191218,000.0,W*77
$GPGGA,102920.229,5530.683,N,00844.843,E,1,12,1.0,0.0,M,0.0,M,,*66
$GPGSA,A,3,01,02,03,04,05,06,07,08,09,10,11,12,1.0,1.0,1.0*30
$GPRMC,102920.229,A,5530.683,N,00844.843,E,252.7,084.5,191218,000.0,W*7B
$GPGGA,102921.229,5530.694,N,00844.965,E,1,12,1.0,0.0,M,0.0,M,,*64
$GPGSA,A,3,01,02,03,04,05,06,07,08,09,10,11,12,1.0,1.0,1.0*30
$GPRMC,102921.229,A,5530.694,N,00844.965,E,252.7,084.5,191218,000.0,W*79
$GPGGA,102922.229,5530.706,N,00845.087,E,1,12,1.0,0.0,M,0.0,M,,*69
$GPGSA,A,3,01,02,03,04,05,06,07,08,09,10,11,12,1.0,1.0,1.0*30
$GPRMC,102922.229,A,5530.706,N,00845.087,E,252.7,084.5,191218,000.0,W*74
$GPGGA,102923.229,5530.718,N,00845.210,E,1,12,1.0,0.0,M,0.0,M,,*6B
$GPGSA,A,3,01,02,03,04,05,06,07,08,09,10,11,12,1.0,1.0,1.0*30
$GPRMC,102923.229,A,5530.718,N,00845.210,E,252.7,084.5,191218,000.0,W*76
$GPGGA,102924.229,5530.730,N,00845.332,E,1,12,1.0,0.0,M,0.0,M,,*67
$GPGSA,A,3,01,02,03,04,05,06,07,08,09,10,11,12,1.0,1.0,1.0*30
$GPRMC,102924.229,A,5530.730,N,00845.332,E,252.7,084.5,191218,000.0,W*7A
$GPGGA,102925.229,5530.741,N,00845.454,E,1,12,1.0,0.0,M,0.0,M,,*67
$GPGSA,A,3,01,02,03,04,05,06,07,08,09,10,11,12,1.0,1.0,1.0*30
$GPRMC,102925.229,A,5530.741,N,00845.454,E,252.7,084.5,191218,000.0,W*7A
$GPGGA,102926.229,5530.753,N,00845.576,E,1,12,1.0,0.0,M,0.0,M,,*66
$GPGSA,A,3,01,02,03,04,05,06,07,08,09,10,11,12,1.0,1.0,1.0*30
$GPRMC,102926.229,A,5530.753,N,00845.576,E,252.7,084.5,191218,000.0,W*7B
$GPGGA,102927.229,5530.765,N,00845.698,E,1,12,1.0,0.0,M,0.0,M,,*61
$GPGSA,A,3,01,02,03,04,05,06,07,08,09,10,11,12,1.0,1.0,1.0*30
$GPRMC,102927.229,A,5530.765,N,00845.698,E,252.7,084.5,191218,000.0,W*7C
$GPGGA,102928.229,5530.777,N,00845.820,E,1,12,1.0,0.0,M,0.0,M,,*60
$GPGSA,A,3,01,02,03,04,05,06,07,08,09,10,11,12,1.0,1.0,1.0*30
$GPRMC,102928.229,A,5530.777,N,00845.820,E,252.7,084.5,191218,000.0,W*7D
$GPGGA,102929.229,5530.788,N,00845.942,E,1,12,1.0,0.0,M,0.0,M,,*64
$GPGSA,A,3,01,02,03,04,05,06,07,08,09,10,11,12,1.0,1.0,1.0*30
$GPRMC,102929.229,A,5530.788,N,00845.942,E,252.7,084.5,191218,000.0,W*79
$GPGGA,102930.229,5530.800,N,00846.065,E,1,12,1.0,0.0,M,0.0,M,,*6C
$GPGSA,A,3,01,02,03,04,05,06,07,08,09,10,11,12,1.0,1.0,1.0*30
$GPRMC,102930.229,A,5530.800,N,00846.065,E,252.7,089.7,191218,000.0,W*7E
$GPGGA,102931.229,5530.801,N,00846.188,E,1,12,1.0,0.0,M,0.0,M,,*6E
$GPGSA,A,3,01,02,03,04,05,06,07,08,09,10,11,12,1.0,1.0,1.0*30
$GPRMC,102931.229,A,5530.801,N,00846.188,E,252.7,089.7,191218,000.0,W*7C
$GPGGA,102932.229,5530.801,N,00846.312,E,1,12,1.0,0.0,M,0.0,M,,*6C
$GPGSA,A,3,01,02,03,04,05,06,07,08,09,10,11,12,1.0,1.0,1.0*30
$GPRMC,102932.229,A,5530.801,N,00846.312,E,252.7,089.7,191218,000.0,W*7E
$GPGGA,102933.229,5530.802,N,00846.436,E,1,12,1.0,0.0,M,0.0,M,,*6F
$GPGSA,A,3,01,02,03,04,05,06,07,08,09,10,11,12,1.0,1.0,1.0*30
$GPRMC,102933.229,A,5530.802,N,00846.436,E,252.7,089.7,191218,000.0,W*7D
$GPGGA,102934.229,5530.802,N,00846.560,E,1,12,1.0,0.0,M,0.0,M,,*6A
$GPGSA,A,3,01,02,03,04,05,06,07,08,09,10,11,12,1.0,1.0,1.0*30
$GPRMC,102934.229,A,5530.802,N,00846.560,E,252.7,089.7,191218,000.0,W*78
$GPGGA,102935.229,5530.803,N,00846.684,E,1,12,1.0,0.0,M,0.0,M,,*63
$GPGSA,A,3,01,02,03,04,05,06,07,08,09,10,11,12,1.0,1.0,1.0*30
$GPRMC,102935.229,A,5530.803,N,00846.684,E,252.7,089.7,191218,000.0,W*71
$GPGGA,102936.229,5530.804,N,00846.808,E,1,12,1.0,0.0,M,0.0,M,,*6D
$GPGSA,A,3,01,02,03,04,05,06,07,08,09,10,11,12,1.0,1.0,1.0*30
$GPRMC,102936.229,A,5530.804,N,00846.808,E,252.7,089.7,191218,000.0,W*7F
$GPGGA,102937.229,5530.804,N,00846.932,E,1,12,1.0,0.0,M,0.0,M,,*64
$GPGSA,A,3,01,02,03,04,05,06,07,08,09,10,11,12,1.0,1.0,1.0*30
$GPRMC,102937.229,A,5530.804,N,00846.932,E,252.7,089.7,191218,000.0,W*76
$GPGGA,102938.229,5530.805,N,00847.056,E,1,12,1.0,0.0,M,0.0,M,,*60
$GPGSA,A,3,01,02,03,04,05,06,07,08,09,10,11,12,1.0,1.0,1.0*30
$GPRMC,102938.229,A,5530.805,N,00847.056,E,252.7,089.7,191218,000.0,W*72
$GPGGA,102939.229,5530.805,N,00847.180,E,1,12,1.0,0.0,M,0.0,M,,*6B
$GPGSA,A,3,01,02,03,04,05,06,07,08,09,10,11,12,1.0,1.0,1.0*30
$GPRMC,102939.229,A,5530.805,N,00847.180,E,252.7,089.7,191218,000.0,W*79
$GPGGA,102940.229,5530.806,N,00847.303,E,1,12,1.0,0.0,M,0.0,M,,*6F
$GPGSA,A,3,01,02,03,04,05,06,07,08,09,10,11,12,1.0,1.0,1.0*30
$GPRMC,102940.229,A,5530.806,N,00847.303,E,252.7,089.7,191218,000.0,W*7D
$GPGGA,102941.229,5530.806,N,00847.427,E,1,12,1.0,0.0,M,0.0,M,,*6F
$GPGSA,A,3,01,02,03,04,05,06,07,08,09,10,11,12,1.0,1.0,1.0*30
$GPRMC,102941.229,A,5530.806,N,00847.427,E,252.7,089.7,191218,000.0,W*7D
$GPGGA,102942.229,5530.807,N,00847.551,E,1,12,1.0,0.0,M,0.0,M,,*6D
$GPGSA,A,3,01,02,03,04,05,06,07,08,09,10,11,12,1.0,1.0,1.0*30
$GPRMC,102942.229,A,5530.807,N,00847.551,E,252.7,089.7,191218,000.0,W*7F
$GPGGA,102943.229,5530.807,N,00847.675,E,1,12,1.0,0.0,M,0.0,M,,*69
$GPGSA,A,3,01,02,03,04,05,06,07,08,09,10,11,12,1.0,1.0,1.0*30
$GPRMC,102943.229,A,5530.807,N,00847.675,E,252.7,089.7,191218,000.0,W*7B
$GPGGA,102944.229,5530.808,N,00847.799,E,1,12,1.0,0.0,M,0.0,M,,*62
$GPGSA,A,3,01,02,03,04,05,06,07,08,09,10,11,12,1.0,1.0,1.0*30
$GPRMC,102944.229,A,5530.808,N,00847.799,E,252.7,096.2,191218,000.0,W*7B
$GPGGA,102945.229,5530.795,N,00847.921,E,1,12,1.0,0.0,M,0.0,M,,*65
$GPGSA,A,3,01,02,03,04,05,06,07,08,09,10,11,12,1.0,1.0,1.0*30
$GPRMC,102945.229,A,5530.795,N,00847.921,E,252.7,096.2,191218,000.0,W*7C
$GPGGA,102946.229,5530.782,N,00848.042,E,1,12,1.0,0.0,M,0.0,M,,*63
$GPGSA,A,3,01,02,03,04,05,06,07,08,09,10,11,12,1.0,1.0,1.0*30
$GPRMC,102946.229,A,5530.782,N,00848.042,E,252.7,096.2,191218,000.0,W*7A
$GPGGA,102947.229,5530.768,N,00848.164,E,1,12,1.0,0.0,M,0.0,M,,*63
$GPGSA,A,3,01,02,03,04,05,06,07,08,09,10,11,12,1.0,1.0,1.0*30
$GPRMC,102947.229,A,5530.768,N,00848.164,E,252.7,096.2,191218,000.0,W*7A
$GPGGA,102948.229,5530.755,N,00848.286,E,1,12,1.0,0.0,M,0.0,M,,*6D
$GPGSA,A,3,01,02,03,04,05,06,07,08,09,10,11,12,1.0,1.0,1.0*30
$GPRMC,102948.229,A,5530.755,N,00848.286,E,252.7,096.2,191218,000.0,W*74
$GPGGA,102949.229,5530.742,N,00848.407,E,1,12,1.0,0.0,M,0.0,M,,*65
$GPGSA,A,3,01,02,03,04,05,06,07,08,09,10,11,12,1.0,1.0,1.0*30
$GPRMC,102949.229,A,5530.742,N,00848.407,E,252.7,096.2,191218,000.0,W*7C
$GPGGA,102950.229,5530.729,N,00848.529,E,1,12,1.0,0.0,M,0.0,M,,*6D
$GPGSA,A,3,01,02,03,04,05,06,07,08,09,10,11,12,1.0,1.0,1.0*30
$GPRMC,102950.229,A,5530.729,N,00848.529,E,252.7,096.2,191218,000.0,W*74
$GPGGA,102951.229,5530.715,N,00848.651,E,1,12,1.0,0.0,M,0.0,M,,*6F
$GPGSA,A,3,01,02,03,04,05,06,07,08,09,10,11,12,1.0,1.0,1.0*30
$GPRMC,102951.229,A,5530.715,N,00848.651,E,252.7,096.2,191218,000.0,W*76
$GPGGA,102952.229,5530.702,N,00848.772,E,1,12,1.0,0.0,M,0.0,M,,*6A
$GPGSA,A,3,01,02,03,04,05,06,07,08,09,10,11,12,1.0,1.0,1.0*30
$GPRMC,102952.229,A,5530.702,N,00848.772,E,252.7,083.3,191218,000.0,W*76
$GPGGA,102953.229,5530.716,N,00848.894,E,1,12,1.0,0.0,M,0.0,M,,*69
$GPGSA,A,3,01,02,03,04,05,06,07,08,09,10,11,12,1.0,1.0,1.0*30
$GPRMC,102953.229,A,5530.716,N,00848.894,E,252.7,083.3,191218,000.0,W*75
$GPGGA,102954.229,5530.730,N,00849.015,E,1,12,1.0,0.0,M,0.0,M,,*6A
$GPGSA,A,3,01,02,03,04,05,06,07,08,09,10,11,12,1.0,1.0,1.0*30
$GPRMC,102954.229,A,5530.730,N,00849.015,E,252.7,083.3,191218,000.0,W*76
$GPGGA,102955.229,5530.744,N,00849.136,E,1,12,1.0,0.0,M,0.0,M,,*68
$GPGSA,A,3,01,02,03,04,05,06,07,08,09,10,11,12,1.0,1.0,1.0*30
$GPRMC,102955.229,A,5530.744,N,00849.136,E,252.7,083.3,191218,000.0,W*74
$GPGGA,102956.229,5530.758,N,00849.258,E,1,12,1.0,0.0,M,0.0,M,,*6D
$GPGSA,A,3,01,02,03,04,05,06,07,08,09,10,11,12,1.0,1.0,1.0*30
$GPRMC,102956.229,A,5530.758,N,00849.258,E,252.7,083.3,191218,000.0,W*71
$GPGGA,102957.229,5530.772,N,00849.379,E,1,12,1.0,0.0,M,0.0,M,,*66
$GPGSA,A,3,01,02,03,04,05,06,07,08,09,10,11,12,1.0,1.0,1.0*30
$GPRMC,102957.229,A,5530.772,N,00849.379,E,252.7,078.0,191218,000.0,W*7D
$GPGGA,102958.229,5530.797,N,00849.495,E,1,12,1.0,0.0,M,0.0,M,,*67
$GPGSA,A,3,01,02,03,04,05,06,07,08,09,10,11,12,1.0,1.0,1.0*30
$GPRMC,102958.229,A,5530.797,N,00849.495,E,252.7,078.0,191218,000.0,W*7C
$GPGGA,102959.229,5530.822,N,00849.611,E,1,12,1.0,0.0,M,0.0,M,,*69
$GPGSA,A,3,01,02,03,04,05,06,07,08,09,10,11,12,1.0,1.0,1.0*30
$GPRMC,102959.229,A,5530.822,N,00849.611,E,252.7,078.0,191218,000.0,W*72
$GPGGA,103000.229,5530.846,N,00849.727,E,1,12,1.0,0.0,M,0.0,M,,*6B
$GPGSA,A,3,01,02,03,04,05,06,07,08,09,10,11,12,1.0,1.0,1.0*30
$GPRMC,103000.229,A,5530.846,N,00849.727,E,252.7,078.0,191218,000.0,W*70
$GPGGA,103001.229,5530.871,N,00849.843,E,1,12,1.0,0.0,M,0.0,M,,*63
$GPGSA,A,3,01,02,03,04,05,06,07,08,09,10,11,12,1.0,1.0,1.0*30
$GPRMC,103001.229,A,5530.871,N,00849.843,E,252.7,078.0,191218,000.0,W*78
$GPGGA,103002.229,5530.895,N,00849.959,E,1,12,1.0,0.0,M,0.0,M,,*60
$GPGSA,A,3,01,02,03,04,05,06,07,08,09,10,11,12,1.0,1.0,1.0*30
$GPRMC,103002.229,A,5530.895,N,00849.959,E,252.7,078.0,191218,000.0,W*7B
$GPGGA,103003.229,5530.920,N,00850.075,E,1,12,1.0,0.0,M,0.0,M,,*61
$GPGSA,A,3,01,02,03,04,05,06,07,08,09,10,11,12,1.0,1.0,1.0*30
$GPRMC,103003.229,A,5530.920,N,00850.075,E,252.7,078.0,191218,000.0,W*7A
$GPGGA,103004.229,5530.944,N,00850.191,E,1,12,1.0,0.0,M,0.0,M,,*6F
$GPGSA,A,3,01,02,03,04,05,06,07,08,09,10,11,12,1.0,1.0,1.0*30
$GPRMC,103004.229,A,5530.944,N,00850.191,E,252.7,078.0,191218,000.0,W*74
$GPGGA,103005.229,5530.969,N,00850.307,E,1,12,1.0,0.0,M,0.0,M,,*6C
$GPGSA,A,3,01,02,03,04,05,06,07,08,09,10,11,12,1.0,1.0,1.0*30
$GPRMC,103005.229,A,5530.969,N,00850.307,E,252.7,078.0,191218,000.0,W*77
$GPGGA,103006.229,5530.993,N,00850.424,E,1,12,1.0,0.0,M,0.0,M,,*6C
$GPGSA,A,3,01,02,03,04,05,06,07,08,09,10,11,12,1.0,1.0,1.0*30
$GPRMC,103006.229,A,5530.993,N,00850.424,E,252.7,078.0,191218,000.0,W*77
$GPGGA,103007.229,5531.018,N,00850.540,E,1,12,1.0,0.0,M,0.0,M,,*65
$GPGSA,A,3,01,02,03,04,05,06,07,08,09,10,11,12,1.0,1.0,1.0*30
$GPRMC,103007.229,A,5531.018,N,00850.540,E,252.7,078.0,191218,000.0,W*7E
$GPGGA,103008.229,5531.043,N,00850.656,E,1,12,1.0,0.0,M,0.0,M,,*60
$GPGSA,A,3,01,02,03,04,05,06,07,08,09,10,11,12,1.0,1.0,1.0*30
$GPRMC,103008.229,A,5531.043,N,00850.656,E,252.7,078.0,191218,000.0,W*7B
$GPGGA,103009.229,5531.067,N,00850.772,E,1,12,1.0,0.0,M,0.0,M,,*60
$GPGSA,A,3,01,02,03,04,05,06,07,08,09,10,11,12,1.0,1.0,1.0*30
$GPRMC,103009.229,A,5531.067,N,00850.772,E,252.7,078.0,191218,000.0,W*7B
$GPGGA,103010.229,5531.092,N,00850.888,E,1,12,1.0,0.0,M,0.0,M,,*68
$GPGSA,A,3,01,02,03,04,05,06,07,08,09,10,11,12,1.0,1.0,1.0*30
$GPRMC,103010.229,A,5531.092,N,00850.888,E,252.7,078.0,191218,000.0,W*73
$GPGGA,103011.229,5531.116,N,00851.004,E,1,12,1.0,0.0,M,0.0,M,,*69
$GPGSA,A,3,01,02,03,04,05,06,07,08,09,10,11,12,1.0,1.0,1.0*30
$GPRMC,103011.229,A,5531.116,N,00851.004,E,252.7,078.0,191218,000.0,W*72
$GPGGA,103012.229,5531.141,N,00851.120,E,1,12,1.0,0.0,M,0.0,M,,*6F
$GPGSA,A,3,01,02,03,04,05,06,07,08,09,10,11,12,1.0,1.0,1.0*30
$GPRMC,103012.229,A,5531.141,N,00851.120,E,252.7,078.0,191218,000.0,W*74
$GPGGA,103013.229,5531.165,N,00851.236,E,1,12,1.0,0.0,M,0.0,M,,*6C
$GPGSA,A,3,01,02,03,04,05,06,07,08,09,10,11,12,1.0,1.0,1.0*30
$GPRMC,103013.229,A,5531.165,N,00851.236,E,252.7,078.0,191218,000.0,W*77
$GPGGA,103014.229,5531.190,N,00851.352,E,1,12,1.0,0.0,M,0.0,M,,*62
$GPGSA,A,3,01,02,03,04,05,06,07,08,09,10,11,12,1.0,1.0,1.0*30
$GPRMC,103014.229,A,5531.190,N,00851.352,E,252.7,087.4,191218,000.0,W*7D
$GPGGA,103015.229,5531.196,N,00851.476,E,1,12,1.0,0.0,M,0.0,M,,*64
$GPGSA,A,3,01,02,03,04,05,06,07,08,09,10,11,12,1.0,1.0,1.0*30
$GPRMC,103015.229,A,5531.196,N,00851.476,E,252.7,087.4,191218,000.0,W*7B
$GPGGA,103016.229,5531.201,N,00851.599,E,1,12,1.0,0.0,M,0.0,M,,*6A
$GPGSA,A,3,01,02,03,04,05,06,07,08,09,10,11,12,1.0,1.0,1.0*30
$GPRMC,103016.229,A,5531.201,N,00851.599,E,252.7,087.4,191218,000.0,W*75
$GPGGA,103017.229,5531.207,N,00851.723,E,1,12,1.0,0.0,M,0.0,M,,*6E
$GPGSA,A,3,01,02,03,04,05,06,07,08,09,10,11,12,1.0,1.0,1.0*30
$GPRMC,103017.229,A,5531.207,N,00851.723,E,252.7,087.4,191218,000.0,W*71
$GPGGA,103018.229,5531.212,N,00851.846,E,1,12,1.0,0.0,M,0.0,M,,*69
$GPGSA,A,3,01,02,03,04,05,06,07,08,09,10,11,12,1.0,1.0,1.0*30
$GPRMC,103018.229,A,5531.212,N,00851.846,E,252.7,087.4,191218,000.0,W*76
$GPGGA,103019.229,5531.218,N,00851.970,E,1,12,1.0,0.0,M,0.0,M,,*66
$GPGSA,A,3,01,02,03,04,05,06,07,08,09,10,11,12,1.0,1.0,1.0*30
$GPRMC,103019.229,A,5531.218,N,00851.970,E,252.7,087.4,191218,000.0,W*79
$GPGGA,103020.229,5531.224,N,00852.093,E,1,12,1.0,0.0,M,0.0,M,,*64
$GPGSA,A,3,01,02,03,04,05,06,07,08,09,10,11,12,1.0,1.0,1.0*30
$GPRMC,103020.229,A,5531.224,N,00852.093,E,252.7,087.4,191218,000.0,W*7B
$GPGGA,103021.229,5531.229,N,00852.217,E,1,12,1.0,0.0,M,0.0,M,,*66
$GPGSA,A,3,01,02,03,04,05,06,07,08,09,10,11,12,1.0,1.0,1.0*30
$GPRMC,103021.229,A,5531.229,N,00852.217,E,252.7,087.4,191218,000.0,W*79
$GPGGA,103022.229,5531.235,N,00852.340,E,1,12,1.0,0.0,M,0.0,M,,*6B
$GPGSA,A,3,01,02,03,04,05,06,07,08,09,10,11,12,1.0,1.0,1.0*30
$GPRMC,103022.229,A,5531.235,N,00852.340,E,252.7,087.4,191218,000.0,W*74
$GPGGA,103023.229,5531.241,N,00852.464,E,1,12,1.0,0.0,M,0.0,M,,*68
$GPGSA,A,3,01,02,03,04,05,06,07,08,09,10,11,12,1.0,1.0,1.0*30
$GPRMC,103023.229,A,5531.241,N,00852.464,E,252.7,087.4,191218,000.0,W*77
$GPGGA,103024.229,5531.246,N,00852.587,E,1,12,1.0,0.0,M,0.0,M,,*64
$GPGSA,A,3,01,02,03,04,05,06,07,08,09,10,11,12,1.0,1.0,1.0*30
$GPRMC,103024.229,A,5531.246,N,00852.587,E,252.7,087.4,191218,000.0,W*7B
$GPGGA,103025.229,5531.252,N,00852.711,E,1,12,1.0,0.0,M,0.0,M,,*6D
$GPGSA,A,3,01,02,03,04,05,06,07,08,09,10,11,12,1.0,1.0,1.0*30
$GPRMC,103025.229,A,5531.252,N,00852.711,E,252.7,087.4,191218,000.0,W*72
$GPGGA,103026.229,5531.258,N,00852.834,E,1,12,1.0,0.0,M,0.0,M,,*6C
$GPGSA,A,3,01,02,03,04,05,06,07,08,09,10,11,12,1.0,1.0,1.0*30
$GPRMC,103026.229,A,5531.258,N,00852.834,E,252.7,087.4,191218,000.0,W*73
$GPGGA,103027.229,5531.263,N,00852.958,E,1,12,1.0,0.0,M,0.0,M,,*6E
$GPGSA,A,3,01,02,03,04,05,06,07,08,09,10,11,12,1.0,1.0,1.0*30
$GPRMC,103027.229,A,5531.263,N,00852.958,E,252.7,087.4,191218,000.0,W*71
$GPGGA,103028.229,5531.269,N,00853.081,E,1,12,1.0,0.0,M,0.0,M,,*67
$GPGSA,A,3,01,02,03,04,05,06,07,08,09,10,11,12,1.0,1.0,1.0*30
$GPRMC,103028.229,A,5531.269,N,00853.081,E,252.7,087.4,191218,000.0,W*78
$GPGGA,103029.229,5531.275,N,00853.205,E,1,12,1.0,0.0,M,0.0,M,,*65
$GPGSA,A,3,01,02,03,04,05,06,07,08,09,10,11,12,1.0,1.0,1.0*30
$GPRMC,103029.229,A,5531.275,N,00853.205,E,252.7,087.4,191218,000.0,W*7A
$GPGGA,103030.229,5531.280,N,00853.328,E,1,12,1.0,0.0,M,0.0,M,,*69
$GPGSA,A,3,01,02,03,04,05,06,07,08,09,10,11,12,1.0,1.0,1.0*30
$GPRMC,103030.229,A,5531.280,N,00853.328,E,252.7,087.4,191218,000.0,W*76
$GPGGA,103031.229,5531.286,N,00853.452,E,1,12,1.0,0.0,M,0.0,M,,*64
$GPGSA,A,3,01,02,03,04,05,06,07,08,09,10,11,12,1.0,1.0,1.0*30
$GPRMC,103031.229,A,5531.286,N,00853.452,E,252.7,087.4,191218,000.0,W*7B
$GPGGA,103032.229,5531.292,N,00853.575,E,1,12,1.0,0.0,M,0.0,M,,*66
$GPGSA,A,3,01,02,03,04,05,06,07,08,09,10,11,12,1.0,1.0,1.0*30
$GPRMC,103032.229,A,5531.292,N,00853.575,E,252.7,087.4,191218,000.0,W*79
$GPGGA,103033.229,5531.297,N,00853.699,E,1,12,1.0,0.0,M,0.0,M,,*63
$GPGSA,A,3,01,02,03,04,05,06,07,08,09,10,11,12,1.0,1.0,1.0*30
$GPRMC,103033.229,A,5531.297,N,00853.699,E,252.7,087.4,191218,000.0,W*7C
$GPGGA,103034.229,5531.303,N,00853.822,E,1,12,1.0,0.0,M,0.0,M,,*66
$GPGSA,A,3,01,02,03,04,05,06,07,08,09,10,11,12,1.0,1.0,1.0*30
$GPRMC,103034.229,A,5531.303,N,00853.822,E,252.7,087.4,191218,000.0,W*79
$GPGGA,103035.229,5531.309,N,00853.946,E,1,12,1.0,0.0,M,0.0,M,,*6E
$GPGSA,A,3,01,02,03,04,05,06,07,08,09,10,11,12,1.0,1.0,1.0*30
$GPRMC,103035.229,A,5531.309,N,00853.946,E,252.7,087.4,191218,000.0,W*71
$GPGGA,103036.229,5531.314,N,00854.069,E,1,12,1.0,0.0,M,0.0,M,,*62
$GPGSA,A,3,01,02,03,04,05,06,07,08,09,10,11,12,1.0,1.0,1.0*30
$GPRMC,103036.229,A,5531.314,N,00854.069,E,252.7,087.4,191218,000.0,W*7D
$GPGGA,103037.229,5531.320,N,00854.193,E,1,12,1.0,0.0,M,0.0,M,,*60
$GPGSA,A,3,01,02,03,04,05,06,07,08,09,10,11,12,1.0,1.0,1.0*30
$GPRMC,103037.229,A,5531.320,N,00854.193,E,252.7,097.4,191218,000.0,W*7E
$GPGGA,103038.229,5531.304,N,00854.314,E,1,12,1.0,0.0,M,0.0,M,,*64
$GPGSA,A,3,01,02,03,04,05,06,07,08,09,10,11,12,1.0,1.0,1.0*30
$GPRMC,103038.229,A,5531.304,N,00854.314,E,252.7,097.4,191218,000.0,W*7A
$GPGGA,103039.229,5531.289,N,00854.434,E,1,12,1.0,0.0,M,0.0,M,,*64
$GPGSA,A,3,01,02,03,04,05,06,07,08,09,10,11,12,1.0,1.0,1.0*30
$GPRMC,103039.229,A,5531.289,N,00854.434,E,252.7,097.4,191218,000.0,W*7A
$GPGGA,103040.229,5531.273,N,00854.555,E,1,12,1.0,0.0,M,0.0,M,,*69
$GPGSA,A,3,01,02,03,04,05,06,07,08,09,10,11,12,1.0,1.0,1.0*30
$GPRMC,103040.229,A,5531.273,N,00854.555,E,252.7,097.4,191218,000.0,W*77
$GPGGA,103041.229,5531.258,N,00854.676,E,1,12,1.0,0.0,M,0.0,M,,*63
$GPGSA,A,3,01,02,03,04,05,06,07,08,09,10,11,12,1.0,1.0,1.0*30
$GPRMC,103041.229,A,5531.258,N,00854.676,E,252.7,097.4,191218,000.0,W*7D
$GPGGA,103042.229,5531.242,N,00854.797,E,1,12,1.0,0.0,M,0.0,M,,*65
$GPGSA,A,3,01,02,03,04,05,06,07,08,09,10,11,12,1.0,1.0,1.0*30
$GPRMC,103042.229,A,5531.242,N,00854.797,E,252.7,097.4,191218,000.0,W*7B
$GPGGA,103043.229,5531.227,N,00854.918,E,1,12,1.0,0.0,M,0.0,M,,*6E
$GPGSA,A,3,01,02,03,04,05,06,07,08,09,10,11,12,1.0,1.0,1.0*30
$GPRMC,103043.229,A,5531.227,N,00854.918,E,252.7,097.4,191218,000.0,W*70
$GPGGA,103044.229,5531.211,N,00855.039,E,1,12,1.0,0.0,M,0.0,M,,*67
$GPGSA,A,3,01,02,03,04,05,06,07,08,09,10,11,12,1.0,1.0,1.0*30
$GPRMC,103044.229,A,5531.211,N,00855.039,E,252.7,097.4,191218,000.0,W*79
$GPGGA,103045.229,5531.196,N,00855.159,E,1,12,1.0,0.0,M,0.0,M,,*6D
$GPGSA,A,3,01,02,03,04,05,06,07,08,09,10,11,12,1.0,1.0,1.0*30
$GPRMC,103045.229,A,5531.196,N,00855.159,E,252.7,097.4,191218,000.0,W*73
$GPGGA,103046.229,5531.180,N,00855.280,E,1,12,1.0,0.0,M,0.0,M,,*6E
$GPGSA,A,3,01,02,03,04,05,06,07,08,09,10,11,12,1.0,1.0,1.0*30
$GPRMC,103046.229,A,5531.180,N,00855.280,E,252.7,097.4,191218,000.0,W*70
$GPGGA,103047.229,5531.165,N,00855.401,E,1,12,1.0,0.0,M,0.0,M,,*6B
$GPGSA,A,3,01,02,03,04,05,06,07,08,09,10,11,12,1.0,1.0,1.0*30
$GPRMC,103047.229,A,5531.165,N,00855.401,E,252.7,097.4,191218,000.0,W*75
$GPGGA,103048.229,5531.149,N,00855.522,E,1,12,1.0,0.0,M,0.0,M,,*6A
$GPGSA,A,3,01,02,03,04,05,06,07,08,09,10,11,12,1.0,1.0,1.0*30
$GPRMC,103048.229,A,5531.149,N,00855.522,E,252.7,097.4,191218,000.0,W*74
$GPGGA,103049.229,5531.134,N,00855.643,E,1,12,1.0,0.0,M,0.0,M,,*65
$GPGSA,A,3,01,02,03,04,05,06,07,08,09,10,11,12,1.0,1.0,1.0*30
$GPRMC,103049.229,A,5531.134,N,00855.643,E,252.7,097.4,191218,000.0,W*7B
$GPGGA,103050.229,5531.118,N,00855.764,E,1,12,1.0,0.0,M,0.0,M,,*67
$GPGSA,A,3,01,02,03,04,05,06,07,08,09,10,11,12,1.0,1.0,1.0*30
$GPRMC,103050.229,A,5531.118,N,00855.764,E,252.7,097.4,191218,000.0,W*79
$GPGGA,103051.229,5531.102,N,00855.884,E,1,12,1.0,0.0,M,0.0,M,,*6C
$GPGSA,A,3,01,02,03,04,05,06,07,08,09,10,11,12,1.0,1.0,1.0*30
$GPRMC,103051.229,A,5531.102,N,00855.884,E,252.7,099.0,191218,000.0,W*78
$GPGGA,103052.229,5531.084,N,00856.004,E,1,12,1.0,0.0,M,0.0,M,,*63
$GPGSA,A,3,01,02,03,04,05,06,07,08,09,10,11,12,1.0,1.0,1.0*30
$GPRMC,103052.229,A,5531.084,N,00856.004,E,252.7,099.0,191218,000.0,W*77
$GPGGA,103053.229,5531.065,N,00856.123,E,1,12,1.0,0.0,M,0.0,M,,*69
$GPGSA,A,3,01,02,03,04,05,06,07,08,09,10,11,12,1.0,1.0,1.0*30
$GPRMC,103053.229,A,5531.065,N,00856.123,E,252.7,099.0,191218,000.0,W*7D
$GPGGA,103054.229,5531.046,N,00856.242,E,1,12,1.0,0.0,M,0.0,M,,*6B
$GPGSA,A,3,01,02,03,04,05,06,07,08,09,10,11,12,1.0,1.0,1.0*30
$GPRMC,103054.229,A,5531.046,N,00856.242,E,252.7,099.0,191218,000.0,W*7F
$GPGGA,103055.229,5531.027,N,00856.362,E,1,12,1.0,0.0,M,0.0,M,,*6E
$GPGSA,A,3,01,02,03,04,05,06,07,08,09,10,11,12,1.0,1.0,1.0*30
$GPRMC,103055.229,A,5531.027,N,00856.362,E,252.7,099.0,191218,000.0,W*7A
$GPGGA,103056.229,5531.008,N,00856.481,E,1,12,1.0,0.0,M,0.0,M,,*6A
$GPGSA,A,3,01,02,03,04,05,06,07,08,09,10,11,12,1.0,1.0,1.0*30
$GPRMC,103056.229,A,5531.008,N,00856.481,E,252.7,099.0,191218,000.0,W*7E
$GPGGA,103057.229,5530.989,N,00856.600,E,1,12,1.0,0.0,M,0.0,M,,*61
$GPGSA,A,3,01,02,03,04,05,06,07,08,09,10,11,12,1.0,1.0,1.0*30
$GPRMC,103057.229,A,5530.989,N,00856.600,E,252.7,099.0,191218,000.0,W*75
$GPGGA,103058.229,5530.970,N,00856.720,E,1,12,1.0,0.0,M,0.0,M,,*6B
$GPGSA,A,3,01,02,03,04,05,06,07,08,09,10,11,12,1.0,1.0,1.0*30
$GPRMC,103058.229,A,5530.970,N,00856.720,E,252.7,099.0,191218,000.0,W*7F
