$GPGGA,103809.681,5528.068,N,00827.469,E,1,12,1.0,0.0,M,0.0,M,,*60
$GPGSA,A,3,01,02,03,04,05,06,07,08,09,10,11,12,1.0,1.0,1.0*30
$GPRMC,103809.681,A,5528.068,N,00827.469,E,027.0,023.8,191218,000.0,W*7A
$GPGGA,103810.681,5528.075,N,00827.472,E,1,12,1.0,0.0,M,0.0,M,,*6E
$GPGSA,A,3,01,02,03,04,05,06,07,08,09,10,11,12,1.0,1.0,1.0*30
$GPRMC,103810.681,A,5528.075,N,00827.472,E,027.0,023.8,191218,000.0,W*74
$GPGGA,103811.681,5528.082,N,00827.476,E,1,12,1.0,0.0,M,0.0,M,,*63
$GPGSA,A,3,01,02,03,04,05,06,07,08,09,10,11,12,1.0,1.0,1.0*30
$GPRMC,103811.681,A,5528.082,N,00827.476,E,027.0,023.8,191218,000.0,W*79
$GPGGA,103812.681,5528.090,N,00827.479,E,1,12,1.0,0.0,M,0.0,M,,*6C
$GPGSA,A,3,01,02,03,04,05,06,07,08,09,10,11,12,1.0,1.0,1.0*30
$GPRMC,103812.681,A,5528.090,N,00827.479,E,027.0,023.8,191218,000.0,W*76
$GPGGA,103813.681,5528.097,N,00827.482,E,1,12,1.0,0.0,M,0.0,M,,*6E
$GPGSA,A,3,01,02,03,04,05,06,07,08,09,10,11,12,1.0,1.0,1.0*30
$GPRMC,103813.681,A,5528.097,N,00827.482,E,027.0,023.8,191218,000.0,W*74
$GPGGA,103814.681,5528.104,N,00827.485,E,1,12,1.0,0.0,M,0.0,M,,*65
$GPGSA,A,3,01,02,03,04,05,06,07,08,09,10,11,12,1.0,1.0,1.0*30
$GPRMC,103814.681,A,5528.104,N,00827.485,E,027.0,023.8,191218,000.0,W*7F
$GPGGA,103815.681,5528.112,N,00827.489,E,1,12,1.0,0.0,M,0.0,M,,*6F
$GPGSA,A,3,01,02,03,04,05,06,07,08,09,10,11,12,1.0,1.0,1.0*30
$GPRMC,103815.681,A,5528.112,N,00827.489,E,027.0,023.8,191218,000.0,W*75
$GPGGA,103816.681,5528.119,N,00827.492,E,1,12,1.0,0.0,M,0.0,M,,*6D
$GPGSA,A,3,01,02,03,04,05,06,07,08,09,10,11,12,1.0,1.0,1.0*30
$GPRMC,103816.681,A,5528.119,N,00827.492,E,027.0,023.8,191218,000.0,W*77
$GPGGA,103817.681,5528.126,N,00827.495,E,1,12,1.0,0.0,M,0.0,M,,*67
$GPGSA,A,3,01,02,03,04,05,06,07,08,09,10,11,12,1.0,1.0,1.0*30
$GPRMC,103817.681,A,5528.126,N,00827.495,E,027.0,023.8,191218,000.0,W*7D
$GPGGA,103818.681,5528.133,N,00827.498,E,1,12,1.0,0.0,M,0.0,M,,*61
$GPGSA,A,3,01,02,03,04,05,06,07,08,09,10,11,12,1.0,1.0,1.0*30
$GPRMC,103818.681,A,5528.133,N,00827.498,E,027.0,023.8,191218,000.0,W*7B
$GPGGA,103819.681,5528.141,N,00827.501,E,1,12,1.0,0.0,M,0.0,M,,*64
$GPGSA,A,3,01,02,03,04,05,06,07,08,09,10,11,12,1.0,1.0,1.0*30
$GPRMC,103819.681,A,5528.141,N,00827.501,E,027.0,023.8,191218,000.0,W*7E
$GPGGA,103820.681,5528.148,N,00827.505,E,1,12,1.0,0.0,M,0.0,M,,*63
$GPGSA,A,3,01,02,03,04,05,06,07,08,09,10,11,12,1.0,1.0,1.0*30
$GPRMC,103820.681,A,5528.148,N,00827.505,E,027.0,023.8,191218,000.0,W*79
$GPGGA,103821.681,5528.155,N,00827.508,E,1,12,1.0,0.0,M,0.0,M,,*63
$GPGSA,A,3,01,02,03,04,05,06,07,08,09,10,11,12,1.0,1.0,1.0*30
$GPRMC,103821.681,A,5528.155,N,00827.508,E,027.0,023.8,191218,000.0,W*79
$GPGGA,103822.681,5528.162,N,00827.511,E,1,12,1.0,0.0,M,0.0,M,,*6C
$GPGSA,A,3,01,02,03,04,05,06,07,08,09,10,11,12,1.0,1.0,1.0*30
$GPRMC,103822.681,A,5528.162,N,00827.511,E,027.0,023.8,191218,000.0,W*76
$GPGGA,103823.681,5528.170,N,00827.514,E,1,12,1.0,0.0,M,0.0,M,,*6B
$GPGSA,A,3,01,02,03,04,05,06,07,08,09,10,11,12,1.0,1.0,1.0*30
$GPRMC,103823.681,A,5528.170,N,00827.514,E,027.0,023.8,191218,000.0,W*71
$GPGGA,103824.681,5528.177,N,00827.517,E,1,12,1.0,0.0,M,0.0,M,,*68
$GPGSA,A,3,01,02,03,04,05,06,07,08,09,10,11,12,1.0,1.0,1.0*30
$GPRMC,103824.681,A,5528.177,N,00827.517,E,027.0,023.8,191218,000.0,W*72
$GPGGA,103825.681,5528.184,N,00827.521,E,1,12,1.0,0.0,M,0.0,M,,*60
$GPGSA,A,3,01,02,03,04,05,06,07,08,09,10,11,12,1.0,1.0,1.0*30
$GPRMC,103825.681,A,5528.184,N,00827.521,E,027.0,023.8,191218,000.0,W*7A
$GPGGA,103826.681,5528.191,N,00827.524,E,1,12,1.0,0.0,M,0.0,M,,*62
$GPGSA,A,3,01,02,03,04,05,06,07,08,09,10,11,12,1.0,1.0,1.0*30
$GPRMC,103826.681,A,5528.191,N,00827.524,E,027.0,023.8,191218,000.0,W*78
$GPGGA,103827.681,5528.199,N,00827.527,E,1,12,1.0,0.0,M,0.0,M,,*68
$GPGSA,A,3,01,02,03,04,05,06,07,08,09,10,11,12,1.0,1.0,1.0*30
$GPRMC,103827.681,A,5528.199,N,00827.527,E,027.0,023.8,191218,000.0,W*72
$GPGGA,103828.681,5528.206,N,00827.530,E,1,12,1.0,0.0,M,0.0,M,,*64
$GPGSA,A,3,01,02,03,04,05,06,07,08,09,10,11,12,1.0,1.0,1.0*30
$GPRMC,103828.681,A,5528.206,N,00827.530,E,027.0,023.8,191218,000.0,W*7E
$GPGGA,103829.681,5528.213,N,00827.534,E,1,12,1.0,0.0,M,0.0,M,,*65
$GPGSA,A,3,01,02,03,04,05,06,07,08,09,10,11,12,1.0,1.0,1.0*30
$GPRMC,103829.681,A,5528.213,N,00827.534,E,027.0,023.8,191218,000.0,W*7F
$GPGGA,103830.681,5528.221,N,00827.537,E,1,12,1.0,0.0,M,0.0,M,,*6F
$GPGSA,A,3,01,02,03,04,05,06,07,08,09,10,11,12,1.0,1.0,1.0*30
$GPRMC,103830.681,A,5528.221,N,00827.537,E,027.0,023.8,191218,000.0,W*75
$GPGGA,103831.681,5528.228,N,00827.540,E,1,12,1.0,0.0,M,0.0,M,,*67
$GPGSA,A,3,01,02,03,04,05,06,07,08,09,10,11,12,1.0,1.0,1.0*30
$GPRMC,103831.681,A,5528.228,N,00827.540,E,027.0,023.8,191218,000.0,W*7D
$GPGGA,103832.681,5528.235,N,00827.543,E,1,12,1.0,0.0,M,0.0,M,,*6B
$GPGSA,A,3,01,02,03,04,05,06,07,08,09,10,11,12,1.0,1.0,1.0*30
$GPRMC,103832.681,A,5528.235,N,00827.543,E,027.0,023.8,191218,000.0,W*71
$GPGGA,103833.681,5528.242,N,00827.546,E,1,12,1.0,0.0,M,0.0,M,,*6F
$GPGSA,A,3,01,02,03,04,05,06,07,08,09,10,11,12,1.0,1.0,1.0*30
$GPRMC,103833.681,A,5528.242,N,00827.546,E,027.0,023.8,191218,000.0,W*75
$GPGGA,103834.681,5528.250,N,00827.550,E,1,12,1.0,0.0,M,0.0,M,,*6C
$GPGSA,A,3,01,02,03,04,05,06,07,08,09,10,11,12,1.0,1.0,1.0*30
$GPRMC,103834.681,A,5528.250,N,00827.550,E,027.0,023.8,191218,000.0,W*76
$GPGGA,103835.681,5528.257,N,00827.553,E,1,12,1.0,0.0,M,0.0,M,,*69
$GPGSA,A,3,01,02,03,04,05,06,07,08,09,10,11,12,1.0,1.0,1.0*30
$GPRMC,103835.681,A,5528.257,N,00827.553,E,027.0,023.8,191218,000.0,W*73
$GPGGA,103836.681,5528.264,N,00827.556,E,1,12,1.0,0.0,M,0.0,M,,*6F
$GPGSA,A,3,01,02,03,04,05,06,07,08,09,10,11,12,1.0,1.0,1.0*30
$GPRMC,103836.681,A,5528.264,N,00827.556,E,027.0,023.8,191218,000.0,W*75
$GPGGA,103837.681,5528.271,N,00827.559,E,1,12,1.0,0.0,M,0.0,M,,*65
$GPGSA,A,3,01,02,03,04,05,06,07,08,09,10,11,12,1.0,1.0,1.0*30
$GPRMC,103837.681,A,5528.271,N,00827.559,E,027.0,091.9,191218,000.0,W*77
$GPGGA,103838.681,5528.271,N,00827.573,E,1,12,1.0,0.0,M,0.0,M,,*62
$GPGSA,A,3,01,02,03,04,05,06,07,08,09,10,11,12,1.0,1.0,1.0*30
$GPRMC,103838.681,A,5528.271,N,00827.573,E,027.0,091.9,191218,000.0,W*70
$GPGGA,103839.681,5528.271,N,00827.586,E,1,12,1.0,0.0,M,0.0,M,,*69
$GPGSA,A,3,01,02,03,04,05,06,07,08,09,10,11,12,1.0,1.0,1.0*30
$GPRMC,103839.681,A,5528.271,N,00827.586,E,027.0,091.9,191218,000.0,W*7B
$GPGGA,103840.681,5528.270,N,00827.599,E,1,12,1.0,0.0,M,0.0,M,,*68
$GPGSA,A,3,01,02,03,04,05,06,07,08,09,10,11,12,1.0,1.0,1.0*30
$GPRMC,103840.681,A,5528.270,N,00827.599,E,027.0,091.9,191218,000.0,W*7A
$GPGGA,103841.681,5528.270,N,00827.612,E,1,12,1.0,0.0,M,0.0,M,,*69
$GPGSA,A,3,01,02,03,04,05,06,07,08,09,10,11,12,1.0,1.0,1.0*30
$GPRMC,103841.681,A,5528.270,N,00827.612,E,027.0,091.9,191218,000.0,W*7B
$GPGGA,103842.681,5528.269,N,00827.625,E,1,12,1.0,0.0,M,0.0,M,,*66
$GPGSA,A,3,01,02,03,04,05,06,07,08,09,10,11,12,1.0,1.0,1.0*30
$GPRMC,103842.681,A,5528.269,N,00827.625,E,027.0,091.9,191218,000.0,W*74
$GPGGA,103843.681,5528.269,N,00827.639,E,1,12,1.0,0.0,M,0.0,M,,*6A
$GPGSA,A,3,01,02,03,04,05,06,07,08,09,10,11,12,1.0,1.0,1.0*30
$GPRMC,103843.681,A,5528.269,N,00827.639,E,027.0,091.9,191218,000.0,W*78
$GPGGA,103844.681,5528.268,N,00827.652,E,1,12,1.0,0.0,M,0.0,M,,*61
$GPGSA,A,3,01,02,03,04,05,06,07,08,09,10,11,12,1.0,1.0,1.0*30
$GPRMC,103844.681,A,5528.268,N,00827.652,E,027.0,091.9,191218,000.0,W*73
$GPGGA,103845.681,5528.268,N,00827.665,E,1,12,1.0,0.0,M,0.0,M,,*64
$GPGSA,A,3,01,02,03,04,05,06,07,08,09,10,11,12,1.0,1.0,1.0*30
$GPRMC,103845.681,A,5528.268,N,00827.665,E,027.0,091.9,191218,000.0,W*76
$GPGGA,103846.681,5528.268,N,00827.678,E,1,12,1.0,0.0,M,0.0,M,,*6B
$GPGSA,A,3,01,02,03,04,05,06,07,08,09,10,11,12,1.0,1.0,1.0*30
$GPRMC,103846.681,A,5528.268,N,00827.678,E,027.0,091.9,191218,000.0,W*79
$GPGGA,103847.681,5528.267,N,00827.691,E,1,12,1.0,0.0,M,0.0,M,,*62
$GPGSA,A,3,01,02,03,04,05,06,07,08,09,10,11,12,1.0,1.0,1.0*30
$GPRMC,103847.681,A,5528.267,N,00827.691,E,027.0,091.9,191218,000.0,W*70
$GPGGA,103848.681,5528.267,N,00827.705,E,1,12,1.0,0.0,M,0.0,M,,*61
$GPGSA,A,3,01,02,03,04,05,06,07,08,09,10,11,12,1.0,1.0,1.0*30
$GPRMC,103848.681,A,5528.267,N,00827.705,E,027.0,091.9,191218,000.0,W*73
$GPGGA,103849.681,5528.266,N,00827.718,E,1,12,1.0,0.0,M,0.0,M,,*6D
$GPGSA,A,3,01,02,03,04,05,06,07,08,09,10,11,12,1.0,1.0,1.0*30
$GPRMC,103849.681,A,5528.266,N,00827.718,E,027.0,091.9,191218,000.0,W*7F
$GPGGA,103850.681,5528.266,N,00827.731,E,1,12,1.0,0.0,M,0.0,M,,*6E
$GPGSA,A,3,01,02,03,04,05,06,07,08,09,10,11,12,1.0,1.0,1.0*30
$GPRMC,103850.681,A,5528.266,N,00827.731,E,027.0,091.9,191218,000.0,W*7C
$GPGGA,103851.681,5528.265,N,00827.744,E,1,12,1.0,0.0,M,0.0,M,,*6E
$GPGSA,A,3,01,02,03,04,05,06,07,08,09,10,11,12,1.0,1.0,1.0*30
$GPRMC,103851.681,A,5528.265,N,00827.744,E,027.0,091.9,191218,000.0,W*7C
$GPGGA,103852.681,5528.265,N,00827.757,E,1,12,1.0,0.0,M,0.0,M,,*6F
$GPGSA,A,3,01,02,03,04,05,06,07,08,09,10,11,12,1.0,1.0,1.0*30
$GPRMC,103852.681,A,5528.265,N,00827.757,E,027.0,091.9,191218,000.0,W*7D
$GPGGA,103853.681,5528.265,N,00827.771,E,1,12,1.0,0.0,M,0.0,M,,*6A
$GPGSA,A,3,01,02,03,04,05,06,07,08,09,10,11,12,1.0,1.0,1.0*30
$GPRMC,103853.681,A,5528.265,N,00827.771,E,027.0,091.9,191218,000.0,W*78
$GPGGA,103854.681,5528.264,N,00827.784,E,1,12,1.0,0.0,M,0.0,M,,*66
$GPGSA,A,3,01,02,03,04,05,06,07,08,09,10,11,12,1.0,1.0,1.0*30
$GPRMC,103854.681,A,5528.264,N,00827.784,E,027.0,091.9,191218,000.0,W*74
$GPGGA,103855.681,5528.264,N,00827.797,E,1,12,1.0,0.0,M,0.0,M,,*65
$GPGSA,A,3,01,02,03,04,05,06,07,08,09,10,11,12,1.0,1.0,1.0*30
$GPRMC,103855.681,A,5528.264,N,00827.797,E,027.0,091.9,191218,000.0,W*77
$GPGGA,103856.681,5528.263,N,00827.810,E,1,12,1.0,0.0,M,0.0,M,,*61
$GPGSA,A,3,01,02,03,04,05,06,07,08,09,10,11,12,1.0,1.0,1.0*30
$GPRMC,103856.681,A,5528.263,N,00827.810,E,027.0,091.9,191218,000.0,W*73
$GPGGA,103857.681,5528.263,N,00827.823,E,1,12,1.0,0.0,M,0.0,M,,*60
$GPGSA,A,3,01,02,03,04,05,06,07,08,09,10,11,12,1.0,1.0,1.0*30
$GPRMC,103857.681,A,5528.263,N,00827.823,E,027.0,091.9,191218,000.0,W*72
$GPGGA,103858.681,5528.262,N,00827.837,E,1,12,1.0,0.0,M,0.0,M,,*6B
$GPGSA,A,3,01,02,03,04,05,06,07,08,09,10,11,12,1.0,1.0,1.0*30
$GPRMC,103858.681,A,5528.262,N,00827.837,E,027.0,091.9,191218,000.0,W*79
$GPGGA,103859.681,5528.262,N,00827.850,E,1,12,1.0,0.0,M,0.0,M,,*6B
$GPGSA,A,3,01,02,03,04,05,06,07,08,09,10,11,12,1.0,1.0,1.0*30
$GPRMC,103859.681,A,5528.262,N,00827.850,E,027.0,091.9,191218,000.0,W*79
$GPGGA,103900.681,5528.262,N,00827.863,E,1,12,1.0,0.0,M,0.0,M,,*66
$GPGSA,A,3,01,02,03,04,05,06,07,08,09,10,11,12,1.0,1.0,1.0*30
$GPRMC,103900.681,A,5528.262,N,00827.863,E,027.0,075.8,191218,000.0,W*7F
$GPGGA,103901.681,5528.265,N,00827.875,E,1,12,1.0,0.0,M,0.0,M,,*67
$GPGSA,A,3,01,02,03,04,05,06,07,08,09,10,11,12,1.0,1.0,1.0*30
$GPRMC,103901.681,A,5528.265,N,00827.875,E,027.0,075.8,191218,000.0,W*7E
$GPGGA,103902.681,5528.268,N,00827.887,E,1,12,1.0,0.0,M,0.0,M,,*64
$GPGSA,A,3,01,02,03,04,05,06,07,08,09,10,11,12,1.0,1.0,1.0*30
$GPRMC,103902.681,A,5528.268,N,00827.887,E,027.0,075.8,191218,000.0,W*7D
$GPGGA,103903.681,5528.271,N,00827.899,E,1,12,1.0,0.0,M,0.0,M,,*62
$GPGSA,A,3,01,02,03,04,05,06,07,08,09,10,11,12,1.0,1.0,1.0*30
$GPRMC,103903.681,A,5528.271,N,00827.899,E,027.0,075.8,191218,000.0,W*7B
$GPGGA,103904.681,5528.274,N,00827.911,E,1,12,1.0,0.0,M,0.0,M,,*61
$GPGSA,A,3,01,02,03,04,05,06,07,08,09,10,11,12,1.0,1.0,1.0*30
$GPRMC,103904.681,A,5528.274,N,00827.911,E,027.0,075.8,191218,000.0,W*78
$GPGGA,103905.681,5528.277,N,00827.923,E,1,12,1.0,0.0,M,0.0,M,,*62
$GPGSA,A,3,01,02,03,04,05,06,07,08,09,10,11,12,1.0,1.0,1.0*30
$GPRMC,103905.681,A,5528.277,N,00827.923,E,027.0,075.8,191218,000.0,W*7B
$GPGGA,103906.681,5528.280,N,00827.935,E,1,12,1.0,0.0,M,0.0,M,,*6E
$GPGSA,A,3,01,02,03,04,05,06,07,08,09,10,11,12,1.0,1.0,1.0*30
$GPRMC,103906.681,A,5528.280,N,00827.935,E,027.0,075.8,191218,000.0,W*77
$GPGGA,103907.681,5528.283,N,00827.948,E,1,12,1.0,0.0,M,0.0,M,,*66
$GPGSA,A,3,01,02,03,04,05,06,07,08,09,10,11,12,1.0,1.0,1.0*30
$GPRMC,103907.681,A,5528.283,N,00827.948,E,027.0,075.8,191218,000.0,W*7F
$GPGGA,103908.681,5528.286,N,00827.960,E,1,12,1.0,0.0,M,0.0,M,,*66
$GPGSA,A,3,01,02,03,04,05,06,07,08,09,10,11,12,1.0,1.0,1.0*30
$GPRMC,103908.681,A,5528.286,N,00827.960,E,027.0,075.8,191218,000.0,W*7F
$GPGGA,103909.681,5528.289,N,00827.972,E,1,12,1.0,0.0,M,0.0,M,,*6B
$GPGSA,A,3,01,02,03,04,05,06,07,08,09,10,11,12,1.0,1.0,1.0*30
$GPRMC,103909.681,A,5528.289,N,00827.972,E,027.0,075.8,191218,000.0,W*72
$GPGGA,103910.681,5528.292,N,00827.984,E,1,12,1.0,0.0,M,0.0,M,,*60
$GPGSA,A,3,01,02,03,04,05,06,07,08,09,10,11,12,1.0,1.0,1.0*30
$GPRMC,103910.681,A,5528.292,N,00827.984,E,027.0,075.8,191218,000.0,W*79
$GPGGA,103911.681,5528.295,N,00827.996,E,1,12,1.0,0.0,M,0.0,M,,*65
$GPGSA,A,3,01,02,03,04,05,06,07,08,09,10,11,12,1.0,1.0,1.0*30
$GPRMC,103911.681,A,5528.295,N,00827.996,E,027.0,075.8,191218,000.0,W*7C
$GPGGA,103912.681,5528.298,N,00828.008,E,1,12,1.0,0.0,M,0.0,M,,*6A
$GPGSA,A,3,01,02,03,04,05,06,07,08,09,10,11,12,1.0,1.0,1.0*30
$GPRMC,103912.681,A,5528.298,N,00828.008,E,027.0,075.8,191218,000.0,W*73
$GPGGA,103913.681,5528.301,N,00828.020,E,1,12,1.0,0.0,M,0.0,M,,*60
$GPGSA,A,3,01,02,03,04,05,06,07,08,09,10,11,12,1.0,1.0,1.0*30
$GPRMC,103913.681,A,5528.301,N,00828.020,E,027.0,075.8,191218,000.0,W*79
$GPGGA,103914.681,5528.304,N,00828.032,E,1,12,1.0,0.0,M,0.0,M,,*61
$GPGSA,A,3,01,02,03,04,05,06,07,08,09,10,11,12,1.0,1.0,1.0*30
$GPRMC,103914.681,A,5528.304,N,00828.032,E,027.0,075.8,191218,000.0,W*78
$GPGGA,103915.681,5528.307,N,00828.044,E,1,12,1.0,0.0,M,0.0,M,,*62
$GPGSA,A,3,01,02,03,04,05,06,07,08,09,10,11,12,1.0,1.0,1.0*30
$GPRMC,103915.681,A,5528.307,N,00828.044,E,027.0,075.8,191218,000.0,W*7B
$GPGGA,103916.681,5528.310,N,00828.056,E,1,12,1.0,0.0,M,0.0,M,,*64
$GPGSA,A,3,01,02,03,04,05,06,07,08,09,10,11,12,1.0,1.0,1.0*30
$GPRMC,103916.681,A,5528.310,N,00828.056,E,027.0,075.8,191218,000.0,W*7D
$GPGGA,103917.681,5528.313,N,00828.068,E,1,12,1.0,0.0,M,0.0,M,,*6B
$GPGSA,A,3,01,02,03,04,05,06,07,08,09,10,11,12,1.0,1.0,1.0*30
$GPRMC,103917.681,A,5528.313,N,00828.068,E,027.0,075.8,191218,000.0,W*72
$GPGGA,103918.681,5528.316,N,00828.081,E,1,12,1.0,0.0,M,0.0,M,,*66
$GPGSA,A,3,01,02,03,04,05,06,07,08,09,10,11,12,1.0,1.0,1.0*30
$GPRMC,103918.681,A,5528.316,N,00828.081,E,027.0,075.8,191218,000.0,W*7F
$GPGGA,103919.681,5528.319,N,00828.093,E,1,12,1.0,0.0,M,0.0,M,,*6B
$GPGSA,A,3,01,02,03,04,05,06,07,08,09,10,11,12,1.0,1.0,1.0*30
$GPRMC,103919.681,A,5528.319,N,00828.093,E,027.0,075.8,191218,000.0,W*72
$GPGGA,103920.681,5528.322,N,00828.105,E,1,12,1.0,0.0,M,0.0,M,,*67
$GPGSA,A,3,01,02,03,04,05,06,07,08,09,10,11,12,1.0,1.0,1.0*30
$GPRMC,103920.681,A,5528.322,N,00828.105,E,027.0,075.8,191218,000.0,W*7E
$GPGGA,103921.681,5528.325,N,00828.117,E,1,12,1.0,0.0,M,0.0,M,,*62
$GPGSA,A,3,01,02,03,04,05,06,07,08,09,10,11,12,1.0,1.0,1.0*30
$GPRMC,103921.681,A,5528.325,N,00828.117,E,027.0,075.8,191218,000.0,W*7B
$GPGGA,103922.681,5528.328,N,00828.129,E,1,12,1.0,0.0,M,0.0,M,,*61
$GPGSA,A,3,01,02,03,04,05,06,07,08,09,10,11,12,1.0,1.0,1.0*30
$GPRMC,103922.681,A,5528.328,N,00828.129,E,027.0,075.8,191218,000.0,W*78
$GPGGA,103923.681,5528.331,N,00828.141,E,1,12,1.0,0.0,M,0.0,M,,*66
$GPGSA,A,3,01,02,03,04,05,06,07,08,09,10,11,12,1.0,1.0,1.0*30
$GPRMC,103923.681,A,5528.331,N,00828.141,E,027.0,075.8,191218,000.0,W*7F
$GPGGA,103924.681,5528.334,N,00828.153,E,1,12,1.0,0.0,M,0.0,M,,*67
$GPGSA,A,3,01,02,03,04,05,06,07,08,09,10,11,12,1.0,1.0,1.0*30
$GPRMC,103924.681,A,5528.334,N,00828.153,E,027.0,075.8,191218,000.0,W*7E
$GPGGA,103925.681,5528.337,N,00828.165,E,1,12,1.0,0.0,M,0.0,M,,*60
$GPGSA,A,3,01,02,03,04,05,06,07,08,09,10,11,12,1.0,1.0,1.0*30
$GPRMC,103925.681,A,5528.337,N,00828.165,E,027.0,075.8,191218,000.0,W*79
$GPGGA,103926.681,5528.340,N,00828.177,E,1,12,1.0,0.0,M,0.0,M,,*60
$GPGSA,A,3,01,02,03,04,05,06,07,08,09,10,11,12,1.0,1.0,1.0*30
$GPRMC,103926.681,A,5528.340,N,00828.177,E,027.0,075.8,191218,000.0,W*79
$GPGGA,103927.681,5528.344,N,00828.189,E,1,12,1.0,0.0,M,0.0,M,,*64
$GPGSA,A,3,01,02,03,04,05,06,07,08,09,10,11,12,1.0,1.0,1.0*30
$GPRMC,103927.681,A,5528.344,N,00828.189,E,027.0,075.8,191218,000.0,W*7D
$GPGGA,103928.681,5528.347,N,00828.201,E,1,12,1.0,0.0,M,0.0,M,,*6B
$GPGSA,A,3,01,02,03,04,05,06,07,08,09,10,11,12,1.0,1.0,1.0*30
$GPRMC,103928.681,A,5528.347,N,00828.201,E,027.0,075.8,191218,000.0,W*72
$GPGGA,103929.681,5528.350,N,00828.214,E,1,12,1.0,0.0,M,0.0,M,,*68
$GPGSA,A,3,01,02,03,04,05,06,07,08,09,10,11,12,1.0,1.0,1.0*30
$GPRMC,103929.681,A,5528.350,N,00828.214,E,027.0,075.8,191218,000.0,W*71
$GPGGA,103930.681,5528.353,N,00828.226,E,1,12,1.0,0.0,M,0.0,M,,*62
$GPGSA,A,3,01,02,03,04,05,06,07,08,09,10,11,12,1.0,1.0,1.0*30
$GPRMC,103930.681,A,5528.353,N,00828.226,E,027.0,075.8,191218,000.0,W*7B
$GPGGA,103931.681,5528.356,N,00828.238,E,1,12,1.0,0.0,M,0.0,M,,*69
$GPGSA,A,3,01,02,03,04,05,06,07,08,09,10,11,12,1.0,1.0,1.0*30
$GPRMC,103931.681,A,5528.356,N,00828.238,E,027.0,075.8,191218,000.0,W*70
$GPGGA,103932.681,5528.359,N,00828.250,E,1,12,1.0,0.0,M,0.0,M,,*6B
$GPGSA,A,3,01,02,03,04,05,06,07,08,09,10,11,12,1.0,1.0,1.0*30
$GPRMC,103932.681,A,5528.359,N,00828.250,E,027.0,075.8,191218,000.0,W*72
$GPGGA,103933.681,5528.362,N,00828.262,E,1,12,1.0,0.0,M,0.0,M,,*63
$GPGSA,A,3,01,02,03,04,05,06,07,08,09,10,11,12,1.0,1.0,1.0*30
$GPRMC,103933.681,A,5528.362,N,00828.262,E,027.0,075.8,191218,000.0,W*7A
$GPGGA,103934.681,5528.365,N,00828.274,E,1,12,1.0,0.0,M,0.0,M,,*64
$GPGSA,A,3,01,02,03,04,05,06,07,08,09,10,11,12,1.0,1.0,1.0*30
$GPRMC,103934.681,A,5528.365,N,00828.274,E,027.0,075.8,191218,000.0,W*7D
$GPGGA,103935.681,5528.368,N,00828.286,E,1,12,1.0,0.0,M,0.0,M,,*65
$GPGSA,A,3,01,02,03,04,05,06,07,08,09,10,11,12,1.0,1.0,1.0*30
$GPRMC,103935.681,A,5528.368,N,00828.286,E,027.0,075.8,191218,000.0,W*7C
$GPGGA,103936.681,5528.371,N,00828.298,E,1,12,1.0,0.0,M,0.0,M,,*61
$GPGSA,A,3,01,02,03,04,05,06,07,08,09,10,11,12,1.0,1.0,1.0*30
$GPRMC,103936.681,A,5528.371,N,00828.298,E,027.0,075.8,191218,000.0,W*78
$GPGGA,103937.681,5528.374,N,00828.310,E,1,12,1.0,0.0,M,0.0,M,,*64
$GPGSA,A,3,01,02,03,04,05,06,07,08,09,10,11,12,1.0,1.0,1.0*30
$GPRMC,103937.681,A,5528.374,N,00828.310,E,027.0,075.8,191218,000.0,W*7D
$GPGGA,103938.681,5528.377,N,00828.322,E,1,12,1.0,0.0,M,0.0,M,,*69
$GPGSA,A,3,01,02,03,04,05,06,07,08,09,10,11,12,1.0,1.0,1.0*30
$GPRMC,103938.681,A,5528.377,N,00828.322,E,027.0,075.8,191218,000.0,W*70
$GPGGA,103939.681,5528.380,N,00828.334,E,1,12,1.0,0.0,M,0.0,M,,*67
$GPGSA,A,3,01,02,03,04,05,06,07,08,09,10,11,12,1.0,1.0,1.0*30
$GPRMC,103939.681,A,5528.380,N,00828.334,E,027.0,075.8,191218,000.0,W*7E
$GPGGA,103940.681,5528.383,N,00828.347,E,1,12,1.0,0.0,M,0.0,M,,*6E
$GPGSA,A,3,01,02,03,04,05,06,07,08,09,10,11,12,1.0,1.0,1.0*30
$GPRMC,103940.681,A,5528.383,N,00828.347,E,027.0,075.8,191218,000.0,W*77
$GPGGA,103941.681,5528.386,N,00828.359,E,1,12,1.0,0.0,M,0.0,M,,*65
$GPGSA,A,3,01,02,03,04,05,06,07,08,09,10,11,12,1.0,1.0,1.0*30
$GPRMC,103941.681,A,5528.386,N,00828.359,E,027.0,075.8,191218,000.0,W*7C
$GPGGA,103942.681,5528.389,N,00828.371,E,1,12,1.0,0.0,M,0.0,M,,*63
$GPGSA,A,3,01,02,03,04,05,06,07,08,09,10,11,12,1.0,1.0,1.0*30
$GPRMC,103942.681,A,5528.389,N,00828.371,E,027.0,075.8,191218,000.0,W*7A
$GPGGA,103943.681,5528.392,N,00828.383,E,1,12,1.0,0.0,M,0.0,M,,*65
$GPGSA,A,3,01,02,03,04,05,06,07,08,09,10,11,12,1.0,1.0,1.0*30
$GPRMC,103943.681,A,5528.392,N,00828.383,E,027.0,075.8,191218,000.0,W*7C
$GPGGA,103944.681,5528.395,N,00828.395,E,1,12,1.0,0.0,M,0.0,M,,*62
$GPGSA,A,3,01,02,03,04,05,06,07,08,09,10,11,12,1.0,1.0,1.0*30
$GPRMC,103944.681,A,5528.395,N,00828.395,E,027.0,075.8,191218,000.0,W*7B
$GPGGA,103945.681,5528.398,N,00828.407,E,1,12,1.0,0.0,M,0.0,M,,*62
$GPGSA,A,3,01,02,03,04,05,06,07,08,09,10,11,12,1.0,1.0,1.0*30
$GPRMC,103945.681,A,5528.398,N,00828.407,E,027.0,075.8,191218,000.0,W*7B
$GPGGA,103946.681,5528.401,N,00828.419,E,1,12,1.0,0.0,M,0.0,M,,*69
$GPGSA,A,3,01,02,03,04,05,06,07,08,09,10,11,12,1.0,1.0,1.0*30
$GPRMC,103946.681,A,5528.401,N,00828.419,E,027.0,075.8,191218,000.0,W*70
$GPGGA,103947.681,5528.404,N,00828.431,E,1,12,1.0,0.0,M,0.0,M,,*67
$GPGSA,A,3,01,02,03,04,05,06,07,08,09,10,11,12,1.0,1.0,1.0*30
$GPRMC,103947.681,A,5528.404,N,00828.431,E,027.0,075.8,191218,000.0,W*7E
$GPGGA,103948.681,5528.407,N,00828.443,E,1,12,1.0,0.0,M,0.0,M,,*6E
$GPGSA,A,3,01,02,03,04,05,06,07,08,09,10,11,12,1.0,1.0,1.0*30
$GPRMC,103948.681,A,5528.407,N,00828.443,E,027.0,075.8,191218,000.0,W*77
$GPGGA,103949.681,5528.410,N,00828.455,E,1,12,1.0,0.0,M,0.0,M,,*6E
$GPGSA,A,3,01,02,03,04,05,06,07,08,09,10,11,12,1.0,1.0,1.0*30
$GPRMC,103949.681,A,5528.410,N,00828.455,E,027.0,075.8,191218,000.0,W*77
$GPGGA,103950.681,5528.413,N,00828.467,E,1,12,1.0,0.0,M,0.0,M,,*64
$GPGSA,A,3,01,02,03,04,05,06,07,08,09,10,11,12,1.0,1.0,1.0*30
$GPRMC,103950.681,A,5528.413,N,00828.467,E,027.0,075.8,191218,000.0,W*7D
$GPGGA,103951.681,5528.416,N,00828.480,E,1,12,1.0,0.0,M,0.0,M,,*69
$GPGSA,A,3,01,02,03,04,05,06,07,08,09,10,11,12,1.0,1.0,1.0*30
$GPRMC,103951.681,A,5528.416,N,00828.480,E,027.0,075.8,191218,000.0,W*70
$GPGGA,103952.681,5528.419,N,00828.492,E,1,12,1.0,0.0,M,0.0,M,,*66
$GPGSA,A,3,01,02,03,04,05,06,07,08,09,10,11,12,1.0,1.0,1.0*30
$GPRMC,103952.681,A,5528.419,N,00828.492,E,027.0,075.8,191218,000.0,W*7F
$GPGGA,103953.681,5528.422,N,00828.504,E,1,12,1.0,0.0,M,0.0,M,,*61
$GPGSA,A,3,01,02,03,04,05,06,07,08,09,10,11,12,1.0,1.0,1.0*30
$GPRMC,103953.681,A,5528.422,N,00828.504,E,027.0,075.8,191218,000.0,W*78
$GPGGA,103954.681,5528.425,N,00828.516,E,1,12,1.0,0.0,M,0.0,M,,*62
$GPGSA,A,3,01,02,03,04,05,06,07,08,09,10,11,12,1.0,1.0,1.0*30
$GPRMC,103954.681,A,5528.425,N,00828.516,E,027.0,075.8,191218,000.0,W*7B
$GPGGA,103955.681,5528.428,N,00828.528,E,1,12,1.0,0.0,M,0.0,M,,*63
$GPGSA,A,3,01,02,03,04,05,06,07,08,09,10,11,12,1.0,1.0,1.0*30
$GPRMC,103955.681,A,5528.428,N,00828.528,E,027.0,075.8,191218,000.0,W*7A
$GPGGA,103956.681,5528.432,N,00828.540,E,1,12,1.0,0.0,M,0.0,M,,*65
$GPGSA,A,3,01,02,03,04,05,06,07,08,09,10,11,12,1.0,1.0,1.0*30
$GPRMC,103956.681,A,5528.432,N,00828.540,E,027.0,075.8,191218,000.0,W*7C
$GPGGA,103957.681,5528.435,N,00828.552,E,1,12,1.0,0.0,M,0.0,M,,*60
$GPGSA,A,3,01,02,03,04,05,06,07,08,09,10,11,12,1.0,1.0,1.0*30
$GPRMC,103957.681,A,5528.435,N,00828.552,E,027.0,075.8,191218,000.0,W*79
$GPGGA,103958.681,5528.438,N,00828.564,E,1,12,1.0,0.0,M,0.0,M,,*67
$GPGSA,A,3,01,02,03,04,05,06,07,08,09,10,11,12,1.0,1.0,1.0*30
$GPRMC,103958.681,A,5528.438,N,00828.564,E,027.0,075.8,191218,000.0,W*7E
$GPGGA,103959.681,5528.441,N,00828.576,E,1,12,1.0,0.0,M,0.0,M,,*6B
$GPGSA,A,3,01,02,03,04,05,06,07,08,09,10,11,12,1.0,1.0,1.0*30
$GPRMC,103959.681,A,5528.441,N,00828.576,E,027.0,075.8,191218,000.0,W*72
$GPGGA,104000.681,5528.444,N,00828.588,E,1,12,1.0,0.0,M,0.0,M,,*6D
$GPGSA,A,3,01,02,03,04,05,06,07,08,09,10,11,12,1.0,1.0,1.0*30
$GPRMC,104000.681,A,5528.444,N,00828.588,E,027.0,075.8,191218,000.0,W*74
$GPGGA,104001.681,5528.447,N,00828.600,E,1,12,1.0,0.0,M,0.0,M,,*6C
$GPGSA,A,3,01,02,03,04,05,06,07,08,09,10,11,12,1.0,1.0,1.0*30
$GPRMC,104001.681,A,5528.447,N,00828.600,E,027.0,075.8,191218,000.0,W*75
$GPGGA,104002.681,5528.450,N,00828.612,E,1,12,1.0,0.0,M,0.0,M,,*6A
$GPGSA,A,3,01,02,03,04,05,06,07,08,09,10,11,12,1.0,1.0,1.0*30
$GPRMC,104002.681,A,5528.450,N,00828.612,E,027.0,075.8,191218,000.0,W*73
$GPGGA,104003.681,5528.453,N,00828.625,E,1,12,1.0,0.0,M,0.0,M,,*6C
$GPGSA,A,3,01,02,03,04,05,06,07,08,09,10,11,12,1.0,1.0,1.0*30
$GPRMC,104003.681,A,5528.453,N,00828.625,E,027.0,075.8,191218,000.0,W*75
$GPGGA,104004.681,5528.456,N,00828.637,E,1,12,1.0,0.0,M,0.0,M,,*6D
$GPGSA,A,3,01,02,03,04,05,06,07,08,09,10,11,12,1.0,1.0,1.0*30
$GPRMC,104004.681,A,5528.456,N,00828.637,E,027.0,075.8,191218,000.0,W*74
$GPGGA,104005.681,5528.459,N,00828.649,E,1,12,1.0,0.0,M,0.0,M,,*6A
$GPGSA,A,3,01,02,03,04,05,06,07,08,09,10,11,12,1.0,1.0,1.0*30
$GPRMC,104005.681,A,5528.459,N,00828.649,E,027.0,075.8,191218,000.0,W*73
$GPGGA,104006.681,5528.462,N,00828.661,E,1,12,1.0,0.0,M,0.0,M,,*6B
$GPGSA,A,3,01,02,03,04,05,06,07,08,09,10,11,12,1.0,1.0,1.0*30
$GPRMC,104006.681,A,5528.462,N,00828.661,E,027.0,075.8,191218,000.0,W*72
$GPGGA,104007.681,5528.465,N,00828.673,E,1,12,1.0,0.0,M,0.0,M,,*6E
$GPGSA,A,3,01,02,03,04,05,06,07,08,09,10,11,12,1.0,1.0,1.0*30
$GPRMC,104007.681,A,5528.465,N,00828.673,E,027.0,075.8,191218,000.0,W*77
$GPGGA,104008.681,5528.468,N,00828.685,E,1,12,1.0,0.0,M,0.0,M,,*65
$GPGSA,A,3,01,02,03,04,05,06,07,08,09,10,11,12,1.0,1.0,1.0*30
$GPRMC,104008.681,A,5528.468,N,00828.685,E,027.0,075.8,191218,000.0,W*7C
$GPGGA,104009.681,5528.471,N,00828.697,E,1,12,1.0,0.0,M,0.0,M,,*6F
$GPGSA,A,3,01,02,03,04,05,06,07,08,09,10,11,12,1.0,1.0,1.0*30
$GPRMC,104009.681,A,5528.471,N,00828.697,E,027.0,075.8,191218,000.0,W*76
$GPGGA,104010.681,5528.474,N,00828.709,E,1,12,1.0,0.0,M,0.0,M,,*64
$GPGSA,A,3,01,02,03,04,05,06,07,08,09,10,11,12,1.0,1.0,1.0*30
$GPRMC,104010.681,A,5528.474,N,00828.709,E,027.0,075.8,191218,000.0,W*7D
$GPGGA,104011.681,5528.477,N,00828.721,E,1,12,1.0,0.0,M,0.0,M,,*6C
$GPGSA,A,3,01,02,03,04,05,06,07,08,09,10,11,12,1.0,1.0,1.0*30
$GPRMC,104011.681,A,5528.477,N,00828.721,E,027.0,075.8,191218,000.0,W*75
$GPGGA,104012.681,5528.480,N,00828.733,E,1,12,1.0,0.0,M,0.0,M,,*64
$GPGSA,A,3,01,02,03,04,05,06,07,08,09,10,11,12,1.0,1.0,1.0*30
$GPRMC,104012.681,A,5528.480,N,00828.733,E,027.0,075.8,191218,000.0,W*7D
$GPGGA,104013.681,5528.483,N,00828.745,E,1,12,1.0,0.0,M,0.0,M,,*67
$GPGSA,A,3,01,02,03,04,05,06,07,08,09,10,11,12,1.0,1.0,1.0*30
$GPRMC,104013.681,A,5528.483,N,00828.745,E,027.0,075.8,191218,000.0,W*7E
$GPGGA,104014.681,5528.486,N,00828.758,E,1,12,1.0,0.0,M,0.0,M,,*69
$GPGSA,A,3,01,02,03,04,05,06,07,08,09,10,11,12,1.0,1.0,1.0*30
$GPRMC,104014.681,A,5528.486,N,00828.758,E,027.0,075.8,191218,000.0,W*70
$GPGGA,104015.681,5528.489,N,00828.770,E,1,12,1.0,0.0,M,0.0,M,,*6D
$GPGSA,A,3,01,02,03,04,05,06,07,08,09,10,11,12,1.0,1.0,1.0*30
$GPRMC,104015.681,A,5528.489,N,00828.770,E,027.0,075.8,191218,000.0,W*74
$GPGGA,104016.681,5528.492,N,00828.782,E,1,12,1.0,0.0,M,0.0,M,,*69
$GPGSA,A,3,01,02,03,04,05,06,07,08,09,10,11,12,1.0,1.0,1.0*30
$GPRMC,104016.681,A,5528.492,N,00828.782,E,027.0,075.8,191218,000.0,W*70
$GPGGA,104017.681,5528.495,N,00828.794,E,1,12,1.0,0.0,M,0.0,M,,*68
$GPGSA,A,3,01,02,03,04,05,06,07,08,09,10,11,12,1.0,1.0,1.0*30
$GPRMC,104017.681,A,5528.495,N,00828.794,E,027.0,075.8,191218,000.0,W*71
$GPGGA,104018.681,5528.498,N,00828.806,E,1,12,1.0,0.0,M,0.0,M,,*6E
$GPGSA,A,3,01,02,03,04,05,06,07,08,09,10,11,12,1.0,1.0,1.0*30
$GPRMC,104018.681,A,5528.498,N,00828.806,E,027.0,075.8,191218,000.0,W*77
$GPGGA,104019.681,5528.501,N,00828.818,E,1,12,1.0,0.0,M,0.0,M,,*61
$GPGSA,A,3,01,02,03,04,05,06,07,08,09,10,11,12,1.0,1.0,1.0*30
$GPRMC,104019.681,A,5528.501,N,00828.818,E,027.0,075.8,191218,000.0,W*78
$GPGGA,104020.681,5528.504,N,00828.830,E,1,12,1.0,0.0,M,0.0,M,,*64
$GPGSA,A,3,01,02,03,04,05,06,07,08,09,10,11,12,1.0,1.0,1.0*30
$GPRMC,104020.681,A,5528.504,N,00828.830,E,027.0,075.8,191218,000.0,W*7D
$GPGGA,104021.681,5528.507,N,00828.842,E,1,12,1.0,0.0,M,0.0,M,,*63
$GPGSA,A,3,01,02,03,04,05,06,07,08,09,10,11,12,1.0,1.0,1.0*30
$GPRMC,104021.681,A,5528.507,N,00828.842,E,027.0,075.8,191218,000.0,W*7A
$GPGGA,104022.681,5528.510,N,00828.854,E,1,12,1.0,0.0,M,0.0,M,,*61
$GPGSA,A,3,01,02,03,04,05,06,07,08,09,10,11,12,1.0,1.0,1.0*30
$GPRMC,104022.681,A,5528.510,N,00828.854,E,027.0,075.8,191218,000.0,W*78
$GPGGA,104023.681,5528.513,N,00828.866,E,1,12,1.0,0.0,M,0.0,M,,*62
$GPGSA,A,3,01,02,03,04,05,06,07,08,09,10,11,12,1.0,1.0,1.0*30
$GPRMC,104023.681,A,5528.513,N,00828.866,E,027.0,075.8,191218,000.0,W*7B
$GPGGA,104024.681,5528.516,N,00828.878,E,1,12,1.0,0.0,M,0.0,M,,*6F
$GPGSA,A,3,01,02,03,04,05,06,07,08,09,10,11,12,1.0,1.0,1.0*30
$GPRMC,104024.681,A,5528.516,N,00828.878,E,027.0,075.8,191218,000.0,W*76
$GPGGA,104025.681,5528.520,N,00828.891,E,1,12,1.0,0.0,M,0.0,M,,*6C
$GPGSA,A,3,01,02,03,04,05,06,07,08,09,10,11,12,1.0,1.0,1.0*30
$GPRMC,104025.681,A,5528.520,N,00828.891,E,027.0,075.8,191218,000.0,W*75
$GPGGA,104026.681,5528.523,N,00828.903,E,1,12,1.0,0.0,M,0.0,M,,*66
$GPGSA,A,3,01,02,03,04,05,06,07,08,09,10,11,12,1.0,1.0,1.0*30
$GPRMC,104026.681,A,5528.523,N,00828.903,E,027.0,075.8,191218,000.0,W*7F
$GPGGA,104027.681,5528.526,N,00828.915,E,1,12,1.0,0.0,M,0.0,M,,*65
$GPGSA,A,3,01,02,03,04,05,06,07,08,09,10,11,12,1.0,1.0,1.0*30
$GPRMC,104027.681,A,5528.526,N,00828.915,E,027.0,075.8,191218,000.0,W*7C
$GPGGA,104028.681,5528.529,N,00828.927,E,1,12,1.0,0.0,M,0.0,M,,*64
$GPGSA,A,3,01,02,03,04,05,06,07,08,09,10,11,12,1.0,1.0,1.0*30
$GPRMC,104028.681,A,5528.529,N,00828.927,E,027.0,075.8,191218,000.0,W*7D
$GPGGA,104029.681,5528.532,N,00828.939,E,1,12,1.0,0.0,M,0.0,M,,*60
$GPGSA,A,3,01,02,03,04,05,06,07,08,09,10,11,12,1.0,1.0,1.0*30
$GPRMC,104029.681,A,5528.532,N,00828.939,E,027.0,075.8,191218,000.0,W*79
$GPGGA,104030.681,5528.535,N,00828.951,E,1,12,1.0,0.0,M,0.0,M,,*61
$GPGSA,A,3,01,02,03,04,05,06,07,08,09,10,11,12,1.0,1.0,1.0*30
$GPRMC,104030.681,A,5528.535,N,00828.951,E,027.0,075.8,191218,000.0,W*78
$GPGGA,104031.681,5528.538,N,00828.963,E,1,12,1.0,0.0,M,0.0,M,,*6C
$GPGSA,A,3,01,02,03,04,05,06,07,08,09,10,11,12,1.0,1.0,1.0*30
$GPRMC,104031.681,A,5528.538,N,00828.963,E,027.0,075.8,191218,000.0,W*75
$GPGGA,104032.681,5528.541,N,00828.975,E,1,12,1.0,0.0,M,0.0,M,,*66
$GPGSA,A,3,01,02,03,04,05,06,07,08,09,10,11,12,1.0,1.0,1.0*30
$GPRMC,104032.681,A,5528.541,N,00828.975,E,027.0,075.8,191218,000.0,W*7F
$GPGGA,104033.681,5528.544,N,00828.987,E,1,12,1.0,0.0,M,0.0,M,,*6F
$GPGSA,A,3,01,02,03,04,05,06,07,08,09,10,11,12,1.0,1.0,1.0*30
$GPRMC,104033.681,A,5528.544,N,00828.987,E,027.0,072.5,191218,000.0,W*7C
$GPGGA,104034.681,5528.547,N,00828.999,E,1,12,1.0,0.0,M,0.0,M,,*64
$GPGSA,A,3,01,02,03,04,05,06,07,08,09,10,11,12,1.0,1.0,1.0*30
$GPRMC,104034.681,A,5528.547,N,00828.999,E,027.0,072.5,191218,000.0,W*77
$GPGGA,104035.681,5528.551,N,00829.010,E,1,12,1.0,0.0,M,0.0,M,,*6B
$GPGSA,A,3,01,02,03,04,05,06,07,08,09,10,11,12,1.0,1.0,1.0*30
$GPRMC,104035.681,A,5528.551,N,00829.010,E,027.0,072.5,191218,000.0,W*78
$GPGGA,104036.681,5528.555,N,00829.022,E,1,12,1.0,0.0,M,0.0,M,,*6D
$GPGSA,A,3,01,02,03,04,05,06,07,08,09,10,11,12,1.0,1.0,1.0*30
$GPRMC,104036.681,A,5528.555,N,00829.022,E,027.0,072.5,191218,000.0,W*7E
$GPGGA,104037.681,5528.558,N,00829.034,E,1,12,1.0,0.0,M,0.0,M,,*66
$GPGSA,A,3,01,02,03,04,05,06,07,08,09,10,11,12,1.0,1.0,1.0*30
$GPRMC,104037.681,A,5528.558,N,00829.034,E,027.0,072.5,191218,000.0,W*75
$GPGGA,104038.681,5528.562,N,00829.045,E,1,12,1.0,0.0,M,0.0,M,,*66
$GPGSA,A,3,01,02,03,04,05,06,07,08,09,10,11,12,1.0,1.0,1.0*30
$GPRMC,104038.681,A,5528.562,N,00829.045,E,027.0,072.5,191218,000.0,W*75
$GPGGA,104039.681,5528.566,N,00829.057,E,1,12,1.0,0.0,M,0.0,M,,*60
$GPGSA,A,3,01,02,03,04,05,06,07,08,09,10,11,12,1.0,1.0,1.0*30
$GPRMC,104039.681,A,5528.566,N,00829.057,E,027.0,072.5,191218,000.0,W*73
$GPGGA,104040.681,5528.569,N,00829.068,E,1,12,1.0,0.0,M,0.0,M,,*6D
$GPGSA,A,3,01,02,03,04,05,06,07,08,09,10,11,12,1.0,1.0,1.0*30
$GPRMC,104040.681,A,5528.569,N,00829.068,E,027.0,072.5,191218,000.0,W*7E
$GPGGA,104041.681,5528.573,N,00829.080,E,1,12,1.0,0.0,M,0.0,M,,*61
$GPGSA,A,3,01,02,03,04,05,06,07,08,09,10,11,12,1.0,1.0,1.0*30
$GPRMC,104041.681,A,5528.573,N,00829.080,E,027.0,072.5,191218,000.0,W*72
$GPGGA,104042.681,5528.577,N,00829.091,E,1,12,1.0,0.0,M,0.0,M,,*66
$GPGSA,A,3,01,02,03,04,05,06,07,08,09,10,11,12,1.0,1.0,1.0*30
$GPRMC,104042.681,A,5528.577,N,00829.091,E,027.0,072.5,191218,000.0,W*75
$GPGGA,104043.681,5528.580,N,00829.103,E,1,12,1.0,0.0,M,0.0,M,,*65
$GPGSA,A,3,01,02,03,04,05,06,07,08,09,10,11,12,1.0,1.0,1.0*30
$GPRMC,104043.681,A,5528.580,N,00829.103,E,027.0,072.5,191218,000.0,W*76
$GPGGA,104044.681,5528.584,N,00829.115,E,1,12,1.0,0.0,M,0.0,M,,*61
$GPGSA,A,3,01,02,03,04,05,06,07,08,09,10,11,12,1.0,1.0,1.0*30
$GPRMC,104044.681,A,5528.584,N,00829.115,E,027.0,072.5,191218,000.0,W*72
$GPGGA,104045.681,5528.587,N,00829.126,E,1,12,1.0,0.0,M,0.0,M,,*63
$GPGSA,A,3,01,02,03,04,05,06,07,08,09,10,11,12,1.0,1.0,1.0*30
$GPRMC,104045.681,A,5528.587,N,00829.126,E,027.0,072.5,191218,000.0,W*70
$GPGGA,104046.681,5528.591,N,00829.138,E,1,12,1.0,0.0,M,0.0,M,,*68
$GPGSA,A,3,01,02,03,04,05,06,07,08,09,10,11,12,1.0,1.0,1.0*30
$GPRMC,104046.681,A,5528.591,N,00829.138,E,027.0,072.5,191218,000.0,W*7B
$GPGGA,104047.681,5528.595,N,00829.149,E,1,12,1.0,0.0,M,0.0,M,,*6B
$GPGSA,A,3,01,02,03,04,05,06,07,08,09,10,11,12,1.0,1.0,1.0*30
$GPRMC,104047.681,A,5528.595,N,00829.149,E,027.0,072.5,191218,000.0,W*78
$GPGGA,104048.681,5528.598,N,00829.161,E,1,12,1.0,0.0,M,0.0,M,,*63
$GPGSA,A,3,01,02,03,04,05,06,07,08,09,10,11,12,1.0,1.0,1.0*30
$GPRMC,104048.681,A,5528.598,N,00829.161,E,027.0,072.5,191218,000.0,W*70
$GPGGA,104049.681,5528.602,N,00829.172,E,1,12,1.0,0.0,M,0.0,M,,*60
$GPGSA,A,3,01,02,03,04,05,06,07,08,09,10,11,12,1.0,1.0,1.0*30
$GPRMC,104049.681,A,5528.602,N,00829.172,E,027.0,072.5,191218,000.0,W*73
$GPGGA,104050.681,5528.606,N,00829.184,E,1,12,1.0,0.0,M,0.0,M,,*65
$GPGSA,A,3,01,02,03,04,05,06,07,08,09,10,11,12,1.0,1.0,1.0*30
$GPRMC,104050.681,A,5528.606,N,00829.184,E,027.0,072.5,191218,000.0,W*76
$GPGGA,104051.681,5528.609,N,00829.195,E,1,12,1.0,0.0,M,0.0,M,,*6B
$GPGSA,A,3,01,02,03,04,05,06,07,08,09,10,11,12,1.0,1.0,1.0*30
$GPRMC,104051.681,A,5528.609,N,00829.195,E,027.0,072.5,191218,000.0,W*78
$GPGGA,104052.681,5528.613,N,00829.207,E,1,12,1.0,0.0,M,0.0,M,,*6B
$GPGSA,A,3,01,02,03,04,05,06,07,08,09,10,11,12,1.0,1.0,1.0*30
$GPRMC,104052.681,A,5528.613,N,00829.207,E,027.0,072.5,191218,000.0,W*78
$GPGGA,104053.681,5528.616,N,00829.219,E,1,12,1.0,0.0,M,0.0,M,,*60
$GPGSA,A,3,01,02,03,04,05,06,07,08,09,10,11,12,1.0,1.0,1.0*30
$GPRMC,104053.681,A,5528.616,N,00829.219,E,027.0,072.5,191218,000.0,W*73
$GPGGA,104054.681,5528.620,N,00829.230,E,1,12,1.0,0.0,M,0.0,M,,*69
$GPGSA,A,3,01,02,03,04,05,06,07,08,09,10,11,12,1.0,1.0,1.0*30
$GPRMC,104054.681,A,5528.620,N,00829.230,E,027.0,072.5,191218,000.0,W*7A
$GPGGA,104055.681,5528.624,N,00829.242,E,1,12,1.0,0.0,M,0.0,M,,*69
$GPGSA,A,3,01,02,03,04,05,06,07,08,09,10,11,12,1.0,1.0,1.0*30
$GPRMC,104055.681,A,5528.624,N,00829.242,E,027.0,072.5,191218,000.0,W*7A
$GPGGA,104056.681,5528.627,N,00829.253,E,1,12,1.0,0.0,M,0.0,M,,*69
$GPGSA,A,3,01,02,03,04,05,06,07,08,09,10,11,12,1.0,1.0,1.0*30
$GPRMC,104056.681,A,5528.627,N,00829.253,E,027.0,072.5,191218,000.0,W*7A
$GPGGA,104057.681,5528.631,N,00829.265,E,1,12,1.0,0.0,M,0.0,M,,*6A
$GPGSA,A,3,01,02,03,04,05,06,07,08,09,10,11,12,1.0,1.0,1.0*30
$GPRMC,104057.681,A,5528.631,N,00829.265,E,027.0,072.5,191218,000.0,W*79
$GPGGA,104058.681,5528.635,N,00829.276,E,1,12,1.0,0.0,M,0.0,M,,*63
$GPGSA,A,3,01,02,03,04,05,06,07,08,09,10,11,12,1.0,1.0,1.0*30
$GPRMC,104058.681,A,5528.635,N,00829.276,E,027.0,072.5,191218,000.0,W*70
$GPGGA,104059.681,5528.638,N,00829.288,E,1,12,1.0,0.0,M,0.0,M,,*6E
$GPGSA,A,3,01,02,03,04,05,06,07,08,09,10,11,12,1.0,1.0,1.0*30
$GPRMC,104059.681,A,5528.638,N,00829.288,E,027.0,072.5,191218,000.0,W*7D
$GPGGA,104100.681,5528.642,N,00829.300,E,1,12,1.0,0.0,M,0.0,M,,*6F
$GPGSA,A,3,01,02,03,04,05,06,07,08,09,10,11,12,1.0,1.0,1.0*30
$GPRMC,104100.681,A,5528.642,N,00829.300,E,027.0,072.5,191218,000.0,W*7C
$GPGGA,104101.681,5528.646,N,00829.311,E,1,12,1.0,0.0,M,0.0,M,,*6A
$GPGSA,A,3,01,02,03,04,05,06,07,08,09,10,11,12,1.0,1.0,1.0*30
$GPRMC,104101.681,A,5528.646,N,00829.311,E,027.0,072.5,191218,000.0,W*79
$GPGGA,104102.681,5528.649,N,00829.323,E,1,12,1.0,0.0,M,0.0,M,,*67
$GPGSA,A,3,01,02,03,04,05,06,07,08,09,10,11,12,1.0,1.0,1.0*30
$GPRMC,104102.681,A,5528.649,N,00829.323,E,027.0,072.5,191218,000.0,W*74
$GPGGA,104103.681,5528.653,N,00829.334,E,1,12,1.0,0.0,M,0.0,M,,*6B
$GPGSA,A,3,01,02,03,04,05,06,07,08,09,10,11,12,1.0,1.0,1.0*30
$GPRMC,104103.681,A,5528.653,N,00829.334,E,027.0,072.5,191218,000.0,W*78
$GPGGA,104104.681,5528.656,N,00829.346,E,1,12,1.0,0.0,M,0.0,M,,*6C
$GPGSA,A,3,01,02,03,04,05,06,07,08,09,10,11,12,1.0,1.0,1.0*30
$GPRMC,104104.681,A,5528.656,N,00829.346,E,027.0,072.5,191218,000.0,W*7F
$GPGGA,104105.681,5528.660,N,00829.357,E,1,12,1.0,0.0,M,0.0,M,,*68
$GPGSA,A,3,01,02,03,04,05,06,07,08,09,10,11,12,1.0,1.0,1.0*30
$GPRMC,104105.681,A,5528.660,N,00829.357,E,027.0,072.5,191218,000.0,W*7B
$GPGGA,104106.681,5528.664,N,00829.369,E,1,12,1.0,0.0,M,0.0,M,,*62
$GPGSA,A,3,01,02,03,04,05,06,07,08,09,10,11,12,1.0,1.0,1.0*30
$GPRMC,104106.681,A,5528.664,N,00829.369,E,027.0,072.5,191218,000.0,W*71
$GPGGA,104107.681,5528.667,N,00829.381,E,1,12,1.0,0.0,M,0.0,M,,*66
$GPGSA,A,3,01,02,03,04,05,06,07,08,09,10,11,12,1.0,1.0,1.0*30
$GPRMC,104107.681,A,5528.667,N,00829.381,E,027.0,072.5,191218,000.0,W*75
$GPGGA,104108.681,5528.671,N,00829.392,E,1,12,1.0,0.0,M,0.0,M,,*6C
$GPGSA,A,3,01,02,03,04,05,06,07,08,09,10,11,12,1.0,1.0,1.0*30
$GPRMC,104108.681,A,5528.671,N,00829.392,E,027.0,072.5,191218,000.0,W*7F
$GPGGA,104109.681,5528.675,N,00829.404,E,1,12,1.0,0.0,M,0.0,M,,*61
$GPGSA,A,3,01,02,03,04,05,06,07,08,09,10,11,12,1.0,1.0,1.0*30
$GPRMC,104109.681,A,5528.675,N,00829.404,E,027.0,072.5,191218,000.0,W*72
$GPGGA,104110.681,5528.678,N,00829.415,E,1,12,1.0,0.0,M,0.0,M,,*64
$GPGSA,A,3,01,02,03,04,05,06,07,08,09,10,11,12,1.0,1.0,1.0*30
$GPRMC,104110.681,A,5528.678,N,00829.415,E,027.0,072.5,191218,000.0,W*77
$GPGGA,104111.681,5528.682,N,00829.427,E,1,12,1.0,0.0,M,0.0,M,,*61
$GPGSA,A,3,01,02,03,04,05,06,07,08,09,10,11,12,1.0,1.0,1.0*30
$GPRMC,104111.681,A,5528.682,N,00829.427,E,027.0,072.5,191218,000.0,W*72
$GPGGA,104112.681,5528.685,N,00829.438,E,1,12,1.0,0.0,M,0.0,M,,*6B
$GPGSA,A,3,01,02,03,04,05,06,07,08,09,10,11,12,1.0,1.0,1.0*30
$GPRMC,104112.681,A,5528.685,N,00829.438,E,027.0,072.5,191218,000.0,W*78
$GPGGA,104113.681,5528.689,N,00829.450,E,1,12,1.0,0.0,M,0.0,M,,*68
$GPGSA,A,3,01,02,03,04,05,06,07,08,09,10,11,12,1.0,1.0,1.0*30
$GPRMC,104113.681,A,5528.689,N,00829.450,E,027.0,072.5,191218,000.0,W*7B
$GPGGA,104114.681,5528.693,N,00829.462,E,1,12,1.0,0.0,M,0.0,M,,*65
$GPGSA,A,3,01,02,03,04,05,06,07,08,09,10,11,12,1.0,1.0,1.0*30
$GPRMC,104114.681,A,5528.693,N,00829.462,E,027.0,072.5,191218,000.0,W*76
$GPGGA,104115.681,5528.696,N,00829.473,E,1,12,1.0,0.0,M,0.0,M,,*61
$GPGSA,A,3,01,02,03,04,05,06,07,08,09,10,11,12,1.0,1.0,1.0*30
$GPRMC,104115.681,A,5528.696,N,00829.473,E,027.0,072.5,191218,000.0,W*72
$GPGGA,104116.681,5528.700,N,00829.485,E,1,12,1.0,0.0,M,0.0,M,,*65
$GPGSA,A,3,01,02,03,04,05,06,07,08,09,10,11,12,1.0,1.0,1.0*30
$GPRMC,104116.681,A,5528.700,N,00829.485,E,027.0,072.5,191218,000.0,W*76
$GPGGA,104117.681,5528.704,N,00829.496,E,1,12,1.0,0.0,M,0.0,M,,*62
$GPGSA,A,3,01,02,03,04,05,06,07,08,09,10,11,12,1.0,1.0,1.0*30
$GPRMC,104117.681,A,5528.704,N,00829.496,E,027.0,072.5,191218,000.0,W*71
$GPGGA,104118.681,5528.707,N,00829.508,E,1,12,1.0,0.0,M,0.0,M,,*68
$GPGSA,A,3,01,02,03,04,05,06,07,08,09,10,11,12,1.0,1.0,1.0*30
$GPRMC,104118.681,A,5528.707,N,00829.508,E,027.0,072.5,191218,000.0,W*7B
$GPGGA,104119.681,5528.711,N,00829.519,E,1,12,1.0,0.0,M,0.0,M,,*6E
$GPGSA,A,3,01,02,03,04,05,06,07,08,09,10,11,12,1.0,1.0,1.0*30
$GPRMC,104119.681,A,5528.711,N,00829.519,E,027.0,072.5,191218,000.0,W*7D
$GPGGA,104120.681,5528.715,N,00829.531,E,1,12,1.0,0.0,M,0.0,M,,*6A
$GPGSA,A,3,01,02,03,04,05,06,07,08,09,10,11,12,1.0,1.0,1.0*30
$GPRMC,104120.681,A,5528.715,N,00829.531,E,027.0,072.5,191218,000.0,W*79
$GPGGA,104121.681,5528.718,N,00829.542,E,1,12,1.0,0.0,M,0.0,M,,*62
$GPGSA,A,3,01,02,03,04,05,06,07,08,09,10,11,12,1.0,1.0,1.0*30
$GPRMC,104121.681,A,5528.718,N,00829.542,E,027.0,072.5,191218,000.0,W*71
$GPGGA,104122.681,5528.722,N,00829.554,E,1,12,1.0,0.0,M,0.0,M,,*6F
$GPGSA,A,3,01,02,03,04,05,06,07,08,09,10,11,12,1.0,1.0,1.0*30
$GPRMC,104122.681,A,5528.722,N,00829.554,E,027.0,072.5,191218,000.0,W*7C
$GPGGA,104123.681,5528.725,N,00829.566,E,1,12,1.0,0.0,M,0.0,M,,*68
$GPGSA,A,3,01,02,03,04,05,06,07,08,09,10,11,12,1.0,1.0,1.0*30
$GPRMC,104123.681,A,5528.725,N,00829.566,E,027.0,072.5,191218,000.0,W*7B
$GPGGA,104124.681,5528.729,N,00829.577,E,1,12,1.0,0.0,M,0.0,M,,*63
$GPGSA,A,3,01,02,03,04,05,06,07,08,09,10,11,12,1.0,1.0,1.0*30
$GPRMC,104124.681,A,5528.729,N,00829.577,E,027.0,072.5,191218,000.0,W*70
$GPGGA,104125.681,5528.733,N,00829.589,E,1,12,1.0,0.0,M,0.0,M,,*68
$GPGSA,A,3,01,02,03,04,05,06,07,08,09,10,11,12,1.0,1.0,1.0*30
$GPRMC,104125.681,A,5528.733,N,00829.589,E,027.0,072.5,191218,000.0,W*7B
$GPGGA,104126.681,5528.736,N,00829.600,E,1,12,1.0,0.0,M,0.0,M,,*6C
$GPGSA,A,3,01,02,03,04,05,06,07,08,09,10,11,12,1.0,1.0,1.0*30
$GPRMC,104126.681,A,5528.736,N,00829.600,E,027.0,072.5,191218,000.0,W*7F
$GPGGA,104127.681,5528.740,N,00829.612,E,1,12,1.0,0.0,M,0.0,M,,*6F
$GPGSA,A,3,01,02,03,04,05,06,07,08,09,10,11,12,1.0,1.0,1.0*30
$GPRMC,104127.681,A,5528.740,N,00829.612,E,027.0,072.5,191218,000.0,W*7C
$GPGGA,104128.681,5528.744,N,00829.623,E,1,12,1.0,0.0,M,0.0,M,,*66
$GPGSA,A,3,01,02,03,04,05,06,07,08,09,10,11,12,1.0,1.0,1.0*30
$GPRMC,104128.681,A,5528.744,N,00829.623,E,027.0,072.5,191218,000.0,W*75
$GPGGA,104129.681,5528.747,N,00829.635,E,1,12,1.0,0.0,M,0.0,M,,*63
$GPGSA,A,3,01,02,03,04,05,06,07,08,09,10,11,12,1.0,1.0,1.0*30
$GPRMC,104129.681,A,5528.747,N,00829.635,E,027.0,072.5,191218,000.0,W*70
$GPGGA,104130.681,5528.751,N,00829.647,E,1,12,1.0,0.0,M,0.0,M,,*69
$GPGSA,A,3,01,02,03,04,05,06,07,08,09,10,11,12,1.0,1.0,1.0*30
$GPRMC,104130.681,A,5528.751,N,00829.647,E,027.0,072.5,191218,000.0,W*7A
$GPGGA,104131.681,5528.755,N,00829.658,E,1,12,1.0,0.0,M,0.0,M,,*62
$GPGSA,A,3,01,02,03,04,05,06,07,08,09,10,11,12,1.0,1.0,1.0*30
$GPRMC,104131.681,A,5528.755,N,00829.658,E,027.0,072.5,191218,000.0,W*71
$GPGGA,104132.681,5528.758,N,00829.670,E,1,12,1.0,0.0,M,0.0,M,,*66
$GPGSA,A,3,01,02,03,04,05,06,07,08,09,10,11,12,1.0,1.0,1.0*30
$GPRMC,104132.681,A,5528.758,N,00829.670,E,027.0,072.5,191218,000.0,W*75
$GPGGA,104133.681,5528.762,N,00829.681,E,1,12,1.0,0.0,M,0.0,M,,*60
$GPGSA,A,3,01,02,03,04,05,06,07,08,09,10,11,12,1.0,1.0,1.0*30
$GPRMC,104133.681,A,5528.762,N,00829.681,E,027.0,072.5,191218,000.0,W*73
$GPGGA,104134.681,5528.765,N,00829.693,E,1,12,1.0,0.0,M,0.0,M,,*63
$GPGSA,A,3,01,02,03,04,05,06,07,08,09,10,11,12,1.0,1.0,1.0*30
$GPRMC,104134.681,A,5528.765,N,00829.693,E,027.0,072.5,191218,000.0,W*70
$GPGGA,104135.681,5528.769,N,00829.704,E,1,12,1.0,0.0,M,0.0,M,,*61
$GPGSA,A,3,01,02,03,04,05,06,07,08,09,10,11,12,1.0,1.0,1.0*30
$GPRMC,104135.681,A,5528.769,N,00829.704,E,027.0,072.5,191218,000.0,W*72
$GPGGA,104136.681,5528.773,N,00829.716,E,1,12,1.0,0.0,M,0.0,M,,*6A
$GPGSA,A,3,01,02,03,04,05,06,07,08,09,10,11,12,1.0,1.0,1.0*30
$GPRMC,104136.681,A,5528.773,N,00829.716,E,027.0,072.5,191218,000.0,W*79
$GPGGA,104137.681,5528.776,N,00829.728,E,1,12,1.0,0.0,M,0.0,M,,*63
$GPGSA,A,3,01,02,03,04,05,06,07,08,09,10,11,12,1.0,1.0,1.0*30
$GPRMC,104137.681,A,5528.776,N,00829.728,E,027.0,072.5,191218,000.0,W*70
$GPGGA,104138.681,5528.780,N,00829.739,E,1,12,1.0,0.0,M,0.0,M,,*65
$GPGSA,A,3,01,02,03,04,05,06,07,08,09,10,11,12,1.0,1.0,1.0*30
$GPRMC,104138.681,A,5528.780,N,00829.739,E,027.0,072.5,191218,000.0,W*76
$GPGGA,104139.681,5528.784,N,00829.751,E,1,12,1.0,0.0,M,0.0,M,,*6E
$GPGSA,A,3,01,02,03,04,05,06,07,08,09,10,11,12,1.0,1.0,1.0*30
$GPRMC,104139.681,A,5528.784,N,00829.751,E,027.0,072.5,191218,000.0,W*7D
$GPGGA,104140.681,5528.787,N,00829.762,E,1,12,1.0,0.0,M,0.0,M,,*63
$GPGSA,A,3,01,02,03,04,05,06,07,08,09,10,11,12,1.0,1.0,1.0*30
$GPRMC,104140.681,A,5528.787,N,00829.762,E,027.0,072.5,191218,000.0,W*70
$GPGGA,104141.681,5528.791,N,00829.774,E,1,12,1.0,0.0,M,0.0,M,,*62
$GPGSA,A,3,01,02,03,04,05,06,07,08,09,10,11,12,1.0,1.0,1.0*30
$GPRMC,104141.681,A,5528.791,N,00829.774,E,027.0,072.5,191218,000.0,W*71
$GPGGA,104142.681,5528.794,N,00829.785,E,1,12,1.0,0.0,M,0.0,M,,*6A
$GPGSA,A,3,01,02,03,04,05,06,07,08,09,10,11,12,1.0,1.0,1.0*30
$GPRMC,104142.681,A,5528.794,N,00829.785,E,027.0,072.5,191218,000.0,W*79
$GPGGA,104143.681,5528.798,N,00829.797,E,1,12,1.0,0.0,M,0.0,M,,*64
$GPGSA,A,3,01,02,03,04,05,06,07,08,09,10,11,12,1.0,1.0,1.0*30
$GPRMC,104143.681,A,5528.798,N,00829.797,E,027.0,072.5,191218,000.0,W*77
$GPGGA,104144.681,5528.802,N,00829.809,E,1,12,1.0,0.0,M,0.0,M,,*67
$GPGSA,A,3,01,02,03,04,05,06,07,08,09,10,11,12,1.0,1.0,1.0*30
$GPRMC,104144.681,A,5528.802,N,00829.809,E,027.0,072.5,191218,000.0,W*74
$GPGGA,104145.681,5528.805,N,00829.820,E,1,12,1.0,0.0,M,0.0,M,,*6A
$GPGSA,A,3,01,02,03,04,05,06,07,08,09,10,11,12,1.0,1.0,1.0*30
$GPRMC,104145.681,A,5528.805,N,00829.820,E,027.0,072.5,191218,000.0,W*79
$GPGGA,104146.681,5528.809,N,00829.832,E,1,12,1.0,0.0,M,0.0,M,,*66
$GPGSA,A,3,01,02,03,04,05,06,07,08,09,10,11,12,1.0,1.0,1.0*30
$GPRMC,104146.681,A,5528.809,N,00829.832,E,027.0,072.5,191218,000.0,W*75
$GPGGA,104147.681,5528.813,N,00829.843,E,1,12,1.0,0.0,M,0.0,M,,*6A
$GPGSA,A,3,01,02,03,04,05,06,07,08,09,10,11,12,1.0,1.0,1.0*30
$GPRMC,104147.681,A,5528.813,N,00829.843,E,027.0,072.5,191218,000.0,W*79
$GPGGA,104148.681,5528.816,N,00829.855,E,1,12,1.0,0.0,M,0.0,M,,*67
$GPGSA,A,3,01,02,03,04,05,06,07,08,09,10,11,12,1.0,1.0,1.0*30
$GPRMC,104148.681,A,5528.816,N,00829.855,E,027.0,072.5,191218,000.0,W*74
$GPGGA,104149.681,5528.820,N,00829.866,E,1,12,1.0,0.0,M,0.0,M,,*63
$GPGSA,A,3,01,02,03,04,05,06,07,08,09,10,11,12,1.0,1.0,1.0*30
$GPRMC,104149.681,A,5528.820,N,00829.866,E,027.0,072.5,191218,000.0,W*70
$GPGGA,104150.681,5528.824,N,00829.878,E,1,12,1.0,0.0,M,0.0,M,,*60
$GPGSA,A,3,01,02,03,04,05,06,07,08,09,10,11,12,1.0,1.0,1.0*30
$GPRMC,104150.681,A,5528.824,N,00829.878,E,027.0,072.5,191218,000.0,W*73
$GPGGA,104151.681,5528.827,N,00829.889,E,1,12,1.0,0.0,M,0.0,M,,*6C
$GPGSA,A,3,01,02,03,04,05,06,07,08,09,10,11,12,1.0,1.0,1.0*30
$GPRMC,104151.681,A,5528.827,N,00829.889,E,027.0,072.5,191218,000.0,W*7F
$GPGGA,104152.681,5528.831,N,00829.901,E,1,12,1.0,0.0,M,0.0,M,,*69
$GPGSA,A,3,01,02,03,04,05,06,07,08,09,10,11,12,1.0,1.0,1.0*30
$GPRMC,104152.681,A,5528.831,N,00829.901,E,027.0,072.5,191218,000.0,W*7A
$GPGGA,104153.681,5528.834,N,00829.913,E,1,12,1.0,0.0,M,0.0,M,,*6E
$GPGSA,A,3,01,02,03,04,05,06,07,08,09,10,11,12,1.0,1.0,1.0*30
$GPRMC,104153.681,A,5528.834,N,00829.913,E,027.0,072.5,191218,000.0,W*7D
$GPGGA,104154.681,5528.838,N,00829.924,E,1,12,1.0,0.0,M,0.0,M,,*61
$GPGSA,A,3,01,02,03,04,05,06,07,08,09,10,11,12,1.0,1.0,1.0*30
$GPRMC,104154.681,A,5528.838,N,00829.924,E,027.0,072.5,191218,000.0,W*72
$GPGGA,104155.681,5528.842,N,00829.936,E,1,12,1.0,0.0,M,0.0,M,,*6E
$GPGSA,A,3,01,02,03,04,05,06,07,08,09,10,11,12,1.0,1.0,1.0*30
$GPRMC,104155.681,A,5528.842,N,00829.936,E,027.0,072.5,191218,000.0,W*7D
$GPGGA,104156.681,5528.845,N,00829.947,E,1,12,1.0,0.0,M,0.0,M,,*6C
$GPGSA,A,3,01,02,03,04,05,06,07,08,09,10,11,12,1.0,1.0,1.0*30
$GPRMC,104156.681,A,5528.845,N,00829.947,E,027.0,072.5,191218,000.0,W*7F
$GPGGA,104157.681,5528.849,N,00829.959,E,1,12,1.0,0.0,M,0.0,M,,*6E
$GPGSA,A,3,01,02,03,04,05,06,07,08,09,10,11,12,1.0,1.0,1.0*30
$GPRMC,104157.681,A,5528.849,N,00829.959,E,027.0,072.5,191218,000.0,W*7D
$GPGGA,104158.681,5528.853,N,00829.970,E,1,12,1.0,0.0,M,0.0,M,,*61
$GPGSA,A,3,01,02,03,04,05,06,07,08,09,10,11,12,1.0,1.0,1.0*30
$GPRMC,104158.681,A,5528.853,N,00829.970,E,027.0,072.5,191218,000.0,W*72
$GPGGA,104159.681,5528.856,N,00829.982,E,1,12,1.0,0.0,M,0.0,M,,*68
$GPGSA,A,3,01,02,03,04,05,06,07,08,09,10,11,12,1.0,1.0,1.0*30
$GPRMC,104159.681,A,5528.856,N,00829.982,E,027.0,072.5,191218,000.0,W*7B
$GPGGA,104200.681,5528.860,N,00829.994,E,1,12,1.0,0.0,M,0.0,M,,*65
$GPGSA,A,3,01,02,03,04,05,06,07,08,09,10,11,12,1.0,1.0,1.0*30
$GPRMC,104200.681,A,5528.860,N,00829.994,E,027.0,072.5,191218,000.0,W*76
$GPGGA,104201.681,5528.863,N,00830.005,E,1,12,1.0,0.0,M,0.0,M,,*6E
$GPGSA,A,3,01,02,03,04,05,06,07,08,09,10,11,12,1.0,1.0,1.0*30
$GPRMC,104201.681,A,5528.863,N,00830.005,E,027.0,072.5,191218,000.0,W*7D
$GPGGA,104202.681,5528.867,N,00830.017,E,1,12,1.0,0.0,M,0.0,M,,*6A
$GPGSA,A,3,01,02,03,04,05,06,07,08,09,10,11,12,1.0,1.0,1.0*30
$GPRMC,104202.681,A,5528.867,N,00830.017,E,027.0,072.5,191218,000.0,W*79
$GPGGA,104203.681,5528.871,N,00830.028,E,1,12,1.0,0.0,M,0.0,M,,*60
$GPGSA,A,3,01,02,03,04,05,06,07,08,09,10,11,12,1.0,1.0,1.0*30
$GPRMC,104203.681,A,5528.871,N,00830.028,E,027.0,060.4,191218,000.0,W*71
$GPGGA,104204.681,5528.876,N,00830.038,E,1,12,1.0,0.0,M,0.0,M,,*61
$GPGSA,A,3,01,02,03,04,05,06,07,08,09,10,11,12,1.0,1.0,1.0*30
$GPRMC,104204.681,A,5528.876,N,00830.038,E,027.0,060.4,191218,000.0,W*70
$GPGGA,104205.681,5528.881,N,00830.047,E,1,12,1.0,0.0,M,0.0,M,,*60
$GPGSA,A,3,01,02,03,04,05,06,07,08,09,10,11,12,1.0,1.0,1.0*30
$GPRMC,104205.681,A,5528.881,N,00830.047,E,027.0,060.4,191218,000.0,W*71
$GPGGA,104206.681,5528.887,N,00830.056,E,1,12,1.0,0.0,M,0.0,M,,*65
$GPGSA,A,3,01,02,03,04,05,06,07,08,09,10,11,12,1.0,1.0,1.0*30
$GPRMC,104206.681,A,5528.887,N,00830.056,E,027.0,060.4,191218,000.0,W*74
$GPGGA,104207.681,5528.892,N,00830.066,E,1,12,1.0,0.0,M,0.0,M,,*63
$GPGSA,A,3,01,02,03,04,05,06,07,08,09,10,11,12,1.0,1.0,1.0*30
$GPRMC,104207.681,A,5528.892,N,00830.066,E,027.0,060.4,191218,000.0,W*72
$GPGGA,104208.681,5528.897,N,00830.075,E,1,12,1.0,0.0,M,0.0,M,,*6B
$GPGSA,A,3,01,02,03,04,05,06,07,08,09,10,11,12,1.0,1.0,1.0*30
$GPRMC,104208.681,A,5528.897,N,00830.075,E,027.0,060.4,191218,000.0,W*7A
$GPGGA,104209.681,5528.903,N,00830.084,E,1,12,1.0,0.0,M,0.0,M,,*68
$GPGSA,A,3,01,02,03,04,05,06,07,08,09,10,11,12,1.0,1.0,1.0*30
$GPRMC,104209.681,A,5528.903,N,00830.084,E,027.0,060.4,191218,000.0,W*79
$GPGGA,104210.681,5528.908,N,00830.094,E,1,12,1.0,0.0,M,0.0,M,,*6A
$GPGSA,A,3,01,02,03,04,05,06,07,08,09,10,11,12,1.0,1.0,1.0*30
$GPRMC,104210.681,A,5528.908,N,00830.094,E,027.0,060.4,191218,000.0,W*7B
$GPGGA,104211.681,5528.913,N,00830.103,E,1,12,1.0,0.0,M,0.0,M,,*6E
$GPGSA,A,3,01,02,03,04,05,06,07,08,09,10,11,12,1.0,1.0,1.0*30
$GPRMC,104211.681,A,5528.913,N,00830.103,E,027.0,060.4,191218,000.0,W*7F
$GPGGA,104212.681,5528.918,N,00830.113,E,1,12,1.0,0.0,M,0.0,M,,*67
$GPGSA,A,3,01,02,03,04,05,06,07,08,09,10,11,12,1.0,1.0,1.0*30
$GPRMC,104212.681,A,5528.918,N,00830.113,E,027.0,060.4,191218,000.0,W*76
$GPGGA,104213.681,5528.924,N,00830.122,E,1,12,1.0,0.0,M,0.0,M,,*6B
$GPGSA,A,3,01,02,03,04,05,06,07,08,09,10,11,12,1.0,1.0,1.0*30
$GPRMC,104213.681,A,5528.924,N,00830.122,E,027.0,060.4,191218,000.0,W*7A
$GPGGA,104214.681,5528.929,N,00830.131,E,1,12,1.0,0.0,M,0.0,M,,*63
$GPGSA,A,3,01,02,03,04,05,06,07,08,09,10,11,12,1.0,1.0,1.0*30
$GPRMC,104214.681,A,5528.929,N,00830.131,E,027.0,060.4,191218,000.0,W*72
$GPGGA,104215.681,5528.934,N,00830.141,E,1,12,1.0,0.0,M,0.0,M,,*69
$GPGSA,A,3,01,02,03,04,05,06,07,08,09,10,11,12,1.0,1.0,1.0*30
$GPRMC,104215.681,A,5528.934,N,00830.141,E,027.0,060.4,191218,000.0,W*78
$GPGGA,104216.681,5528.940,N,00830.150,E,1,12,1.0,0.0,M,0.0,M,,*69
$GPGSA,A,3,01,02,03,04,05,06,07,08,09,10,11,12,1.0,1.0,1.0*30
$GPRMC,104216.681,A,5528.940,N,00830.150,E,027.0,060.4,191218,000.0,W*78
$GPGGA,104217.681,5528.945,N,00830.159,E,1,12,1.0,0.0,M,0.0,M,,*64
$GPGSA,A,3,01,02,03,04,05,06,07,08,09,10,11,12,1.0,1.0,1.0*30
$GPRMC,104217.681,A,5528.945,N,00830.159,E,027.0,060.4,191218,000.0,W*75
$GPGGA,104218.681,5528.950,N,00830.169,E,1,12,1.0,0.0,M,0.0,M,,*6C
$GPGSA,A,3,01,02,03,04,05,06,07,08,09,10,11,12,1.0,1.0,1.0*30
$GPRMC,104218.681,A,5528.950,N,00830.169,E,027.0,060.4,191218,000.0,W*7D
$GPGGA,104219.681,5528.955,N,00830.178,E,1,12,1.0,0.0,M,0.0,M,,*68
$GPGSA,A,3,01,02,03,04,05,06,07,08,09,10,11,12,1.0,1.0,1.0*30
$GPRMC,104219.681,A,5528.955,N,00830.178,E,027.0,060.4,191218,000.0,W*79
$GPGGA,104220.681,5528.961,N,00830.187,E,1,12,1.0,0.0,M,0.0,M,,*65
$GPGSA,A,3,01,02,03,04,05,06,07,08,09,10,11,12,1.0,1.0,1.0*30
$GPRMC,104220.681,A,5528.961,N,00830.187,E,027.0,060.4,191218,000.0,W*74
$GPGGA,104221.681,5528.966,N,00830.197,E,1,12,1.0,0.0,M,0.0,M,,*62
$GPGSA,A,3,01,02,03,04,05,06,07,08,09,10,11,12,1.0,1.0,1.0*30
$GPRMC,104221.681,A,5528.966,N,00830.197,E,027.0,060.4,191218,000.0,W*73
$GPGGA,104222.681,5528.971,N,00830.206,E,1,12,1.0,0.0,M,0.0,M,,*6C
$GPGSA,A,3,01,02,03,04,05,06,07,08,09,10,11,12,1.0,1.0,1.0*30
$GPRMC,104222.681,A,5528.971,N,00830.206,E,027.0,060.4,191218,000.0,W*7D
$GPGGA,104223.681,5528.977,N,00830.216,E,1,12,1.0,0.0,M,0.0,M,,*6A
$GPGSA,A,3,01,02,03,04,05,06,07,08,09,10,11,12,1.0,1.0,1.0*30
$GPRMC,104223.681,A,5528.977,N,00830.216,E,027.0,060.4,191218,000.0,W*7B
$GPGGA,104224.681,5528.982,N,00830.225,E,1,12,1.0,0.0,M,0.0,M,,*67
$GPGSA,A,3,01,02,03,04,05,06,07,08,09,10,11,12,1.0,1.0,1.0*30
$GPRMC,104224.681,A,5528.982,N,00830.225,E,027.0,060.4,191218,000.0,W*76
$GPGGA,104225.681,5528.987,N,00830.234,E,1,12,1.0,0.0,M,0.0,M,,*63
$GPGSA,A,3,01,02,03,04,05,06,07,08,09,10,11,12,1.0,1.0,1.0*30
$GPRMC,104225.681,A,5528.987,N,00830.234,E,027.0,060.4,191218,000.0,W*72
$GPGGA,104226.681,5528.993,N,00830.244,E,1,12,1.0,0.0,M,0.0,M,,*62
$GPGSA,A,3,01,02,03,04,05,06,07,08,09,10,11,12,1.0,1.0,1.0*30
$GPRMC,104226.681,A,5528.993,N,00830.244,E,027.0,060.4,191218,000.0,W*73
$GPGGA,104227.681,5528.998,N,00830.253,E,1,12,1.0,0.0,M,0.0,M,,*6E
$GPGSA,A,3,01,02,03,04,05,06,07,08,09,10,11,12,1.0,1.0,1.0*30
$GPRMC,104227.681,A,5528.998,N,00830.253,E,027.0,060.4,191218,000.0,W*7F
$GPGGA,104228.681,5529.003,N,00830.262,E,1,12,1.0,0.0,M,0.0,M,,*69
$GPGSA,A,3,01,02,03,04,05,06,07,08,09,10,11,12,1.0,1.0,1.0*30
$GPRMC,104228.681,A,5529.003,N,00830.262,E,027.0,060.4,191218,000.0,W*78
$GPGGA,104229.681,5529.008,N,00830.272,E,1,12,1.0,0.0,M,0.0,M,,*62
$GPGSA,A,3,01,02,03,04,05,06,07,08,09,10,11,12,1.0,1.0,1.0*30
$GPRMC,104229.681,A,5529.008,N,00830.272,E,027.0,060.4,191218,000.0,W*73
$GPGGA,104230.681,5529.014,N,00830.281,E,1,12,1.0,0.0,M,0.0,M,,*6B
$GPGSA,A,3,01,02,03,04,05,06,07,08,09,10,11,12,1.0,1.0,1.0*30
$GPRMC,104230.681,A,5529.014,N,00830.281,E,027.0,060.4,191218,000.0,W*7A
$GPGGA,104231.681,5529.019,N,00830.290,E,1,12,1.0,0.0,M,0.0,M,,*67
$GPGSA,A,3,01,02,03,04,05,06,07,08,09,10,11,12,1.0,1.0,1.0*30
$GPRMC,104231.681,A,5529.019,N,00830.290,E,027.0,060.4,191218,000.0,W*76
$GPGGA,104232.681,5529.024,N,00830.300,E,1,12,1.0,0.0,M,0.0,M,,*62
$GPGSA,A,3,01,02,03,04,05,06,07,08,09,10,11,12,1.0,1.0,1.0*30
$GPRMC,104232.681,A,5529.024,N,00830.300,E,027.0,060.4,191218,000.0,W*73
$GPGGA,104233.681,5529.030,N,00830.309,E,1,12,1.0,0.0,M,0.0,M,,*6F
$GPGSA,A,3,01,02,03,04,05,06,07,08,09,10,11,12,1.0,1.0,1.0*30
$GPRMC,104233.681,A,5529.030,N,00830.309,E,027.0,060.4,191218,000.0,W*7E
$GPGGA,104234.681,5529.035,N,00830.319,E,1,12,1.0,0.0,M,0.0,M,,*6C
$GPGSA,A,3,01,02,03,04,05,06,07,08,09,10,11,12,1.0,1.0,1.0*30
$GPRMC,104234.681,A,5529.035,N,00830.319,E,027.0,060.4,191218,000.0,W*7D
$GPGGA,104235.681,5529.040,N,00830.328,E,1,12,1.0,0.0,M,0.0,M,,*6D
$GPGSA,A,3,01,02,03,04,05,06,07,08,09,10,11,12,1.0,1.0,1.0*30
$GPRMC,104235.681,A,5529.040,N,00830.328,E,027.0,060.4,191218,000.0,W*7C
$GPGGA,104236.681,5529.045,N,00830.337,E,1,12,1.0,0.0,M,0.0,M,,*65
$GPGSA,A,3,01,02,03,04,05,06,07,08,09,10,11,12,1.0,1.0,1.0*30
$GPRMC,104236.681,A,5529.045,N,00830.337,E,027.0,060.4,191218,000.0,W*74
$GPGGA,104237.681,5529.051,N,00830.347,E,1,12,1.0,0.0,M,0.0,M,,*66
$GPGSA,A,3,01,02,03,04,05,06,07,08,09,10,11,12,1.0,1.0,1.0*30
$GPRMC,104237.681,A,5529.051,N,00830.347,E,027.0,060.4,191218,000.0,W*77
$GPGGA,104238.681,5529.056,N,00830.356,E,1,12,1.0,0.0,M,0.0,M,,*6E
$GPGSA,A,3,01,02,03,04,05,06,07,08,09,10,11,12,1.0,1.0,1.0*30
$GPRMC,104238.681,A,5529.056,N,00830.356,E,027.0,060.4,191218,000.0,W*7F
$GPGGA,104239.681,5529.061,N,00830.365,E,1,12,1.0,0.0,M,0.0,M,,*6B
$GPGSA,A,3,01,02,03,04,05,06,07,08,09,10,11,12,1.0,1.0,1.0*30
$GPRMC,104239.681,A,5529.061,N,00830.365,E,075.4,344.3,191218,000.0,W*7B
$GPGGA,104240.681,5529.082,N,00830.359,E,1,12,1.0,0.0,M,0.0,M,,*67
$GPGSA,A,3,01,02,03,04,05,06,07,08,09,10,11,12,1.0,1.0,1.0*30
$GPRMC,104240.681,A,5529.082,N,00830.359,E,075.4,344.3,191218,000.0,W*77
$GPGGA,104241.681,5529.103,N,00830.354,E,1,12,1.0,0.0,M,0.0,M,,*63
$GPGSA,A,3,01,02,03,04,05,06,07,08,09,10,11,12,1.0,1.0,1.0*30
$GPRMC,104241.681,A,5529.103,N,00830.354,E,075.4,344.3,191218,000.0,W*73
$GPGGA,104242.681,5529.123,N,00830.348,E,1,12,1.0,0.0,M,0.0,M,,*6F
$GPGSA,A,3,01,02,03,04,05,06,07,08,09,10,11,12,1.0,1.0,1.0*30
$GPRMC,104242.681,A,5529.123,N,00830.348,E,075.4,344.3,191218,000.0,W*7F
$GPGGA,104243.681,5529.144,N,00830.342,E,1,12,1.0,0.0,M,0.0,M,,*65
$GPGSA,A,3,01,02,03,04,05,06,07,08,09,10,11,12,1.0,1.0,1.0*30
$GPRMC,104243.681,A,5529.144,N,00830.342,E,075.4,344.3,191218,000.0,W*75
$GPGGA,104244.681,5529.165,N,00830.336,E,1,12,1.0,0.0,M,0.0,M,,*62
$GPGSA,A,3,01,02,03,04,05,06,07,08,09,10,11,12,1.0,1.0,1.0*30
$GPRMC,104244.681,A,5529.165,N,00830.336,E,075.4,344.3,191218,000.0,W*72
$GPGGA,104245.681,5529.185,N,00830.330,E,1,12,1.0,0.0,M,0.0,M,,*6B
$GPGSA,A,3,01,02,03,04,05,06,07,08,09,10,11,12,1.0,1.0,1.0*30
$GPRMC,104245.681,A,5529.185,N,00830.330,E,075.4,344.3,191218,000.0,W*7B
$GPGGA,104246.681,5529.206,N,00830.324,E,1,12,1.0,0.0,M,0.0,M,,*65
$GPGSA,A,3,01,02,03,04,05,06,07,08,09,10,11,12,1.0,1.0,1.0*30
$GPRMC,104246.681,A,5529.206,N,00830.324,E,075.4,344.3,191218,000.0,W*75
$GPGGA,104247.681,5529.227,N,00830.318,E,1,12,1.0,0.0,M,0.0,M,,*68
$GPGSA,A,3,01,02,03,04,05,06,07,08,09,10,11,12,1.0,1.0,1.0*30
$GPRMC,104247.681,A,5529.227,N,00830.318,E,075.4,344.3,191218,000.0,W*78
$GPGGA,104248.681,5529.247,N,00830.313,E,1,12,1.0,0.0,M,0.0,M,,*6A
$GPGSA,A,3,01,02,03,04,05,06,07,08,09,10,11,12,1.0,1.0,1.0*30
$GPRMC,104248.681,A,5529.247,N,00830.313,E,075.4,344.3,191218,000.0,W*7A
$GPGGA,104249.681,5529.268,N,00830.307,E,1,12,1.0,0.0,M,0.0,M,,*63
$GPGSA,A,3,01,02,03,04,05,06,07,08,09,10,11,12,1.0,1.0,1.0*30
$GPRMC,104249.681,A,5529.268,N,00830.307,E,075.4,344.3,191218,000.0,W*73
$GPGGA,104250.681,5529.289,N,00830.301,E,1,12,1.0,0.0,M,0.0,M,,*62
$GPGSA,A,3,01,02,03,04,05,06,07,08,09,10,11,12,1.0,1.0,1.0*30
$GPRMC,104250.681,A,5529.289,N,00830.301,E,075.4,344.3,191218,000.0,W*72
$GPGGA,104251.681,5529.309,N,00830.295,E,1,12,1.0,0.0,M,0.0,M,,*66
$GPGSA,A,3,01,02,03,04,05,06,07,08,09,10,11,12,1.0,1.0,1.0*30
$GPRMC,104251.681,A,5529.309,N,00830.295,E,075.4,344.3,191218,000.0,W*76
$GPGGA,104252.681,5529.330,N,00830.289,E,1,12,1.0,0.0,M,0.0,M,,*62
$GPGSA,A,3,01,02,03,04,05,06,07,08,09,10,11,12,1.0,1.0,1.0*30
$GPRMC,104252.681,A,5529.330,N,00830.289,E,075.4,344.3,191218,000.0,W*72
$GPGGA,104253.681,5529.351,N,00830.283,E,1,12,1.0,0.0,M,0.0,M,,*6E
$GPGSA,A,3,01,02,03,04,05,06,07,08,09,10,11,12,1.0,1.0,1.0*30
$GPRMC,104253.681,A,5529.351,N,00830.283,E,075.4,344.3,191218,000.0,W*7E
$GPGGA,104254.681,5529.371,N,00830.278,E,1,12,1.0,0.0,M,0.0,M,,*6F
$GPGSA,A,3,01,02,03,04,05,06,07,08,09,10,11,12,1.0,1.0,1.0*30
$GPRMC,104254.681,A,5529.371,N,00830.278,E,075.4,344.3,191218,000.0,W*7F
$GPGGA,104255.681,5529.392,N,00830.272,E,1,12,1.0,0.0,M,0.0,M,,*69
$GPGSA,A,3,01,02,03,04,05,06,07,08,09,10,11,12,1.0,1.0,1.0*30
$GPRMC,104255.681,A,5529.392,N,00830.272,E,075.4,344.3,191218,000.0,W*79
$GPGGA,104256.681,5529.413,N,00830.266,E,1,12,1.0,0.0,M,0.0,M,,*61
$GPGSA,A,3,01,02,03,04,05,06,07,08,09,10,11,12,1.0,1.0,1.0*30
$GPRMC,104256.681,A,5529.413,N,00830.266,E,075.4,344.3,191218,000.0,W*71
$GPGGA,104257.681,5529.433,N,00830.260,E,1,12,1.0,0.0,M,0.0,M,,*64
$GPGSA,A,3,01,02,03,04,05,06,07,08,09,10,11,12,1.0,1.0,1.0*30
$GPRMC,104257.681,A,5529.433,N,00830.260,E,075.4,344.3,191218,000.0,W*74
$GPGGA,104258.681,5529.454,N,00830.254,E,1,12,1.0,0.0,M,0.0,M,,*6D
$GPGSA,A,3,01,02,03,04,05,06,07,08,09,10,11,12,1.0,1.0,1.0*30
$GPRMC,104258.681,A,5529.454,N,00830.254,E,075.4,344.3,191218,000.0,W*7D
$GPGGA,104259.681,5529.475,N,00830.248,E,1,12,1.0,0.0,M,0.0,M,,*62
$GPGSA,A,3,01,02,03,04,05,06,07,08,09,10,11,12,1.0,1.0,1.0*30
$GPRMC,104259.681,A,5529.475,N,00830.248,E,075.4,344.3,191218,000.0,W*72
$GPGGA,104300.681,5529.495,N,00830.242,E,1,12,1.0,0.0,M,0.0,M,,*6B
$GPGSA,A,3,01,02,03,04,05,06,07,08,09,10,11,12,1.0,1.0,1.0*30
$GPRMC,104300.681,A,5529.495,N,00830.242,E,075.4,344.3,191218,000.0,W*7B
$GPGGA,104301.681,5529.516,N,00830.237,E,1,12,1.0,0.0,M,0.0,M,,*62
$GPGSA,A,3,01,02,03,04,05,06,07,08,09,10,11,12,1.0,1.0,1.0*30
$GPRMC,104301.681,A,5529.516,N,00830.237,E,075.4,344.3,191218,000.0,W*72
$GPGGA,104302.681,5529.537,N,00830.231,E,1,12,1.0,0.0,M,0.0,M,,*64
$GPGSA,A,3,01,02,03,04,05,06,07,08,09,10,11,12,1.0,1.0,1.0*30
$GPRMC,104302.681,A,5529.537,N,00830.231,E,075.4,344.3,191218,000.0,W*74
$GPGGA,104303.681,5529.557,N,00830.225,E,1,12,1.0,0.0,M,0.0,M,,*66
$GPGSA,A,3,01,02,03,04,05,06,07,08,09,10,11,12,1.0,1.0,1.0*30
$GPRMC,104303.681,A,5529.557,N,00830.225,E,075.4,344.3,191218,000.0,W*76
$GPGGA,104304.681,5529.578,N,00830.219,E,1,12,1.0,0.0,M,0.0,M,,*63
$GPGSA,A,3,01,02,03,04,05,06,07,08,09,10,11,12,1.0,1.0,1.0*30
$GPRMC,104304.681,A,5529.578,N,00830.219,E,075.4,344.3,191218,000.0,W*73
$GPGGA,104305.681,5529.599,N,00830.213,E,1,12,1.0,0.0,M,0.0,M,,*67
$GPGSA,A,3,01,02,03,04,05,06,07,08,09,10,11,12,1.0,1.0,1.0*30
$GPRMC,104305.681,A,5529.599,N,00830.213,E,075.4,344.3,191218,000.0,W*77
